airspeed_indicator_indicated_speed_kt,altimeter_indicated_altitude_ft,altimeter_pressure_alt_ft,attitude_indicator_indicated_pitch_deg,attitude_indicator_indicated_roll_deg,attitude_indicator_internal_pitch_deg,attitude_indicator_internal_roll_deg,encoder_indicated_altitude_ft,encoder_pressure_alt_ft,gps_indicated_altitude_ft,gps_indicated_ground_speed_kt,gps_indicated_vertical_speed,indicated_heading_deg,magnetic_compass_indicated_heading_deg,slip_skid_ball_indicated_slip_skid,turn_indicator_indicated_turn_rate,vertical_speed_indicator_indicated_speed_fpm,flight_aileron,flight_elevator,flight_rudder,flight_flaps,engine_throttle,engine_rpm,
Command: takeoff
6.543497,-87.943535,-86.750092,2.971203,1.359849,2.591089,0.0928,-89.999855,-90.0,2.286527,0.0,0.007704,297.867401,279.005646,0.012393,-0.048298,-19.991758,-0.0,0.0,0.0,0.0,0.0,600.22699,
6.578639,-87.952789,-86.759346,2.969513,1.35314,2.591378,0.092688,-89.999855,-90.0,2.286552,0.0,0.006733,297.866577,281.279694,0.012445,-0.043694,-14.928915,-0.0,0.0,0.0,0.0,0.0,600.25708,
6.64059,-87.963684,-86.770241,2.773085,0.724001,2.583624,0.092463,-89.999855,-90.0,2.286546,3.5E-5,-0.012427,297.865265,284.618988,0.012375,-0.037615,-16.850872,-0.019331,0.051828,4.1E-5,0.0,1.0,672.776978,
6.686102,-87.969391,-86.775948,2.635947,0.335728,2.562613,0.091283,-89.999855,-90.0,2.286473,1.41E-4,-0.033396,297.864288,286.774323,0.012252,-0.034088,-18.78314,-0.010343,0.051672,1.07E-4,0.0,1.0,784.573181,
6.787988,-87.976181,-86.782738,2.51053,0.086229,2.51053,0.086229,-89.999855,-90.0,2.286294,7.4E-4,-0.020232,297.86261,289.86557,0.012279,-0.029529,-15.067785,-0.004796,0.051252,1.56E-4,0.0,1.0,1004.675781,
6.907244,-87.979774,-86.786324,2.493181,0.080152,2.493181,0.080152,-89.999855,-90.0,2.286298,0.002335,0.020701,297.861328,291.813904,0.011947,-0.026935,-18.957415,-0.001232,0.050211,2.4E-4,0.0,1.0,1165.29248,
7.163925,-87.983818,-86.790375,2.494941,0.068542,2.494941,0.068542,-89.999855,-90.0,2.286538,0.008238,0.077108,297.858948,294.395752,0.011001,-0.023837,-14.654852,-0.001145,0.049864,3.04E-4,0.0,1.0,1388.595947,
7.436274,-87.986229,-86.792778,2.5073,0.058081,2.5073,0.058081,-89.999855,-90.0,2.286898,0.017248,0.117236,297.856018,296.214203,0.009471,-0.021969,-14.014654,-9.79E-4,0.049899,4.23E-4,0.0,1.0,1544.830444,
7.907842,-87.988693,-86.79525,2.529699,0.043254,2.529699,0.043254,-89.999855,-90.0,2.287613,0.038085,0.175117,297.849091,298.429382,0.005588,-0.020253,-13.624713,-8.3E-4,0.050146,5.69E-4,0.0,1.0,1725.791382,
8.295791,-87.989952,-86.796509,2.546171,0.033255,2.546171,0.033255,-89.999855,-90.0,2.288258,0.059568,0.213102,297.841492,299.784698,0.005113,-0.019669,-18.818132,-6.18E-4,0.050594,9.15E-4,0.0,1.0,1828.672852,
8.295791,-87.989952,-86.796509,2.546171,0.033255,2.546171,0.033255,-89.999855,-90.0,2.288258,0.059568,0.213102,297.841492,299.784698,0.005113,-0.019669,-18.818132,-6.18E-4,0.050594,9.15E-4,0.0,1.0,1828.672852,
9.715391,-87.992256,-86.798813,2.589822,0.008706,2.589822,0.008706,-89.999855,-90.0,2.291,0.167802,0.336267,297.79776,303.003296,0.007825,-0.02129,-17.9646,-4.75E-4,0.050923,0.001295,0.0,1.0,2043.139282,
10.231384,-87.992401,-86.798958,2.601227,0.002892,2.601227,0.002892,-89.999855,-90.0,2.292147,0.218041,0.379008,297.775726,303.755463,0.01119,-0.022902,-18.49762,-1.24E-4,0.051796,0.003482,0.0,1.0,2087.450195,
10.839841,-87.99234,-86.798897,2.610909,-0.002326,2.610909,-0.002326,-89.999855,-90.0,2.293611,0.284688,0.429721,297.748444,304.443207,0.013996,-0.024866,-18.26996,-4.1E-5,0.052025,0.004584,0.0,1.0,2126.91626,
11.666929,-87.99192,-86.79847,2.621167,-0.007195,2.621167,-0.007195,-89.999855,-90.0,2.295815,0.388056,0.501202,297.709595,305.084137,0.017209,-0.027585,-16.63699,3.3E-5,0.052218,0.005948,0.0,1.0,2164.927246,
12.57028,-87.991058,-86.797615,2.630318,-0.01039,2.630318,-0.01039,-89.999855,-90.0,2.298528,0.517842,0.580587,297.665192,305.450043,0.019474,-0.030518,-12.702346,1.03E-4,0.052423,0.00789,0.0,1.0,2192.446289,
13.234923,-87.990181,-86.796738,2.636034,-0.011702,2.636034,-0.011702,-89.999855,-90.0,2.300738,0.624628,0.639641,297.63208,305.52063,0.020515,-0.032507,-6.591337,1.48E-4,0.052606,0.01011,0.0,1.0,2206.258057,
14.166032,-87.988609,-86.795166,2.64272,-0.012442,2.64272,-0.012442,-89.999855,-90.0,2.304149,0.790427,0.722175,297.588928,305.362671,0.021815,-0.034437,12.914652,1.67E-4,0.052721,0.011766,0.0,1.0,2219.796387,
14.765323,-87.987396,-86.793953,2.646653,-0.012276,2.646653,-0.012276,-89.999855,-90.0,2.306548,0.90713,0.77607,297.563568,305.114288,0.022497,-0.035157,18.158016,1.78E-4,0.052854,0.013924,0.0,1.0,2226.783447,
15.708299,-87.985161,-86.791718,2.652403,-0.011371,2.652403,-0.011371,-89.999855,-90.0,2.31065,1.106377,0.860916,297.53009,304.510986,0.023355,-0.035156,16.97888,1.75E-4,0.052933,0.015192,0.0,1.0,2235.85083,
16.339474,-87.983444,-86.790001,2.656272,-0.010494,2.656272,-0.010494,-89.999855,-90.0,2.313624,1.25026,0.919266,297.511292,303.974213,0.023833,-0.034603,13.270617,1.62E-4,0.053048,0.016866,0.0,1.0,2240.87793,
17.31522,-87.980446,-86.786995,2.662056,-0.008937,2.662056,-0.008937,-89.999855,-90.0,2.318583,1.48903,1.007729,297.489044,302.957458,0.024703,-0.032779,15.345208,1.5E-4,0.053125,0.017805,0.0,1.0,2247.401123,
17.923443,-87.978355,-86.784912,2.665745,-0.007797,2.665745,-0.007797,-89.999855,-90.0,2.321898,1.647614,1.065644,297.478577,302.221985,0.025258,-0.031255,13.063458,1.28E-4,0.053241,0.018918,0.0,1.0,2250.862305,
18.901503,-87.974648,-86.781204,2.671569,-0.005786,2.671569,-0.005786,-89.999855,-90.0,2.327601,1.918673,1.152466,297.466766,300.896484,0.026191,-0.028314,18.019129,1.11E-4,0.053315,0.019441,0.0,1.0,2255.702637,
19.510571,-87.972122,-86.778679,2.6753,-0.004354,2.6753,-0.004354,-89.999855,-90.0,2.331379,2.096869,1.210581,297.461334,299.997131,0.026778,-0.02641,17.844154,8.3E-5,0.053431,0.020032,0.0,1.0,2258.355225,
20.462589,-87.967827,-86.774384,2.681054,-0.001858,2.681054,-0.001858,-89.999855,-90.0,2.337648,2.390331,1.294824,297.454285,298.497223,0.027474,-0.023557,14.353842,6.2E-5,0.053506,0.020303,0.0,1.0,2262.090576,
21.097477,-87.964737,-86.771286,2.685005,3.1E-5,2.685005,3.1E-5,-89.999855,-90.0,2.342071,2.595608,1.353241,297.44931,297.44873,0.027752,-0.021934,16.746252,2.7E-5,0.053621,0.020656,0.0,1.0,2264.359619,
22.076347,-87.959595,-86.766144,2.691041,0.003267,2.691041,0.003267,-89.999855,-90.0,2.349267,2.926769,1.445087,297.439606,295.781494,0.02779,-0.02005,16.602842,-0.0,0.0537,0.020905,0.0,1.0,2267.595703,
Command_Fault: set /instrumentation/slip-skid-ball/serviceable false
22.709642,-87.956017,-86.762573,2.695096,0.005591,2.695096,0.005591,-89.999855,-90.0,2.354181,3.150873,1.501026,297.43103,294.681122,0.027492,-0.019335,7.946172,-4.7E-5,0.053821,0.02139,0.0,1.0,2269.562988,
23.65966,-87.95031,-86.756866,2.701105,0.009327,2.701105,0.009327,-89.999855,-90.0,2.361915,3.500361,1.588216,297.414612,293.025452,0.027254,-0.018943,11.574972,-8.0E-5,0.053902,0.021819,0.0,1.0,2272.36792,
24.292252,-87.946274,-86.752831,2.705276,0.011985,2.705276,0.011985,-89.999855,-90.0,2.367314,3.742019,1.646131,297.40094,291.930786,0.027254,-0.019139,18.046221,-1.33E-4,0.054022,0.022639,0.0,1.0,2274.162109,
25.239876,-87.939865,-86.746422,2.711505,0.016054,2.711505,0.016054,-89.999855,-90.0,2.375775,4.117132,1.733757,297.377472,290.322662,0.027254,-0.019845,12.024018,-1.71E-4,0.054106,0.023323,0.0,1.0,2276.768555,
25.844416,-87.935555,-86.742111,2.71565,0.01872,2.71565,0.01872,-89.999855,-90.0,2.38141,4.364521,1.789293,297.360779,289.32666,0.027254,-0.020505,19.444525,-2.29E-4,0.05423,0.024496,0.0,1.0,2278.39209,
26.81513,-87.928246,-86.734802,2.724735,0.024374,2.724735,0.024374,-89.999855,-90.0,2.391071,4.77477,2.005343,297.333344,287.793488,0.027254,-0.021478,17.91049,-2.67E-4,0.054313,0.025331,0.0,1.0,2280.952881,
27.417078,-87.923416,-86.729965,2.732445,0.031413,2.732445,0.031413,-89.999855,-90.0,2.397664,5.03722,2.152424,297.315857,286.891846,0.027254,-0.022006,16.671618,-3.48E-4,0.054495,0.026703,0.0,1.0,2282.519775,
28.358286,-87.915306,-86.721863,2.739486,0.035997,2.739486,0.035997,-89.999855,-90.0,2.408662,5.459101,2.244203,297.289948,285.572968,0.027254,-0.022625,18.190937,-4.49E-4,0.054649,0.027577,0.0,1.0,2284.945801,
28.985828,-87.909508,-86.716064,2.743766,0.038598,2.743766,0.038598,-89.999855,-90.0,2.416251,5.747676,2.305635,297.273834,284.763123,0.027254,-0.02282,8.121075,-5.14E-4,0.05479,0.028873,0.0,1.0,2286.555176,
29.925308,-87.900253,-86.70681,2.750422,0.042223,2.750422,0.042223,-89.999855,-90.0,2.428033,6.191187,2.401467,297.25238,283.662415,0.027254,-0.022652,16.507263,-5.51E-4,0.054875,0.029678,0.0,1.0,2288.96167,
30.576523,-87.893456,-86.700012,2.755373,0.044806,2.755373,0.044806,-89.999855,-90.0,2.4365,6.506495,2.468794,297.23877,282.983459,0.027254,-0.022356,11.559815,-6.03E-4,0.055008,0.030751,0.0,1.0,2290.628174,
31.4865,-87.883461,-86.690018,2.762265,0.048398,2.762265,0.048398,-89.999855,-90.0,2.448742,6.957689,2.562081,297.221313,282.156494,0.027254,-0.021736,10.162087,-6.4E-4,0.055107,0.031432,0.0,1.0,2292.955322,
32.109375,-87.876305,-86.682861,2.767153,0.051042,2.767153,0.051042,-89.999855,-90.0,2.457401,7.273482,2.626795,297.209564,281.675018,0.027254,-0.021335,18.918907,-6.91E-4,0.055245,0.032304,0.0,1.0,2294.548096,
33.041557,-87.865112,-86.671661,2.774328,0.055115,2.774328,0.055115,-89.999855,-90.0,2.470788,7.756634,2.722494,297.191528,281.085541,0.027254,-0.020871,10.673544,-7.29E-4,0.055343,0.032892,0.0,1.0,2296.932861,
33.68821,-87.857033,-86.663589,2.779441,0.058182,2.779441,0.058182,-89.999855,-90.0,2.480369,8.098649,2.793572,297.177704,280.770111,0.027254,-0.020803,12.537806,-7.87E-4,0.055487,0.033794,0.0,1.0,2298.587158,
34.615841,-87.844948,-86.651505,2.790362,0.06274,2.790362,0.06274,-89.999855,-90.0,2.494756,8.600194,3.371111,297.155457,280.449585,0.027254,-0.021075,18.988249,-8.31E-4,0.055589,0.034485,0.0,1.0,2300.966064,
35.206951,-87.836861,-86.643417,2.798326,0.065875,2.798326,0.065875,-89.999855,-90.0,2.505139,8.92605,3.286031,297.13916,280.325653,0.027254,-0.021557,20.123259,-8.96E-4,0.055807,0.035597,0.0,1.0,2302.484619,
36.130306,-87.823486,-86.630035,2.805207,0.07082,2.805207,0.07082,-89.999855,-90.0,2.521821,9.444291,3.382031,297.111237,280.253601,0.027254,-0.02259,9.175834,-9.41E-4,0.055967,0.036412,0.0,1.0,2304.859375,
36.71896,-87.814514,-86.621071,2.809584,0.074136,2.809584,0.074136,-89.999855,-90.0,2.53274,9.780484,3.447784,297.091614,280.282196,0.027254,-0.02346,14.325783,-0.001012,0.056104,0.037808,0.0,1.0,2306.375488,
37.664322,-87.799477,-86.606033,2.816788,0.079248,2.816788,0.079248,-89.999855,-90.0,2.550751,10.32937,3.560766,297.058746,280.442657,0.027254,-0.024873,11.347182,-0.001059,0.056192,0.038789,0.0,1.0,2308.813232,
38.300732,-87.78891,-86.595467,2.821941,0.082733,2.821941,0.082733,-89.999855,-90.0,2.563236,10.70569,3.630639,297.035767,280.625671,0.027254,-0.02583,11.757906,-0.001132,0.056336,0.040433,0.0,1.0,2310.459229,
39.21505,-87.773132,-86.579689,2.829249,0.087416,2.829249,0.087416,-89.999855,-90.0,2.581662,11.255046,3.734577,297.003815,280.985107,0.027254,-0.026855,12.433274,-0.001182,0.056439,0.041582,0.0,1.0,2312.828125,
39.797829,-87.762733,-86.56929,2.834004,0.090373,2.834004,0.090373,-89.999855,-90.0,2.593705,11.610486,3.783448,296.984131,281.268372,0.027254,-0.027321,10.326026,-0.001249,0.056585,0.043179,0.0,1.0,2314.34082,
40.732777,-87.745491,-86.552048,2.851764,0.097744,2.851764,0.097744,-89.999855,-90.0,2.614081,12.189322,4.267064,296.954803,281.800659,0.027254,-0.027545,16.611118,-0.001291,0.05668,0.044163,0.0,1.0,2316.772705,
41.336102,-87.733788,-86.540344,2.856936,0.102259,2.856936,0.102259,-89.999855,-90.0,2.628597,12.569272,4.401015,296.936584,282.189697,0.027254,-0.027569,9.215028,-0.001396,0.057035,0.04563,0.0,1.0,2318.348633,
42.214481,-87.715912,-86.522469,2.861273,0.106334,2.861273,0.106334,-89.999855,-90.0,2.650262,13.129462,4.507533,296.912018,282.8078,0.027254,-0.027329,19.345228,-0.001461,0.057139,0.046541,0.0,1.0,2320.64502,
42.815083,-87.703156,-86.509705,2.865306,0.109189,2.865306,0.109189,-89.999855,-90.0,2.665429,13.517637,4.585076,296.895752,283.259888,0.027254,-0.027104,18.035954,-0.001519,0.057225,0.047769,0.0,1.0,2322.219727,
43.713257,-87.683327,-86.489883,2.872203,0.113552,2.872203,0.113552,-89.999855,-90.0,2.688666,14.105838,4.702178,296.871643,283.969727,0.027254,-0.026758,20.731684,-0.00156,0.057306,0.048582,0.0,1.0,2325.561279,
44.335209,-87.669098,-86.475655,2.877336,0.116865,2.877336,0.116865,-89.999855,-90.0,2.705146,14.51836,4.782569,296.853912,284.477936,0.027254,-0.026717,14.005612,-0.001622,0.057444,0.049788,0.0,1.0,2328.664063,
45.228622,-87.647873,-86.45443,2.891036,0.122123,2.891036,0.122123,-89.999855,-90.0,2.73076,15.118011,5.38034,296.826447,285.220245,0.027254,-0.026945,13.771256,-0.00167,0.057547,0.050674,0.0,1.0,2333.803955,
45.823174,-87.633072,-86.439629,2.897079,0.126669,2.897079,0.126669,-89.999855,-90.0,2.748867,15.521346,5.481431,296.805969,285.715576,0.027254,-0.027414,19.329807,-0.001745,0.057821,0.052048,0.0,1.0,2337.51123,
46.689201,-87.610519,-86.417076,2.903437,0.131661,2.903437,0.131661,-89.999855,-90.0,2.77581,16.1145,5.601414,296.773712,286.428864,0.027254,-0.028414,17.119703,-0.00181,0.057942,0.053072,0.0,1.0,2343.157959,
47.307896,-87.593819,-86.400375,2.908233,0.135338,2.908233,0.135338,-89.999855,-90.0,2.795408,16.541679,5.684819,296.748688,286.925903,0.027254,-0.029359,20.059135,-0.001881,0.058069,0.054684,0.0,1.0,2347.304932,
48.172874,-87.569679,-86.376236,2.91507,0.140217,2.91507,0.140217,-89.999855,-90.0,2.823358,17.144484,5.806946,296.712433,287.595642,0.027254,-0.030696,18.409855,-0.001933,0.058165,0.055936,0.0,1.0,2353.207275,
48.789879,-87.55191,-86.358467,2.920164,0.143695,2.920164,0.143695,-89.999855,-90.0,2.843693,17.578358,5.901472,296.685913,288.050354,0.027254,-0.031639,21.298126,-0.002003,0.058301,0.057748,0.0,1.0,2357.467285,
49.677902,-87.525604,-86.332161,2.933582,0.156077,2.933582,0.156077,-89.999855,-90.0,2.87455,18.207813,6.594974,296.649139,288.662964,0.027254,-0.032388,18.692099,-0.002053,0.058403,0.059074,0.0,1.0,2363.642578,
50.268089,-87.507271,-86.31382,2.942566,0.161538,2.942566,0.161538,-89.999855,-90.0,2.897512,18.630421,6.926284,296.625183,289.039825,0.027254,-0.032857,16.462427,-0.00223,0.058672,0.060913,0.0,1.0,2367.776123,
51.128311,-87.47924,-86.285797,2.949021,0.165689,2.949021,0.165689,-89.999855,-90.0,2.931503,19.250847,7.051157,296.59259,289.538757,0.027254,-0.033129,20.058556,-0.002308,0.058851,0.062111,0.0,1.0,2373.820068,
51.742161,-87.458389,-86.264946,2.953584,0.168526,2.953584,0.168526,-89.999855,-90.0,2.956169,19.69692,7.147793,296.570557,289.855652,0.027254,-0.033125,18.971842,-0.002367,0.05898,0.063741,0.0,1.0,2378.145508,
52.625191,-87.427307,-86.233864,2.960335,0.172191,2.960335,0.172191,-89.999855,-90.0,2.992285,20.343388,7.28995,296.540771,290.25058,0.027254,-0.032816,19.573515,-0.002408,0.059072,0.064842,0.0,1.0,2384.383545,
53.164288,-87.407768,-86.214317,2.964695,0.174481,2.964695,0.174481,-89.999855,-90.0,3.014709,20.740778,7.381026,296.522827,290.454956,0.027254,-0.032619,12.614937,-0.00246,0.059207,0.066331,0.0,1.0,2388.200928,
54.094372,-87.373108,-86.179665,2.971929,0.178189,2.971929,0.178189,-89.999855,-90.0,3.054072,21.431204,7.529648,296.491913,290.740234,0.027254,-0.032317,20.626102,-0.002493,0.059294,0.067229,0.0,1.0,2394.802002,
54.681129,-87.35067,-86.157227,2.976582,0.180623,2.976582,0.180623,-89.999855,-90.0,3.079346,21.869808,7.624845,296.471222,290.875763,0.027254,-0.032348,21.030415,-0.002546,0.059439,0.068774,0.0,1.0,2398.975586,
55.560379,-87.316254,-86.12281,2.983217,0.184145,2.983217,0.184145,-89.999855,-90.0,3.117852,22.531284,7.766935,296.438629,291.014465,0.027254,-0.032624,21.570101,-0.00258,0.059532,0.069809,0.0,1.0,2405.242432,
56.145893,-87.292831,-86.099388,2.98784,0.186601,2.98784,0.186601,-89.999855,-90.0,3.143918,22.974575,7.862465,296.41507,291.064423,0.027254,-0.033082,21.914804,-0.002631,0.059664,0.071439,0.0,1.0,2409.424805,
56.998718,-87.258087,-86.064644,2.994045,0.190054,2.994045,0.190054,-89.999855,-90.0,3.182462,23.624235,7.947043,296.379486,291.077972,0.027254,-0.033845,12.345829,-0.002666,0.059757,0.072617,0.0,1.0,2415.531738,
57.607323,-87.232796,-86.039352,2.997879,0.193506,2.997879,0.193506,-89.999855,-90.0,3.210109,24.090528,7.993971,296.352753,291.046051,0.027254,-0.034523,12.486018,-0.002715,0.059881,0.074396,0.0,1.0,2419.897217,
58.482586,-87.195839,-86.002396,3.004415,0.196558,3.004415,0.196558,-89.999855,-90.0,3.250468,24.765165,8.13864,296.313782,290.942352,0.027254,-0.035476,14.90172,-0.002764,0.059958,0.075732,0.0,1.0,2426.19043,
59.065296,-87.170837,-85.977394,3.00893,0.1985,3.00893,0.1985,-89.999855,-90.0,3.277777,25.216938,8.235109,296.287445,290.837524,0.027254,-0.036098,15.146761,-0.002808,0.060088,0.077681,0.0,1.0,2430.390381,
59.937416,-87.132622,-85.939178,3.020023,0.199027,3.020023,0.199027,-89.999855,-90.0,3.321081,25.897505,8.826818,296.249481,290.630829,0.027254,-0.036709,12.740237,-0.002836,0.060179,0.078998,0.0,1.0,2436.696045,
60.517849,-87.106483,-85.91304,3.027883,0.200317,3.027883,0.200317,-89.999855,-90.0,3.351003,26.353086,10.166291,296.224915,290.462799,0.027254,-0.036933,19.290117,-0.002843,0.0604,0.080896,0.0,1.0,2440.938232,
61.385784,-87.065758,-85.872314,3.039155,0.20191,3.039155,0.20191,-89.999855,-90.0,3.400275,27.039137,9.935169,296.190674,290.170227,0.027254,-0.036824,14.236733,-0.002862,0.060558,0.082124,0.0,1.0,2447.379395,
61.963833,-87.037506,-85.844063,3.042841,0.202733,3.042841,0.202733,-89.999855,-90.0,3.43357,27.498232,10.032073,296.168701,289.951263,0.027254,-0.036642,16.071718,-0.002884,0.060783,0.083836,0.0,1.0,2451.707764,
62.829891,-86.993744,-85.800301,3.047935,0.203484,3.047935,0.203484,-89.999855,-90.0,3.484136,28.189365,10.185552,296.137695,289.592529,0.027254,-0.036098,13.699871,-0.002896,0.060857,0.084935,0.0,1.0,2458.233643,
63.406548,-86.963745,-85.770302,3.051868,0.203888,3.051868,0.203888,-89.999855,-90.0,3.518285,28.65173,10.292472,296.117279,289.336548,0.027254,-0.035759,13.70261,-0.002907,0.060959,0.086485,0.0,1.0,2462.599609,
Command: fly_strait
64.269897,-86.917519,-85.724075,3.062959,0.209615,3.062959,0.209615,-89.999855,-90.0,3.571748,29.347584,11.023758,296.087036,288.933105,0.027254,-0.035122,19.456684,-0.002913,0.061037,0.087506,0.0,1.0,2469.163574,
64.845451,-86.885696,-85.692253,3.067196,0.215886,3.067196,0.215886,-89.999855,-90.0,3.608683,29.812977,11.126055,296.04892,288.654449,0.027254,-0.03866,19.956789,-0.002995,0.061259,0.0,0.0,1.0,2473.547119,
65.672302,-86.839371,-85.645927,3.067992,0.22692,3.067992,0.22692,-89.999855,-90.0,3.66157,30.474312,11.263355,295.716644,288.250641,0.027254,-0.088373,20.554296,-0.003084,0.061344,0.001906,0.0,1.0,2479.788574,
66.313271,-86.803062,-85.609619,3.065991,0.218561,3.065991,0.218561,-89.999855,-90.0,3.702448,30.981651,11.370643,295.254211,287.935486,0.027254,-0.154232,20.99367,-0.003242,0.06136,0.01852,0.0,1.0,2484.606934,
67.207016,-86.751625,-85.558182,3.068917,0.190315,3.068917,0.190315,-89.999855,-90.0,3.760659,31.686506,12.672132,294.477631,287.488068,0.027254,-0.254112,21.550819,-0.003122,0.06132,0.041641,0.0,1.0,2491.350586,
Command_Fault: set /instrumentation/slip-skid-ball/serviceable true
67.803421,-86.716187,-85.522736,3.073787,0.166679,3.073787,0.166679,-89.999855,-90.0,3.803468,32.157997,12.907711,293.971069,287.180817,0.027254,-0.310043,22.28266,-0.002719,0.061378,0.08047,0.0,1.0,2495.885254,
68.698212,-86.660934,-85.467491,3.078091,0.126178,3.078091,0.126178,-89.999855,-90.0,3.868587,32.867676,13.133005,293.425903,286.704132,-0.045026,-0.348786,23.269423,-0.002381,0.061476,0.105798,0.0,1.0,2502.733643,
69.24247,-86.62606,-85.432617,3.081492,0.099712,3.081492,0.099712,-89.999855,-90.0,3.909682,33.302746,13.886834,293.2771,286.403778,-0.099978,-0.340242,23.848282,-0.001803,0.061562,0.133057,0.0,1.0,2506.93335,
70.18708,-86.563194,-85.369751,3.038322,-0.027897,3.038322,-0.027897,-89.999855,-90.0,3.986874,34.056591,15.080667,293.42276,285.874054,-0.143753,-0.266042,24.056635,-0.001424,0.06163,0.140497,0.0,1.0,2514.212402,
70.778854,-86.521507,-85.328064,2.993751,-0.126448,2.993751,-0.126448,-89.999855,-90.0,4.037073,34.53426,14.898181,293.751984,285.538849,-0.144522,-0.18857,18.229275,3.99E-4,0.060766,0.133214,0.0,1.0,2518.825439,
71.592155,-86.460602,-85.267159,2.970184,-0.192632,2.970184,-0.192632,-89.999855,-90.0,4.105587,35.212776,14.148272,294.401245,285.076355,-0.107327,-0.062533,22.888937,0.001806,0.059875,0.116753,0.0,1.0,2525.319824,
72.192856,-86.413292,-85.219849,2.980902,-0.176831,2.980902,-0.176831,-89.999855,-90.0,4.156838,35.732834,14.626796,294.922791,284.742035,-0.064345,0.026513,23.049387,0.002752,0.059404,0.08429,0.0,1.0,2530.207764,
73.01265,-86.345947,-85.152504,2.932386,0.006452,2.932386,0.006452,-89.999855,-90.0,4.238911,36.454189,17.895477,295.452545,284.320313,0.008161,0.10654,16.966639,0.002526,0.059618,0.058212,0.0,1.0,2536.848633,
73.565727,-86.2985,-85.105057,2.829449,0.216872,2.829449,0.216872,-89.999855,-90.0,4.299352,36.935734,17.992348,295.59436,284.071747,0.051254,0.121608,18.002645,-9.2E-5,0.058648,0.031725,0.0,1.0,2541.23291,
74.416786,-86.224091,-85.030647,2.707235,0.510739,2.707235,0.510739,-89.999855,-90.0,4.384954,37.659004,16.369663,295.420746,283.753632,0.096936,0.080275,18.898031,-0.003098,0.056589,0.024634,0.0,1.0,2547.830322,
74.997055,-86.173576,-84.980133,2.670106,0.586125,2.670106,0.586125,-89.999855,-90.0,4.439433,38.142269,16.414013,295.08371,283.577972,0.109003,0.018982,17.406485,-0.007296,0.054145,0.033315,0.0,1.0,2552.278076,
75.877396,-86.096611,-84.903168,2.636213,0.375466,2.636213,0.375466,-79.999855,-80.0,4.527096,38.871128,19.492502,294.43103,283.36438,0.100951,-0.090604,17.597374,-0.008373,0.053402,0.050166,0.0,1.0,2559.044189,
76.463638,-86.04287,-84.849426,2.643606,0.024008,2.643606,0.024008,-79.999855,-80.0,4.600724,39.358028,24.970015,294.021729,283.251709,0.083401,-0.154435,18.81797,-0.005364,0.052724,0.0828,0.0,1.0,2563.609131,
77.283493,-85.957054,-84.763611,2.721372,-0.650605,2.721372,-0.650605,-79.999855,-80.0,4.750129,40.049175,39.321907,293.672668,283.128052,0.04949,-0.20065,20.558455,-3.43E-4,0.052872,0.103265,0.0,1.0,2570.11792,
77.89402,-85.87606,-84.682617,2.831541,-1.177095,2.831541,-1.177095,-79.999855,-80.0,4.922373,40.57859,56.288902,293.649536,283.059906,0.032428,-0.193274,25.483757,0.009294,0.054427,0.120718,0.0,1.0,2575.099121,
78.697075,-85.723862,-84.530418,3.029824,-1.664665,3.029824,-1.664665,-79.999855,-80.0,5.279591,41.312225,86.853729,293.949615,283.002289,0.023758,-0.127282,36.538845,0.016816,0.056631,0.121875,0.0,1.0,2581.928955,
79.19458,-85.584679,-84.391235,3.18997,-1.750046,3.18997,-1.750046,-79.999855,-80.0,5.609504,41.801155,110.592323,294.285187,282.987823,0.032044,-0.062649,46.743931,0.023781,0.060596,0.106871,0.0,1.0,2586.382324,
79.88176,-85.299065,-84.105621,3.411295,-1.465941,3.411295,-1.465941,-79.999855,-80.0,6.260063,42.53326,148.658493,294.773346,283.00177,0.062491,0.027872,66.083382,0.025001,0.063799,0.090092,0.0,1.0,2592.498047,
80.30825,-85.047142,-83.853699,3.546195,-1.077017,3.546195,-1.077017,-79.999855,-80.0,6.799231,43.019825,173.819336,294.979614,283.033203,0.087085,0.065783,81.131042,0.020942,0.068226,0.065684,0.0,1.0,2595.782227,
80.925171,-84.562622,-83.369179,3.678982,-0.418287,3.678982,-0.418287,-79.999855,-80.0,7.758898,43.746483,207.900848,294.977478,283.10733,0.119998,0.067971,106.176437,0.015386,0.070924,0.055371,0.0,1.0,2599.849609,
81.330284,-84.164223,-82.970779,3.748026,-0.053274,3.748026,-0.053274,-79.999855,-80.0,8.486618,44.228443,227.725021,294.773407,283.169495,0.130705,0.03593,123.653831,0.005976,0.07358,0.055478,0.0,1.0,2602.165771,
81.929779,-83.451698,-82.258247,3.837305,0.180636,3.837305,0.180636,-79.999855,-80.0,9.694632,44.947346,253.991211,294.293762,283.270905,0.125655,-0.039361,150.004807,7.61E-4,0.074961,0.065681,0.0,1.0,2605.252441,
82.321297,-82.901695,-81.708252,3.905951,0.118275,3.905951,0.118275,-79.999855,-80.0,10.568929,45.423824,269.893311,293.966187,283.337585,0.110861,-0.088631,167.253204,-0.002581,0.076746,0.089664,0.0,1.0,2607.128418,
82.892365,-81.967926,-80.774483,4.010362,-0.228593,4.010362,-0.228593,-79.999855,-80.0,11.978045,46.134163,292.907288,293.673553,283.427216,0.079368,-0.126686,192.438614,-0.00169,0.078119,0.106042,0.0,1.0,2609.751465,
83.25769,-81.274284,-80.080841,4.09322,-0.510587,4.09322,-0.510587,-79.999855,-80.0,12.98056,46.604595,308.074402,293.670074,283.476868,0.06305,-0.119614,208.845795,0.003266,0.080207,0.120674,0.0,1.0,2611.399902,
83.771935,-80.131226,-78.937775,4.226008,-0.78269,4.226008,-0.78269,-79.999855,-80.0,14.583187,47.304962,333.237915,293.947296,283.534607,0.053792,-0.062951,232.791092,0.007294,0.081864,0.120848,0.0,1.0,2613.743896,
84.085037,-79.301491,-78.108047,4.336429,-0.786698,4.336429,-0.786698,-79.999855,-80.0,15.728269,47.767906,353.531372,294.250488,283.562683,0.061039,-0.007876,248.577209,0.011181,0.08452,0.106987,0.0,1.0,2615.2229,
84.487984,-78.027077,-76.833633,4.501089,-0.506775,4.501089,-0.506775,-79.999855,-80.0,17.47674,48.417526,386.578064,294.661194,283.589874,0.088574,0.063077,271.87973,0.011239,0.086729,0.091827,0.0,1.0,2617.200439,
84.770866,-76.970673,-75.777229,4.629453,-0.137224,4.629453,-0.137224,-79.999855,-80.0,18.918369,48.908875,410.590729,294.854706,283.600861,0.11041,0.094506,290.506317,0.00724,0.090022,0.071292,0.0,1.0,2618.624023,
85.152267,-75.385635,-74.192192,4.73672,0.394635,4.73672,0.394635,-69.999855,-70.0,21.044739,49.580921,437.544098,294.842194,283.599701,0.138092,0.088594,317.196899,0.00196,0.092589,0.061616,0.0,1.0,2620.492432,
85.388718,-74.348381,-73.154938,4.76841,0.635663,4.76841,0.635663,-69.999855,-70.0,22.402422,49.986824,450.370392,294.683929,283.587616,0.145373,0.059999,333.47168,-0.005638,0.094734,0.062242,0.0,1.0,2621.593506,
85.802933,-72.441475,-71.248024,4.801752,0.735974,4.801752,0.735974,-69.999855,-70.0,24.830759,50.679527,468.52829,294.281525,283.541779,0.136516,-0.009479,360.679749,-0.009081,0.095368,0.070155,0.0,1.0,2623.451172,
86.065475,-71.167068,-69.973625,4.838197,0.604307,4.838197,0.604307,-69.999855,-70.0,26.410034,51.111702,478.647003,294.044586,283.494141,0.120765,-0.048607,376.888123,-0.010514,0.096035,0.090276,0.0,1.0,2624.603271,
86.452393,-69.163925,-67.970482,4.912276,0.224776,4.912276,0.224776,-69.999855,-70.0,28.844078,51.752357,494.811829,293.890961,283.393066,0.091559,-0.071543,399.533661,-0.008633,0.096764,0.102123,0.0,1.0,2626.303467,
86.699966,-67.771584,-66.57814,4.975467,-0.038368,4.975467,-0.038368,-69.999855,-70.0,30.514309,52.174332,507.097076,293.960052,283.306244,0.07809,-0.05805,413.654999,-0.003211,0.098246,0.109804,0.0,1.0,2627.414063,
87.044907,-65.599983,-64.406532,5.077288,-0.244249,5.077288,-0.244249,-69.999855,-70.0,33.102028,52.799267,527.727539,294.27536,283.150391,0.074366,-0.003459,433.956573,5.48E-4,0.099509,0.106349,0.0,1.0,2629.032227,
Command_Fault: set /instrumentation/slip-skid-ball/serviceable false
87.253151,-64.095901,-62.902454,5.158258,-0.212467,5.158258,-0.212467,-59.999859,-60.0,34.886776,53.210278,542.758057,294.549438,283.032532,0.083566,0.041598,447.339539,0.003489,0.101546,0.090584,0.0,1.0,2630.068604,
87.541466,-61.754879,-60.561436,5.26446,0.08122,5.26446,0.08122,-59.999859,-60.0,37.662006,53.817936,566.781189,294.870758,282.840179,0.091302,0.091099,467.352509,0.003035,0.103165,0.07688,0.0,1.0,2631.550781,
87.710846,-60.273262,-59.079819,5.322929,0.335569,5.322929,0.335569,-59.999859,-60.0,39.417393,54.183887,581.580688,294.952148,282.715332,0.091302,0.100884,479.663177,-0.00116,0.105289,0.060814,0.0,1.0,2632.418213,
87.990829,-57.76347,-56.570026,5.392267,0.688217,5.392267,0.688217,-59.999859,-60.0,42.385078,54.77383,604.282715,294.849976,282.500336,0.091302,0.076527,500.066772,-0.004794,0.106459,0.056744,0.0,1.0,2633.794189,
88.196709,-55.883049,-54.689606,5.439718,0.804435,5.439718,0.804435,-59.999859,-60.0,44.594635,55.193157,618.791016,294.639496,282.336426,0.091302,0.037151,515.087769,-0.009832,0.107845,0.061853,0.0,1.0,2634.769287,
88.48597,-53.186993,-51.993546,5.501812,0.688907,5.501812,0.688907,-49.999859,-50.0,47.737103,55.764759,637.415771,294.318665,282.095581,0.091302,-0.020063,535.908997,-0.011492,0.108794,0.072377,0.0,1.0,2636.107422,
88.677422,-51.333668,-50.140224,5.549749,0.475396,5.549749,0.475396,-49.999859,-50.0,49.882561,56.140179,649.416626,294.175507,281.925476,0.091302,-0.044771,549.461853,-0.009842,0.110036,0.088419,0.0,1.0,2636.993896,
88.940819,-48.633511,-47.440067,5.621053,0.121777,5.621053,0.121777,-49.999859,-50.0,52.991276,56.664379,666.763733,294.171509,281.67218,0.091302,-0.044991,568.214539,-0.006791,0.110995,0.095576,0.0,1.0,2638.237793,
89.127907,-46.509987,-45.316544,5.691323,-0.086961,5.691323,-0.086961,-49.999859,-50.0,55.4249,57.059128,680.791931,294.325012,281.470917,0.091302,-0.019345,582.35083,-0.00174,0.112421,0.095776,0.0,1.0,2639.171875,
89.360512,-43.486206,-42.292759,5.796001,-0.143287,5.796001,-0.143287,-39.999859,-40.0,58.882862,57.596645,702.065491,294.657074,281.186829,0.091302,0.034653,601.688782,0.001242,0.113826,0.088101,0.0,1.0,2640.422119,
89.498444,-41.417042,-40.223595,5.869164,-0.027591,5.869164,-0.027591,-39.999859,-40.0,61.248936,57.948929,717.124573,294.870239,280.997345,0.091302,0.067667,614.45874,0.002047,0.11592,0.071498,0.0,1.0,2641.218994,
89.693001,-38.230396,-37.036949,5.951949,0.289965,5.951949,0.289965,-39.999859,-40.0,64.893044,58.467983,739.578918,295.027191,280.717438,0.091302,0.08791,633.742737,3.94E-4,0.117383,0.06084,0.0,1.0,2642.359375,
89.821686,-36.049145,-34.855701,5.99963,0.503403,5.99963,0.503403,-39.999859,-40.0,67.382553,58.807747,753.4552,294.992188,280.535126,0.091302,0.077683,646.797791,-0.004142,0.119039,0.052992,0.0,1.0,2643.091064,
90.021263,-32.691822,-31.498375,6.056076,0.662114,6.056076,0.662114,-29.999857,-30.0,71.198967,59.308167,772.094299,294.769196,280.268219,0.091302,0.034448,666.553833,-0.007191,0.119993,0.054742,0.0,1.0,2644.165283,
90.157646,-30.399584,-29.206141,6.094637,0.627023,6.094637,0.627023,-29.999857,-30.0,73.792007,59.635822,783.186646,294.574768,280.093903,0.091302,-5.67E-4,679.561523,-0.009459,0.121122,0.065892,0.0,1.0,2644.873779,
90.352768,-27.080856,-25.887411,6.145282,0.396373,6.145282,0.396373,-29.999857,-30.0,77.526428,60.092129,797.808533,294.374939,279.850739,0.091302,-0.035513,697.617126,-0.008957,0.121893,0.075613,0.0,1.0,2645.873047,
90.497826,-24.490271,-23.296827,6.190579,0.156343,6.190579,0.156343,-19.999857,-20.0,80.427498,60.434971,808.57312,294.34494,279.667786,0.091302,-0.040671,710.976746,-0.005662,0.122906,0.085605,0.0,1.0,2646.632324,
90.68602,-20.824148,-19.630703,6.26263,-0.09983,6.26263,-0.09983,-19.999857,-20.0,84.509758,60.900951,824.048401,294.50174,279.420868,0.091302,-0.014288,729.31311,-0.002233,0.123812,0.087105,0.0,1.0,2647.66626,
90.797798,-18.334627,-17.141182,6.321064,-0.158285,6.321064,-0.158285,-19.999857,-20.0,87.275574,61.205872,835.15686,294.691772,279.262573,0.091302,0.01665,741.058472,0.001426,0.125253,0.079265,0.0,1.0,2648.335693,
90.94532,-14.531981,-13.338536,6.401028,-0.030401,6.401028,-0.030401,-9.999858,-10.0,91.496437,61.654385,852.736877,294.966187,279.038727,0.091302,0.059506,758.216919,0.002261,0.126421,0.069763,0.0,1.0,2649.296387,
91.034813,-11.951118,-10.757673,6.450806,0.150052,6.450806,0.150052,-9.999858,-10.0,94.359207,61.947369,864.475586,295.073883,278.900482,0.091302,0.074345,769.489441,4.34E-4,0.128021,0.056042,0.0,1.0,2649.905029,
91.169365,-8.007713,-6.814269,6.501992,0.424884,6.501992,0.424884,-9.999858,-10.0,98.724846,62.377796,880.890564,295.0495,278.710968,0.091302,0.064541,786.455017,-0.002144,0.129016,0.050658,0.0,1.0,2650.760742,
91.241844,-5.334136,-4.140691,6.530694,0.536181,6.530694,0.536181,-9.999858,-10.0,101.67778,62.658836,890.300415,294.924835,278.596161,0.091302,0.040398,797.554504,-0.00607,0.13004,0.051877,0.0,1.0,2651.296631,
91.344452,-1.257806,-0.064362,6.564614,0.49882,6.564614,0.49882,1.42E-4,0.0,106.160606,63.071903,902.0401,294.681671,278.439056,0.091302,-0.003875,813.90094,-0.00766,0.130614,0.05811,0.0,1.0,2652.038086,
91.416054,1.633209,2.826653,6.588095,0.355954,6.588095,0.355954,1.42E-4,0.0,109.179108,63.341846,908.723206,294.55423,278.343109,0.091302,-0.026364,824.472473,-0.007126,0.131292,0.070268,0.0,1.0,2652.505371,
91.523697,6.034365,7.227809,6.624354,0.066022,6.624354,0.066022,10.000142,10.0,113.747055,63.738888,918.110229,294.521149,278.21106,0.091302,-0.032299,839.675476,-0.005085,0.131762,0.07664,0.0,1.0,2653.179443,
91.590454,9.005021,10.198465,6.656464,-0.099959,6.656464,-0.099959,10.000142,10.0,116.818321,63.998386,924.473267,294.614655,278.131226,0.091302,-0.017021,849.294556,-9.43E-4,0.132487,0.078294,0.0,1.0,2653.611816,
91.676186,13.514118,14.707562,6.710202,-0.181697,6.710202,-0.181697,10.000142,10.0,121.466927,64.379753,934.824768,294.862152,278.025879,0.091302,0.022981,863.078186,0.001428,0.133129,0.073619,0.0,1.0,2654.228271,
91.722824,16.552378,17.745823,6.749509,-0.117013,6.749509,-0.117013,20.000143,20.0,124.595787,64.628654,942.287903,295.03421,277.966644,0.091302,0.049585,871.766663,0.002596,0.134204,0.061244,0.0,1.0,2654.613281,
91.785156,21.16033,22.353773,6.792867,0.107503,6.792867,0.107503,20.000143,20.0,129.336441,64.993881,953.498352,295.178284,277.896118,0.091302,0.068797,884.408875,0.001672,0.13499,0.052641,0.0,1.0,2655.151123,
91.827408,24.263571,25.457014,6.814387,0.270156,6.814387,0.270156,20.000143,20.0,132.526596,65.231972,960.242188,295.167084,277.861389,0.091302,0.063298,892.506531,-0.001536,0.135857,0.045438,0.0,1.0,2655.489258,
91.898956,28.966953,30.160397,6.831986,0.398895,6.831986,0.398895,30.000143,30.0,137.350418,65.581261,968.636353,295.008148,277.825989,0.091302,0.031543,904.390137,-0.003859,0.136288,0.045998,0.0,1.0,2655.981934,
91.952484,32.131023,33.324467,6.840954,0.37431,6.840954,0.37431,30.000143,30.0,140.587021,65.80912,973.023682,294.859131,277.811768,0.091302,0.004244,911.951904,-0.005699,0.13664,0.053944,0.0,1.0,2656.30835,
92.038994,36.91927,38.112713,6.854819,0.180186,6.854819,0.180186,40.000141,40.0,145.466751,66.143768,978.580811,294.694489,277.801331,0.091302,-0.025171,922.875977,-0.005347,0.136819,0.061395,0.0,1.0,2656.80249,
92.097466,40.134892,41.328335,6.869076,0.001992,6.869076,0.001992,40.000141,40.0,148.734848,66.362274,982.16748,294.669861,277.800293,0.091302,-0.029754,929.679199,-0.002574,0.137096,0.069627,0.0,1.0,2657.13501,
92.1791,44.992348,46.185795,6.899045,-0.208804,6.899045,-0.208804,40.000141,40.0,153.660706,66.683228,988.166748,294.783691,277.806854,0.091302,-0.010942,939.291321,-2.8E-5,0.137382,0.070859,0.0,1.0,2657.63208,
92.242409,49.614803,50.808247,6.937914,-0.258434,6.937914,-0.258434,50.000141,50.0,158.343216,66.978775,995.023682,294.992889,277.822693,0.091302,0.022715,947.762878,0.002983,0.137981,0.065167,0.0,1.0,2658.08667,
92.281975,53.171963,54.36541,6.964983,-0.175968,6.964983,-0.175968,50.000141,50.0,161.94722,67.19973,1000.816467,295.138763,277.841949,0.091302,0.045138,953.933105,0.003767,0.138529,0.057924,0.0,1.0,2658.417236,
92.311958,56.197098,57.390545,6.986741,-0.055432,6.986741,-0.055432,60.000141,60.0,165.013168,67.38324,1005.79895,295.216492,277.863251,0.091302,0.055886,958.997253,0.002514,0.1393,0.047414,0.0,1.0,2658.684326,
92.364838,61.455883,62.649326,7.008438,0.159667,7.008438,0.159667,60.000141,60.0,170.343796,67.692825,1013.734558,295.199188,277.910156,0.091302,0.04835,967.536621,7.92E-4,0.139735,0.043527,0.0,1.0,2659.124512,
92.402885,64.799263,65.992714,7.016523,0.240156,7.016523,0.240156,60.000141,60.0,173.730133,67.883659,1017.798706,295.101563,277.944977,0.091302,0.029537,972.823059,-0.002281,0.140169,0.044392,0.0,1.0,2659.395752,
92.467056,69.846138,71.039581,7.022583,0.20426,7.022583,0.20426,70.000145,70.0,178.831985,68.163445,1022.545715,294.912201,278.001465,0.091302,-0.004776,980.64502,-0.003431,0.14033,0.049274,0.0,1.0,2659.804443,
92.513512,73.228073,74.421524,7.027997,0.091795,7.027997,0.091795,70.000145,70.0,182.244965,68.34584,1025.095703,294.812744,278.04007,0.091302,-0.022151,985.586182,-0.002918,0.140452,0.058742,0.0,1.0,2660.080811,
92.584053,78.327637,79.52108,7.042588,-0.129816,7.042588,-0.129816,80.000145,80.0,187.380112,68.613495,1028.919067,294.785126,278.097046,0.091302,-0.026716,992.720215,-0.001311,0.14056,0.063715,0.0,1.0,2660.501709,
92.624115,81.45755,82.650993,7.05774,-0.245348,7.05774,-0.245348,80.000145,80.0,190.528244,68.77359,1031.631348,294.846466,278.130829,0.091302,-0.016424,996.832764,0.001855,0.140852,0.065095,0.0,1.0,2660.759521,
92.681763,86.884796,88.078247,7.090528,-0.307679,7.090528,-0.307679,90.000145,90.0,195.987854,69.043854,1037.319824,295.03772,278.187775,0.091302,0.015078,1003.450256,0.003505,0.141155,0.062029,0.0,1.0,2661.194092,
92.71019,90.328178,91.521622,7.114126,-0.252831,7.114126,-0.252831,90.000145,90.0,199.452774,69.210396,1041.543945,295.1633,278.223328,0.091302,0.034838,1007.489136,0.004395,0.141811,0.052466,0.0,1.0,2661.456299,
92.746994,95.517723,96.711166,7.138389,-0.07457,7.138389,-0.07457,100.000145,100.0,204.677368,69.454102,1048.01416,295.260071,278.276733,0.091302,0.048035,1013.487,0.003612,0.142283,0.046187,0.0,1.0,2661.827637,
92.771904,98.992996,100.18644,7.14893,0.051128,7.14893,0.051128,100.000145,100.0,208.17749,69.612541,1051.843506,295.240997,278.312073,0.091302,0.042653,1017.419067,0.001065,0.142768,0.041348,0.0,1.0,2662.063965,
92.814888,104.228226,105.421669,7.154893,0.145285,7.154893,0.145285,100.000145,100.0,213.449158,69.844353,1056.4198,295.106873,278.362915,0.091302,0.017229,1023.189331,-7.3E-4,0.142979,0.042302,0.0,1.0,2662.411621,
92.848206,107.733101,108.926544,7.156996,0.122728,7.156996,0.122728,110.000145,110.0,216.974579,69.995171,1058.656006,294.988495,278.393951,0.091302,-0.003708,1026.959717,-0.002076,0.143098,0.049008,0.0,1.0,2662.644287,
92.902931,113.01255,114.205994,7.161857,-0.029201,7.161857,-0.029201,110.000145,110.0,222.275116,70.21611,1061.422241,294.864227,278.433777,0.091302,-0.0249,1032.522583,-0.001753,0.14314,0.054927,0.0,1.0,2663.0,
92.954712,118.018646,119.21209,7.173347,-0.214234,7.173347,-0.214234,120.000145,120.0,227.293839,70.419151,1064.153809,294.86557,278.462585,0.091302,-0.024217,1037.470825,4.17E-4,0.143237,0.06114,0.0,1.0,2663.341797,
92.98745,121.562004,122.755447,7.187355,-0.310766,7.187355,-0.310766,120.000145,120.0,230.844986,70.559212,1066.513428,294.939606,278.477753,0.091302,-0.011569,1040.725342,0.00306,0.143467,0.061073,0.0,1.0,2663.58252,
93.016914,125.409531,126.602974,7.206075,-0.34175,7.206075,-0.34175,120.000145,120.0,234.701935,70.707878,1069.614868,295.059784,278.490021,0.091302,0.008451,1044.071289,0.00444,0.143747,0.057372,0.0,1.0,2663.838135,
93.048241,130.757187,131.950623,7.231678,-0.252487,7.231678,-0.252487,130.000137,130.0,240.062592,70.908348,1074.590454,295.214783,278.501312,0.091302,0.03316,1048.713989,0.004882,0.144121,0.051363,0.0,1.0,2664.175781,
93.07267,135.826584,137.020035,7.250258,-0.090691,7.250258,-0.090691,140.000137,140.0,245.148865,71.091911,1079.419678,295.272003,278.507141,0.091302,0.040543,1052.97644,0.003607,0.144634,0.043613,0.0,1.0,2664.475098,
93.092438,139.715103,140.908554,7.257668,0.023606,7.257668,0.023606,140.000137,140.0,249.052979,71.228554,1082.652588,295.235291,278.508545,0.091302,0.032568,1056.157837,0.001296,0.145005,0.040752,0.0,1.0,2664.69458,
93.113724,143.314575,144.508011,7.259326,0.078617,7.259326,0.078617,140.000137,140.0,252.666122,71.351898,1085.022949,295.151886,278.50708,0.091302,0.017112,1059.089233,-3.37E-4,0.145153,0.042587,0.0,1.0,2664.894775,
93.152046,148.732727,149.926163,7.258873,0.038529,7.258873,0.038529,150.000137,150.0,258.0979,71.532181,1087.433105,295.002167,278.498596,0.091302,-0.009256,1063.52002,-0.001123,0.145187,0.046758,0.0,1.0,2665.197266,
Command_Fault: set /instrumentation/slip-skid-ball/serviceable true
93.180618,152.355103,153.548553,7.260552,-0.053413,7.260552,-0.053413,150.000137,150.0,261.724854,71.649353,1088.664185,294.92926,278.488037,0.091302,-0.02155,1066.369751,-5.5E-4,0.145177,0.054243,0.0,1.0,2665.40332,
93.2239,157.800995,158.994446,7.269295,-0.22196,7.269295,-0.22196,160.000137,160.0,267.173096,71.820763,1090.661621,294.919434,278.464417,0.078074,-0.022516,1070.358643,7.63E-4,0.145211,0.057889,0.0,1.0,2665.717773,
93.249275,161.439774,162.633224,7.280349,-0.308026,7.280349,-0.308026,160.000137,160.0,270.811554,71.932167,1092.402222,294.98053,278.443909,0.069836,-0.011915,1072.880859,0.003171,0.145386,0.05838,0.0,1.0,2665.928223,
93.279671,166.911606,168.105057,7.301231,-0.329173,7.301231,-0.329173,170.000137,170.0,276.28186,72.09491,1095.767822,295.125458,278.407684,0.067311,0.01235,1076.55835,0.0044,0.145607,0.055325,0.0,1.0,2666.236572,
93.294327,170.567535,171.760971,7.316447,-0.273116,7.316447,-0.273116,170.000137,170.0,279.938965,72.200447,1098.443359,295.21701,278.381073,0.07084,0.026958,1078.905273,0.004702,0.146025,0.048079,0.0,1.0,2666.433105,
93.312485,176.064377,177.257828,7.331018,-0.12635,7.331018,-0.12635,180.000137,180.0,285.441833,72.354286,1102.498413,295.275787,278.339172,0.079466,0.034851,1082.353394,0.003902,0.146329,0.043501,0.0,1.0,2666.712646,
93.325287,179.736908,180.930359,7.336159,-0.031547,7.336159,-0.031547,180.000137,180.0,289.120911,72.453896,1104.799683,295.249207,278.310303,0.082923,0.029016,1084.581909,0.001805,0.14662,0.040562,0.0,1.0,2666.891357,
93.349701,185.261292,186.454727,7.336765,0.027662,7.336765,0.027662,180.000137,180.0,294.651978,72.599075,1107.344482,295.134857,278.26532,0.081372,0.008095,1088.019653,4.51E-4,0.146723,0.041891,0.0,1.0,2667.15625,
93.369804,188.950394,190.143829,7.335828,-5.38E-4,7.335828,-5.38E-4,190.000137,190.0,298.345123,72.693184,1108.441162,295.043579,278.233765,0.075585,-0.007698,1090.144409,-3.95E-4,0.146735,0.047609,0.0,1.0,2667.334473,
93.402725,194.189575,195.383011,7.336805,-0.118462,7.336805,-0.118462,190.000137,190.0,303.582428,72.823021,1109.651123,294.960632,278.186218,0.062783,-0.02142,1093.202271,8.0E-6,0.146717,0.052173,0.0,1.0,2667.593262,
93.425591,198.202179,199.395615,7.341559,-0.228489,7.341559,-0.228489,200.000137,200.0,307.591339,72.919655,1110.663086,294.95993,278.147675,0.055448,-0.021064,1095.383789,0.001692,0.146736,0.05632,0.0,1.0,2667.795166,
93.455048,203.770599,204.964035,7.354991,-0.327646,7.354991,-0.327646,200.000137,200.0,313.149414,73.049683,1112.648926,295.047943,278.092163,0.050512,-0.005657,1098.380981,0.003264,0.146831,0.056355,0.0,1.0,2668.074951,
93.469627,207.488434,208.68187,7.367657,-0.334308,7.367657,-0.334308,210.000137,210.0,316.861298,73.133896,1114.477905,295.13797,278.05481,0.052434,0.009352,1100.248535,0.004681,0.1471,0.051955,0.0,1.0,2668.257324,
93.484772,213.074066,214.267502,7.384114,-0.247693,7.384114,-0.247693,210.000137,210.0,322.441864,73.256454,1117.693237,295.248962,278.000244,0.061364,0.026985,1102.929077,0.004776,0.147353,0.047453,0.0,1.0,2668.518555,
93.492584,216.801987,217.995438,7.392178,-0.156033,7.392178,-0.156033,220.000137,220.0,326.171234,73.335625,1119.828735,295.277008,277.965607,0.067992,0.03061,1104.565674,0.003538,0.147682,0.041904,0.0,1.0,2668.684082,
93.506767,222.408188,223.601624,7.395715,-0.041434,7.395715,-0.041434,220.000137,220.0,331.777557,73.450653,1122.4552,295.229889,277.91684,0.074078,0.020884,1107.240356,0.002229,0.147844,0.040501,0.0,1.0,2668.924072,
93.519485,226.151169,227.344604,7.395029,-0.011112,7.395029,-0.011112,230.000137,230.0,335.52121,73.524956,1123.625244,295.155426,277.8862,0.073435,0.007585,1108.935791,5.92E-4,0.147914,0.042857,0.0,1.0,2669.08252,
93.543015,231.776016,232.969467,7.392899,-0.063199,7.392899,-0.063199,230.000137,230.0,341.142456,73.633049,1124.729614,295.040619,277.842163,0.065859,-0.012115,1111.493408,1.59E-4,0.147901,0.046581,0.0,1.0,2669.324219,
93.569069,237.096283,238.289719,7.393809,-0.181167,7.393809,-0.181167,240.000137,240.0,346.455536,73.731636,1125.499634,294.988403,277.801971,0.055588,-0.02044,1113.738525,9.03E-4,0.147858,0.052321,0.0,1.0,2669.559326,
Command: turn_+45
93.587677,241.168243,242.361694,7.39868,-0.273702,7.39868,-0.273702,240.000137,240.0,350.52121,73.804802,1126.274414,295.00766,277.772156,0.050461,-0.016682,1115.288452,0.002588,0.147876,0.054932,0.0,1.0,2669.742188,
93.601669,244.934174,246.127609,7.406669,-0.334204,7.406669,-0.334204,240.000137,240.0,354.277161,73.870628,1127.31958,295.076935,277.745728,0.044213,-0.004243,1116.846558,0.001303,0.147974,0.1,0.0,1.0,2669.910889,
93.607178,250.588791,251.782242,7.430226,-0.36016,7.430226,-0.36016,250.000137,250.0,359.919312,73.966133,1129.682007,295.398499,277.709808,0.041201,0.048269,1119.006958,0.001591,0.148133,0.1,0.0,1.0,2670.151855,
93.582054,256.24939,257.442841,7.467841,-0.148699,7.467841,-0.148699,260.000153,260.0,365.577606,74.057365,1133.840454,295.856049,277.682922,0.062342,0.118256,1120.968506,0.001715,0.148605,0.1,0.0,1.0,2670.353271,
93.550713,260.030853,261.224304,7.488317,0.135744,7.488317,0.135744,260.000153,260.0,369.36322,74.11557,1137.422729,296.1409,277.672852,0.084753,0.158703,1122.408081,0.00119,0.149108,0.1,0.0,1.0,2670.455322,
93.494247,265.712524,266.905945,7.503921,0.700524,7.503921,0.700524,270.000153,270.0,375.064392,74.198677,1142.766479,296.439728,277.672607,0.120297,0.194612,1124.625366,-6.46E-4,0.149766,0.1,0.0,1.0,2670.559814,
93.458679,269.511292,270.704742,7.50222,1.09832,7.50222,1.09832,270.000153,270.0,378.878601,74.251251,1145.470581,296.533417,277.683136,0.139819,0.199466,1126.367676,-0.002392,0.150034,0.1,0.0,1.0,2670.606689,
93.415932,275.222534,276.415955,7.493595,1.627349,7.493595,1.627349,270.000153,270.0,384.612427,74.326065,1147.649658,296.541656,277.714539,0.156741,0.184038,1129.122437,-0.00523,0.150044,0.1,0.0,1.0,2670.662354,
93.395569,279.039459,280.23291,7.48732,1.8872,7.48732,1.8872,280.000153,280.0,388.438751,74.373444,1147.999023,296.498169,277.74472,0.159154,0.165542,1131.059814,-0.006988,0.149935,0.1,0.0,1.0,2670.700195,
93.375099,284.774994,285.968445,7.477749,2.128581,7.477749,2.128581,280.000153,280.0,394.177368,74.441147,1147.255249,296.438263,277.801544,0.152304,0.139187,1133.888184,-0.008987,0.149746,0.1,0.0,1.0,2670.768311,
93.366058,288.603516,289.796967,7.47213,2.201347,7.47213,2.201347,290.000153,290.0,397.999878,74.484268,1146.254517,296.440399,277.845856,0.143892,0.128647,1135.633911,-0.009848,0.149615,0.1,0.0,1.0,2670.823486,
93.35498,294.348022,295.541473,7.463849,2.24031,7.463849,2.24031,290.000153,290.0,403.726776,74.546188,1144.541626,296.542389,277.920898,0.131497,0.128741,1137.822754,-0.010483,0.149443,0.1,0.0,1.0,2670.919189,
93.347031,298.180542,299.373993,7.459948,2.255776,7.459948,2.255776,300.000153,300.0,407.540131,74.585716,1143.559692,296.676758,277.976654,0.126068,0.138967,1139.132568,-0.010624,0.149335,0.1,0.0,1.0,2670.98877,
93.330566,303.928711,305.122162,7.456246,2.31575,7.456246,2.31575,300.000153,300.0,413.25528,74.642441,1142.637817,296.950745,278.069824,0.124351,0.164355,1140.685059,-0.010742,0.149199,0.1,0.0,1.0,2671.09375,
93.315712,307.759857,308.953278,7.455669,2.395337,7.455669,2.395337,310.000153,310.0,417.06366,74.67852,1142.463013,297.157043,278.13913,0.127281,0.183653,1141.472534,-0.010898,0.14914,0.1,0.0,1.0,2671.160156,
93.288643,313.503937,314.697388,7.454799,2.574005,7.454799,2.574005,310.000153,310.0,422.776428,74.730003,1142.694702,297.460266,278.255371,0.135561,0.209234,1142.31665,-0.011406,0.149113,0.1,0.0,1.0,2671.249756,
93.269211,317.333405,318.526855,7.453415,2.718158,7.453415,2.718158,320.000153,320.0,426.585876,74.76255,1142.949829,297.641174,278.341644,0.141871,0.221341,1142.781128,-0.011943,0.149104,0.1,0.0,1.0,2671.303223,
93.240982,323.076782,324.270203,7.449623,2.942189,7.449623,2.942189,320.000153,320.0,432.301239,74.808754,1143.119019,297.869446,278.484528,0.149703,0.230768,1143.322388,-0.012944,0.149068,0.1,0.0,1.0,2671.375977,
93.224091,326.905212,328.098633,7.44627,3.075855,7.44627,3.075855,330.000153,330.0,436.11142,74.837883,1142.957031,297.996857,278.588623,0.152754,0.2321,1143.604736,-0.013663,0.149021,0.1,0.0,1.0,2671.422852,
93.202568,332.645844,333.839294,7.439922,3.236266,7.439922,3.236266,330.000153,330.0,441.824554,74.879211,1142.214355,298.16922,278.757172,0.153644,0.230205,1143.878784,-0.014647,0.148925,0.1,0.0,1.0,2671.494873,
93.190758,336.472778,337.666229,7.435472,3.310399,7.435472,3.310399,340.000153,340.0,445.630646,74.905289,1141.442261,298.284943,278.877228,0.152199,0.228595,1144.030762,-0.015188,0.148842,0.1,0.0,1.0,2671.546387,
93.176353,341.890686,343.084137,7.428279,3.380043,7.428279,3.380043,340.000153,340.0,451.017609,74.940361,1140.098755,298.467133,279.057007,0.148524,0.22876,1144.051147,-0.015764,0.148709,0.1,0.0,1.0,2671.624756,
93.166283,346.031403,347.224854,7.422595,3.41477,7.422595,3.41477,350.000153,350.0,455.132599,74.965797,1138.995117,298.627747,279.20166,0.146034,0.231845,1143.973755,-0.016095,0.148566,0.1,0.0,1.0,2671.688965,
93.152618,351.761993,352.955444,7.416006,3.454771,7.416006,3.454771,350.000153,350.0,460.823822,74.999123,1137.583496,298.8815,279.411743,0.143552,0.240294,1143.776978,-0.016261,0.148452,0.1,0.0,1.0,2671.781982,
93.14286,355.579102,356.772552,7.412258,3.485671,7.412258,3.485671,360.000153,360.0,464.61441,75.020164,1136.816772,299.066437,279.557953,0.14313,0.247786,1143.529053,-0.016387,0.14836,0.1,0.0,1.0,2671.845215,
93.126984,361.299713,362.493164,7.406572,3.547439,7.406572,3.547439,360.000153,360.0,470.296021,75.050003,1135.883545,299.355438,279.786407,0.144277,0.259749,1143.013184,-0.016598,0.148245,0.1,0.0,1.0,2671.940186,
93.11573,365.110107,366.303558,7.403493,3.598524,7.403493,3.598524,360.000153,360.0,474.08139,75.068764,1135.381226,299.548706,279.944672,0.145858,0.267034,1142.594727,-0.016784,0.148166,0.1,0.0,1.0,2672.002441,
93.098358,370.819916,372.013367,7.398844,3.685036,7.398844,3.685036,370.000153,370.0,479.756622,75.095261,1134.724121,299.830627,280.190735,0.148581,0.275589,1141.848267,-0.017136,0.14807,0.1,0.0,1.0,2672.094482,
93.08712,374.624329,375.81778,7.396015,3.743003,7.396015,3.743003,370.000153,370.0,483.538269,75.111855,1134.292603,300.011139,280.360168,0.15014,0.27944,1141.36499,-0.017408,0.148006,0.1,0.0,1.0,2672.155273,
93.071198,380.325409,381.518829,7.391204,3.822948,7.391204,3.822948,380.000153,380.0,489.207947,75.135216,1133.559448,300.272217,280.621704,0.151558,0.282885,1140.543213,-0.017824,0.14792,0.1,0.0,1.0,2672.246582,
93.061508,384.124298,385.317749,7.387707,3.866941,7.387707,3.866941,380.000153,380.0,492.985504,75.149818,1132.981689,300.44281,280.800446,0.151791,0.284183,1140.043823,-0.018086,0.147824,0.1,0.0,1.0,2672.308838,
93.048225,389.817352,391.010773,7.38282,3.918579,7.38282,3.918579,390.000153,390.0,498.64798,75.170357,1132.02002,300.699951,281.074127,0.151274,0.285824,1139.222656,-0.018414,0.147754,0.1,0.0,1.0,2672.404297,
93.040207,393.610596,394.804016,7.379489,3.943758,7.379489,3.943758,390.000153,390.0,502.420227,75.183197,1131.356445,300.875427,281.259766,0.150592,0.287244,1138.700562,-0.018588,0.147688,0.1,0.0,1.0,2672.469971,
93.028778,399.295837,400.489288,7.373922,3.973365,7.373922,3.973365,400.000153,400.0,508.074402,75.201241,1130.331177,301.147919,281.542145,0.149561,0.290404,1137.880615,-0.01878,0.14759,0.1,0.0,1.0,2672.571045,
93.021309,403.082855,404.276306,7.370265,3.990693,7.370265,3.990693,400.000153,400.0,511.841003,75.212502,1129.657227,301.335938,281.732605,0.149089,0.29321,1137.311279,-0.018921,0.147478,0.1,0.0,1.0,2672.640137,
92.993919,408.757629,409.95108,7.365986,4.015109,7.365986,4.015109,410.000153,410.0,517.486633,75.228302,1128.559814,301.626495,282.020905,0.148265,0.298216,1136.383423,-0.019003,0.147405,0.1,0.0,1.0,2672.736084,
92.972229,412.538391,413.731842,7.362915,4.026464,7.362915,4.026464,410.000153,410.0,521.246948,75.238152,1127.664795,301.827911,282.214569,0.147136,0.302293,1135.790039,-0.01912,0.14732,0.1,0.0,1.0,2672.787354,
92.940514,418.203125,419.396576,7.35721,4.036813,7.35721,4.036813,420.000153,420.0,526.881531,75.251991,1126.180542,302.145081,282.506897,0.14554,0.309897,1134.799805,-0.019174,0.147258,0.1,0.0,1.0,2672.851563,
92.919868,421.976776,423.170227,7.35228,4.043541,7.35228,4.043541,420.000153,420.0,530.633606,75.26062,1125.112549,302.365906,282.702881,0.144915,0.315829,1134.153809,-0.019223,0.147144,0.1,0.0,1.0,2672.888916,
92.889008,427.630127,428.823547,7.345231,4.059415,7.345231,4.059415,430.000153,430.0,536.254944,75.272728,1123.467529,302.706757,282.998505,0.144905,0.325271,1133.066162,-0.019255,0.147046,0.1,0.0,1.0,2672.938965,
92.868683,431.395569,432.58902,7.340261,4.075547,7.340261,4.075547,430.000153,430.0,539.997986,75.280258,1122.387817,302.936768,283.196747,0.145438,0.331347,1132.336548,-0.019331,0.146905,0.1,0.0,1.0,2672.969727,
92.838577,437.036987,438.230438,7.333564,4.106931,7.333564,4.106931,440.000153,440.0,545.605835,75.290787,1120.800293,303.280273,283.495819,0.146705,0.339273,1131.161865,-0.019407,0.146805,0.1,0.0,1.0,2673.013184,
92.819,440.793365,441.986786,7.328664,4.130842,7.328664,4.130842,440.000153,440.0,549.340027,75.297318,1119.747681,303.506012,283.69635,0.147606,0.343467,1130.331177,-0.019557,0.146671,0.1,0.0,1.0,2673.04126,
92.790634,446.419891,447.613342,7.3217,4.165912,7.3217,4.165912,450.000153,450.0,554.93457,75.306412,1118.12146,303.838654,283.998718,0.14865,0.348065,1128.981201,-0.019671,0.146573,0.1,0.0,1.0,2673.083008,
92.772774,450.167023,451.360443,7.316528,4.186636,7.316528,4.186636,450.000153,450.0,558.659729,75.31205,1116.996826,304.057159,284.201233,0.149018,0.350207,1128.0896,-0.019838,0.146434,0.1,0.0,1.0,2673.111816,
92.74749,455.780365,456.973816,7.309219,4.210504,7.309219,4.210504,460.000153,460.0,564.240234,75.319908,1115.243042,304.383057,284.506165,0.149036,0.352607,1126.692627,-0.019936,0.146331,0.1,0.0,1.0,2673.157227,
92.731575,459.517609,460.71106,7.303846,4.221758,7.303846,4.221758,460.000153,460.0,567.955627,75.324791,1114.046021,304.60083,284.710114,0.148782,0.354015,1125.724365,-0.02005,0.146184,0.1,0.0,1.0,2673.189209,
92.708801,465.114807,466.308258,7.296398,4.232696,7.296398,4.232696,460.000153,460.0,573.521179,75.331627,1112.236328,304.930939,285.016754,0.148222,0.356293,1124.17627,-0.020104,0.146077,0.1,0.0,1.0,2673.240479,
92.694397,468.841949,470.03537,7.291051,4.237615,7.291051,4.237615,470.000153,470.0,577.226563,75.335892,1111.049316,305.153931,285.221588,0.147862,0.358047,1123.157593,-0.020156,0.145928,0.1,0.0,1.0,2673.2771,
92.673538,474.424683,475.618134,7.283885,4.243989,7.283885,4.243989,470.000153,470.0,582.777344,75.341881,1109.321777,305.492828,285.529449,0.147523,0.361026,1121.578979,-0.020179,0.145821,0.1,0.0,1.0,2673.334961,
92.660057,478.141235,479.334686,7.278872,4.248893,7.278872,4.248893,480.000153,480.0,586.473206,75.345634,1108.223999,305.720886,285.735016,0.147477,0.363115,1120.49939,-0.020209,0.145678,0.1,0.0,1.0,2673.375244,
92.640312,483.707214,484.900665,7.272326,4.258205,7.272326,4.258205,480.000153,480.0,592.010193,75.350914,1106.65625,306.064362,286.043945,0.147632,0.366131,1118.812622,-0.020233,0.145577,0.1,0.0,1.0,2673.438232,
92.627632,487.413544,488.606995,7.267711,4.265646,7.267711,4.265646,490.000153,490.0,595.697327,75.354225,1105.66748,306.293243,286.250214,0.147847,0.367908,1117.719727,-0.020277,0.145447,0.1,0.0,1.0,2673.481934,
92.609238,492.965393,494.158844,7.261558,4.277588,7.261558,4.277588,490.000153,490.0,601.221985,75.35891,1104.233398,306.635406,286.560089,0.148198,0.370085,1116.06958,-0.020313,0.145354,0.1,0.0,1.0,2673.549805,
92.596962,496.660492,497.853943,7.257253,4.285463,7.257253,4.285463,500.000153,500.0,604.901123,75.361862,1103.307983,306.862427,286.766937,0.148393,0.37119,1114.903809,-0.020369,0.145231,0.1,0.0,1.0,2673.596436,
92.580048,502.195099,503.38855,7.25154,4.295949,7.25154,4.295949,500.000153,500.0,610.414185,75.366058,1101.952393,307.201538,287.077576,0.148549,0.372401,1113.170044,-0.020407,0.145145,0.1,0.0,1.0,2673.668701,
92.569382,505.882599,507.07605,7.24742,4.301392,7.24742,4.301392,510.000153,510.0,614.085815,75.368721,1101.076782,307.427124,287.28479,0.148526,0.373011,1112.154541,-0.020457,0.145031,0.1,0.0,1.0,2673.719238,
92.554146,511.406769,512.60022,7.241851,4.307007,7.241851,4.307007,510.000153,510.0,619.587891,75.372551,1099.782593,307.765961,287.595795,0.148381,0.373835,1110.622681,-0.020483,0.144948,0.1,0.0,1.0,2673.797607,
92.544441,515.084961,516.278442,7.237949,4.309463,7.237949,4.309463,510.000153,510.0,623.25238,75.375,1098.946045,307.992523,287.803192,0.148248,0.3744,1109.603638,-0.02051,0.144837,0.1,0.0,1.0,2673.851563,
92.530457,520.595642,521.789063,7.232774,4.311924,7.232774,4.311924,520.000122,520.0,628.743958,75.378563,1097.736816,308.333801,288.114288,0.148063,0.375344,1108.088501,-0.020521,0.144759,0.1,0.0,1.0,2673.935303,
92.521477,524.265076,525.458557,7.229152,4.313272,7.229152,4.313272,520.000122,520.0,632.401733,75.380081,1096.969849,308.562195,288.321686,0.14798,0.376026,1107.092163,-0.020533,0.144655,0.1,0.0,1.0,2673.992676,
92.508453,529.763,530.956482,7.224361,4.315465,7.224361,4.315465,530.000122,530.0,637.883728,75.380936,1095.872803,308.905701,288.632782,0.147935,0.377081,1105.624878,-0.020539,0.144583,0.1,0.0,1.0,2674.081055,
92.500061,533.424255,534.617737,7.221033,4.317241,7.221033,4.317241,530.000122,530.0,641.535461,75.381531,1095.18103,309.13501,288.840149,0.147955,0.377748,1104.668213,-0.02055,0.144487,0.1,0.0,1.0,2674.141357,
92.487801,538.909363,540.102844,7.216654,4.320382,7.216654,4.320382,540.000122,540.0,647.008789,75.382462,1094.19165,309.478882,289.151154,0.148032,0.378627,1103.226807,-0.020558,0.144421,0.1,0.0,1.0,2674.233643,
92.480034,542.563171,543.756653,7.2136,4.322565,7.2136,4.322565,540.000122,540.0,650.654968,75.383118,1093.567017,309.707855,289.35849,0.148082,0.379102,1102.338257,-0.020573,0.144333,0.1,0.0,1.0,2674.296631,
92.468834,548.038513,549.231934,7.209558,4.325574,7.209558,4.325574,550.000122,550.0,656.120483,75.384186,1092.667725,310.050934,289.669403,0.148135,0.379658,1101.039795,-0.020584,0.144272,0.1,0.0,1.0,2674.393066,
92.46167,551.685242,552.878662,7.20673,4.327254,7.20673,4.327254,550.000122,550.0,659.761719,75.384949,1092.094727,310.279358,289.876648,0.148145,0.379936,1100.199463,-0.020598,0.144191,0.1,0.0,1.0,2674.45874,
92.451248,557.149292,558.342712,7.202967,4.329109,7.202967,4.329109,560.000122,560.0,665.220032,75.3862,1091.265137,310.621826,290.187378,0.148122,0.380264,1098.936523,-0.020606,0.144135,0.1,0.0,1.0,2674.558838,
92.444695,560.789612,561.983032,7.200324,4.329831,7.200324,4.329831,560.000122,560.0,668.856689,75.387108,1090.736938,310.850189,290.39447,0.148079,0.380451,1098.168091,-0.020615,0.144059,0.1,0.0,1.0,2674.626953,
92.435158,566.244324,567.437744,7.196818,4.330319,7.196818,4.330319,570.000122,570.0,674.308411,75.388596,1089.973999,311.192993,290.704956,0.148006,0.380731,1096.995117,-0.020618,0.144006,0.1,0.0,1.0,2674.730713,
92.429199,569.878662,571.072144,7.194366,4.330348,7.194366,4.330348,570.000122,570.0,677.940796,75.389679,1089.492554,311.421753,290.911865,0.147951,0.380925,1096.292847,-0.020621,0.143936,0.1,0.0,1.0,2674.80127,
92.420479,575.324829,576.518311,7.191127,4.330213,7.191127,4.330213,570.000122,570.0,683.386475,75.391449,1088.802612,311.765289,291.222107,0.147878,0.381237,1095.227173,-0.020621,0.143887,0.1,0.0,1.0,2674.908691,
92.414978,578.953613,580.147095,7.188876,4.330065,7.188876,4.330065,580.000122,580.0,687.015076,75.392731,1088.369995,311.994507,291.428833,0.147851,0.381448,1094.580078,-0.02062,0.143823,0.1,0.0,1.0,2674.981445,
92.40699,584.3927,585.586121,7.185919,4.329952,7.185919,4.329952,580.000122,580.0,692.455322,75.394829,1087.755371,312.338501,291.738861,0.147837,0.381758,1093.635132,-0.020619,0.143778,0.1,0.0,1.0,2675.092041,
92.401855,588.016113,589.209534,7.183867,4.329972,7.183867,4.329972,590.000122,590.0,696.080505,75.396332,1087.370483,312.567841,291.945465,0.14784,0.381939,1093.025024,-0.020619,0.143718,0.1,0.0,1.0,2675.166992,
