airspeed_indicator_indicated_speed_kt,altimeter_indicated_altitude_ft,altimeter_pressure_alt_ft,attitude_indicator_indicated_pitch_deg,attitude_indicator_indicated_roll_deg,attitude_indicator_internal_pitch_deg,attitude_indicator_internal_roll_deg,encoder_indicated_altitude_ft,encoder_pressure_alt_ft,gps_indicated_altitude_ft,gps_indicated_ground_speed_kt,gps_indicated_vertical_speed,indicated_heading_deg,magnetic_compass_indicated_heading_deg,slip_skid_ball_indicated_slip_skid,turn_indicator_indicated_turn_rate,vertical_speed_indicator_indicated_speed_fpm,flight_aileron,flight_elevator,flight_rudder,flight_flaps,engine_throttle,engine_rpm
4.070072,-97.066612,-95.873169,2.976496,1.389955,2.594427,0.116392,-99.999855,-100.0,2.286575,0.0,0.008475,297.868866,278.32132,0.008896,-0.050548,-11.091168,-0.0,0.0,0.0,0.0,0.0,599.200195
4.049402,-97.086319,-95.892876,2.926846,1.226486,2.594144,0.117481,-99.999855,-100.0,2.286618,0.0,0.004589,297.867645,281.732391,0.008689,-0.043463,-16.668608,-0.019856,0.051889,0.0,0.0,1.0,609.119446
4.045518,-97.096519,-95.903076,2.771862,0.735441,2.586601,0.117906,-99.999855,-100.0,2.286612,3.2E-5,-0.008508,297.866791,283.961212,0.008476,-0.039321,-15.110033,-0.017521,0.051883,6.1E-5,0.0,1.0,675.943115
4.090425,-97.108459,-95.915016,2.580855,0.217363,2.550509,0.11621,-99.999855,-100.0,2.286498,2.28E-4,-0.033061,297.865295,287.197113,0.008994,-0.033929,-8.493952,-0.010506,0.051732,1.04E-4,0.0,1.0,859.732849
4.160327,-97.114662,-95.921211,2.525051,0.112695,2.525051,0.112695,-99.999855,-100.0,2.286438,8.22E-4,-7.37E-4,297.864105,289.262207,0.008659,-0.030845,-14.646493,-0.005208,0.051352,1.5E-4,0.0,1.0,1014.025391
4.354373,-97.121902,-95.928459,2.52388,0.103471,2.52388,0.103471,-99.999855,-100.0,2.286598,0.004243,0.062236,297.861847,292.190521,0.010734,-0.02692,-12.108865,-0.00161,0.050501,2.38E-4,0.0,1.0,1259.006714
4.534658,-97.125328,-95.931885,2.53949,0.096021,2.53949,0.096021,-99.999855,-100.0,2.286851,0.009038,0.09821,297.859619,293.866028,0.012858,-0.024981,-16.183388,-0.001478,0.050478,3.51E-4,0.0,1.0,1403.831421
4.938799,-97.129623,-95.93618,2.577307,0.082183,2.577307,0.082183,-99.999855,-100.0,2.287496,0.023821,0.151536,297.853027,296.398438,0.019095,-0.022699,-12.145878,-0.001372,0.05079,4.62E-4,0.0,1.0,1617.335083
5.313774,-97.131897,-95.938454,2.607516,0.071978,2.607516,0.071978,-99.999855,-100.0,2.288129,0.041594,0.185836,297.843445,298.05249,0.02547,-0.022035,-10.351404,-0.001174,0.051546,7.92E-4,0.0,1.0,1748.197998
5.918702,-97.134056,-95.940605,2.64485,0.059461,2.64485,0.059461,-99.999855,-100.0,2.289192,0.07735,0.250216,297.821747,300.030914,0.03746,-0.022624,-7.353166,-0.001028,0.05215,0.001271,0.0,1.0,1891.719238
6.169667,-97.134628,-95.941185,2.65718,0.055411,2.65718,0.055411,-99.999855,-100.0,2.289649,0.094557,0.25514,297.810211,300.690308,0.045271,-0.023385,-11.475009,-0.001028,0.05215,0.001271,0.0,1.0,1935.962524
6.169667,-97.134628,-95.941185,2.65718,0.055411,2.65718,0.055411,-99.999855,-100.0,2.289649,0.094557,0.25514,297.810211,300.690308,0.045271,-0.023385,-11.475009,-0.001028,0.05215,0.001271,0.0,1.0,1935.962524
7.707426,-97.136337,-95.942894,2.703601,0.042369,2.703601,0.042369,-99.999855,-100.0,2.292761,0.229019,0.377568,297.711121,303.509644,0.034939,-0.032219,-4.475133,-7.92E-4,0.053144,0.002933,0.0,1.0,2104.251221
8.640358,-97.136055,-95.942612,2.71682,0.040788,2.71682,0.040788,-99.999855,-100.0,2.294948,0.334047,0.449048,297.627533,304.51416,0.029625,-0.040361,4.142527,-6.05E-4,0.054072,0.007887,0.0,1.0,2158.002441
9.252452,-97.13559,-95.942146,2.721006,0.041905,2.721006,0.041905,-99.999855,-100.0,2.296534,0.412578,0.498622,297.567719,304.958099,0.026851,-0.045921,8.940151,-5.83E-4,0.054336,0.012067,0.0,1.0,2182.431641
10.194027,-97.134499,-95.941048,2.724273,0.046223,2.724273,0.046223,-99.999855,-100.0,2.299235,0.548309,0.578645,297.472015,305.352509,0.022802,-0.054119,15.065067,-5.99E-4,0.05442,0.015057,0.0,1.0,2208.749023
10.806381,-97.133553,-95.940109,2.725392,0.050397,2.725392,0.050397,-99.999855,-100.0,2.301174,0.646301,0.631602,297.405762,305.438293,0.020654,-0.059537,18.785563,-6.6E-4,0.054485,0.019843,0.0,1.0,2220.547852
11.775729,-97.131721,-95.938278,2.726032,0.058797,2.726032,0.058797,-99.999855,-100.0,2.304556,0.817194,0.717285,297.299225,305.323029,0.016714,-0.067377,16.068886,-7.2E-4,0.054508,0.023155,0.0,1.0,2233.218262
12.426716,-97.130257,-95.936813,2.72608,0.065506,2.72608,0.065506,-99.999855,-100.0,2.30705,0.942852,0.776573,297.225311,305.084778,0.014048,-0.072427,10.623977,-8.4E-4,0.054521,0.028482,0.0,1.0,2238.662109
13.407728,-97.127693,-95.93425,2.72586,0.07691,2.72586,0.07691,-99.999855,-100.0,2.311154,1.148598,0.862993,297.115692,304.501221,0.010183,-0.078833,10.62049,-9.36E-4,0.054522,0.032178,0.0,1.0,2243.543945
14.090041,-97.125656,-95.932213,2.725722,0.085739,2.725722,0.085739,-99.999855,-100.0,2.314265,1.303416,0.924893,297.03891,303.94754,0.007261,-0.082857,6.556307,-0.001099,0.054517,0.037659,0.0,1.0,2245.307617
15.071628,-97.12236,-95.928917,2.72564,0.099674,2.72564,0.099674,-99.999855,-100.0,2.31912,1.543097,1.013591,296.932068,302.95694,0.003594,-0.087285,11.830059,-0.001225,0.054514,0.041498,0.0,1.0,2248.120361
15.726108,-97.119919,-95.926476,2.725878,0.109754,2.725878,0.109754,-99.999855,-100.0,2.322605,1.713602,1.073315,296.861755,302.182343,0.00124,-0.089757,11.034795,-0.001424,0.054513,0.04684,0.0,1.0,2250.246094
16.680731,-97.116013,-95.922569,2.726712,0.12508,2.726712,0.12508,-99.999855,-100.0,2.328047,1.977222,1.163586,296.763092,300.910431,-0.001929,-0.092293,17.323631,-0.001568,0.054518,0.050356,0.0,1.0,2253.45459
17.333857,-97.113091,-95.919647,2.727861,0.134641,2.727861,0.134641,-99.999855,-100.0,2.332027,2.168014,1.221937,296.696625,299.953949,-0.004709,-0.093679,18.670996,-0.001787,0.054534,0.055289,0.0,1.0,2255.648193
18.312277,-97.108353,-95.914902,2.730475,0.145854,2.730475,0.145854,-99.999855,-100.0,2.338373,2.469061,1.312108,296.606812,298.414307,-0.008085,-0.093929,17.186234,-0.001923,0.054557,0.058612,0.0,1.0,2258.857178
18.989988,-97.104797,-95.911354,2.73288,0.152547,2.73288,0.152547,-99.999855,-100.0,2.343046,2.688349,1.374813,296.55246,297.286255,-0.009776,-0.092855,9.00869,-0.002084,0.054609,0.063103,0.0,1.0,2261.009766
19.935764,-97.099464,-95.906021,2.73667,0.160837,2.73667,0.160837,-99.999855,-100.0,2.349952,3.009025,1.461467,296.491577,295.649536,-0.010429,-0.089128,10.426408,-0.002179,0.054658,0.06582,0.0,1.0,2263.912354
20.556042,-97.095741,-95.90229,2.739477,0.166124,2.739477,0.166124,-99.999855,-100.0,2.354722,3.228223,1.522028,296.459839,294.550415,-0.01009,-0.085693,16.255678,-0.002298,0.054733,0.068864,0.0,1.0,2265.753174
21.54945,-97.089355,-95.895912,2.744192,0.174423,2.744192,0.174423,-99.999855,-100.0,2.362774,3.594527,1.609922,296.420502,292.766937,-0.00901,-0.079011,8.69878,-0.002373,0.05479,0.070451,0.0,1.0,2268.615723
22.192795,-97.084976,-95.891533,2.747461,0.180091,2.747461,0.180091,-99.999855,-100.0,2.368248,3.840915,1.670516,296.398773,291.613495,-0.008169,-0.074645,17.873405,-0.002492,0.054884,0.072418,0.0,1.0,2270.41626
23.182121,-97.077835,-95.884392,2.752468,0.189235,2.752468,0.189235,-99.999855,-100.0,2.377073,4.233892,1.761491,296.366516,289.863586,-0.007154,-0.06855,15.334357,-0.002573,0.054949,0.073505,0.0,1.0,2273.121094
23.822468,-97.072952,-95.879509,2.755848,0.195712,2.755848,0.195712,-99.999855,-100.0,2.383046,4.497082,1.819004,296.342834,288.759003,-0.007199,-0.065538,13.941541,-0.002703,0.055049,0.075117,0.0,1.0,2274.837646
24.755131,-97.06546,-95.872017,2.765357,0.210089,2.765357,0.210089,-99.999855,-100.0,2.392566,4.892221,2.036327,296.301453,287.208862,-0.007772,-0.062613,13.080207,-0.002796,0.055117,0.076302,0.0,1.0,2277.299316
25.393816,-97.059975,-95.866531,2.770783,0.219581,2.770783,0.219581,-99.999855,-100.0,2.399722,5.170722,2.189638,296.265778,286.19696,-0.010087,-0.062042,14.499053,-0.003001,0.055307,0.078371,0.0,1.0,2278.963867
26.376919,-97.050941,-95.857491,2.775638,0.23155,2.775638,0.23155,-99.999855,-100.0,2.411211,5.611722,2.284532,296.199921,284.733582,-0.0152,-0.062991,19.66712,-0.003137,0.055416,0.080154,0.0,1.0,2281.502441
27.013201,-97.044724,-95.85128,2.778964,0.239369,2.778964,0.239369,-99.999855,-100.0,2.418933,5.905114,2.347203,296.149994,283.854736,-0.018748,-0.06466,12.983139,-0.003308,0.055513,0.083447,0.0,1.0,2283.134766
27.940355,-97.035187,-95.841743,2.78419,0.250531,2.78419,0.250531,-99.999855,-100.0,2.430583,6.34299,2.44595,296.072388,282.682404,-0.024011,-0.067518,19.864771,-0.00342,0.055579,0.085944,0.0,1.0,2285.500488
28.574202,-97.028343,-95.8349,2.788163,0.258196,2.788163,0.258196,-99.999855,-100.0,2.438841,6.649918,2.508889,296.016144,281.958344,-0.02821,-0.069725,16.075472,-0.003579,0.055684,0.089824,0.0,1.0,2287.114258
29.522589,-97.017609,-95.824165,2.794212,0.268678,2.794212,0.268678,-99.999855,-100.0,2.451636,7.120147,2.60519,295.933014,281.000458,-0.033799,-0.072401,16.846378,-0.003689,0.055763,0.092636,0.0,1.0,2289.524902
30.152964,-97.010162,-95.816719,2.798516,0.275489,2.798516,0.275489,-99.999855,-100.0,2.46044,7.439998,2.671111,295.879395,280.449982,-0.037057,-0.073703,15.335998,-0.003838,0.055884,0.096793,0.0,1.0,2291.125977
31.12113,-96.998222,-95.804779,2.805142,0.284739,2.805142,0.284739,-99.999855,-100.0,2.474437,7.942733,2.772604,295.805023,279.742188,-0.040649,-0.074134,10.721631,-0.003936,0.05597,0.099474,0.0,1.0,2293.58667
31.746378,-96.990196,-95.796745,2.809647,0.290418,2.809647,0.290418,-99.999855,-100.0,2.483792,8.274888,2.835409,295.762268,279.374939,-0.041552,-0.073529,11.341496,-0.004068,0.056103,0.103192,0.0,1.0,2295.177734
32.654556,-96.97805,-95.784607,2.822481,0.29771,2.822481,0.29771,-99.999855,-100.0,2.498482,8.767524,3.279801,295.709839,278.96817,-0.041732,-0.071214,18.81428,-0.004149,0.056193,0.10533,0.0,1.0,2297.491699
33.273499,-96.969261,-95.775818,2.82817,0.302963,2.82817,0.302963,-99.999855,-100.0,2.509507,9.110804,3.333797,295.67807,278.776093,-0.041198,-0.069183,11.239543,-0.004253,0.05645,0.107951,0.0,1.0,2299.07373
34.225235,-96.954979,-95.761536,2.834357,0.310873,2.834357,0.310873,-99.999855,-100.0,2.526912,9.648436,3.434821,295.633636,278.614166,-0.03941,-0.065734,16.083242,-0.004328,0.056563,0.10954,0.0,1.0,2301.506104
34.840775,-96.945297,-95.751854,2.838658,0.316463,2.838658,0.316463,-99.999855,-100.0,2.53849,10.002451,3.504024,295.604462,278.592957,-0.038561,-0.063855,12.288118,-0.004441,0.056687,0.111762,0.0,1.0,2303.080811
35.736168,-96.930588,-95.737144,2.845019,0.325035,2.845019,0.325035,-99.999855,-100.0,2.555788,10.525898,3.611412,295.558624,278.673828,-0.038091,-0.061962,19.242941,-0.004521,0.056773,0.11322,0.0,1.0,2305.372314
36.347889,-96.920128,-95.726685,2.849562,0.331553,2.849562,0.331553,-99.999855,-100.0,2.567937,10.889595,3.676729,295.522125,278.801392,-0.03868,-0.061627,19.554874,-0.004643,0.0569,0.115512,0.0,1.0,2306.941406
37.238525,-96.904373,-95.71093,2.855968,0.341374,2.855968,0.341374,-99.999855,-100.0,2.586075,11.426673,3.778357,295.460938,279.084076,-0.041079,-0.062426,18.745165,-0.004736,0.056991,0.117337,0.0,1.0,2309.227295
37.898705,-96.892296,-95.698853,2.860688,0.349299,2.860688,0.349299,-99.999855,-100.0,2.599851,11.830606,3.804785,295.408234,279.361694,-0.044325,-0.064082,13.190697,-0.004877,0.057119,0.120396,0.0,1.0,2310.923828
38.809246,-96.874893,-95.681442,2.87139,0.358695,2.87139,0.358695,-99.999855,-100.0,2.621085,12.396587,4.341627,295.329163,279.829834,-0.049851,-0.067025,19.597754,-0.00499,0.057214,0.123032,0.0,1.0,2313.271484
39.389259,-96.863243,-95.669792,2.877491,0.367747,2.877491,0.367747,-99.999855,-100.0,2.635126,12.762108,4.439636,295.275299,280.17337,-0.053086,-0.069147,15.022133,-0.005124,0.057428,0.126985,0.0,1.0,2314.769775
40.268288,-96.844757,-95.651314,2.884809,0.378831,2.884809,0.378831,-99.999855,-100.0,2.657024,13.323962,4.561562,295.194,280.751617,-0.058799,-0.071899,15.943294,-0.005254,0.05755,0.129678,0.0,1.0,2317.047607
40.894054,-96.831047,-95.637604,2.889811,0.38591,2.889811,0.38591,-99.999855,-100.0,2.673023,13.729297,4.645134,295.136688,281.198364,-0.062468,-0.073547,16.556673,-0.005412,0.057696,0.133743,0.0,1.0,2318.672363
41.766254,-96.811195,-95.617752,2.896458,0.393921,2.896458,0.393921,-99.999855,-100.0,2.6959,14.302145,4.758753,295.061768,281.859283,-0.066435,-0.074726,20.215271,-0.005513,0.057796,0.136609,0.0,1.0,2320.943604
42.386337,-96.796577,-95.603127,2.902472,0.399197,2.902472,0.399197,-99.999855,-100.0,2.712665,14.715019,5.060653,295.012451,282.349396,-0.068062,-0.07483,14.425042,-0.005627,0.057929,0.140355,0.0,1.0,2322.562744
43.274036,-96.774635,-95.581192,2.915666,0.407691,2.915666,0.407691,-99.999855,-100.0,2.739411,15.314719,5.46629,294.950104,283.069672,-0.06896,-0.073569,16.966957,-0.005703,0.058049,0.142821,0.0,1.0,2324.954102
43.862259,-96.759308,-95.565857,2.920305,0.41189,2.920305,0.41189,-99.999855,-100.0,2.757749,15.717767,5.538005,294.912445,283.552765,-0.068389,-0.072272,16.80999,-0.005824,0.058313,0.145938,0.0,1.0,2327.215332
44.76572,-96.73468,-95.541237,2.926539,0.417846,2.926539,0.417846,-99.999855,-100.0,2.786526,16.343988,5.657553,294.859894,284.290955,-0.0659,-0.069665,20.132511,-0.005884,0.058406,0.147821,0.0,1.0,2331.76709
45.350224,-96.718147,-95.524704,2.931009,0.421981,2.931009,0.421981,-99.999855,-100.0,2.805536,16.753222,5.739752,294.826721,284.759583,-0.064096,-0.068071,20.658144,-0.005969,0.058531,0.150449,0.0,1.0,2335.156006
46.200794,-96.693329,-95.499886,2.937533,0.42794,2.937533,0.42794,-99.999855,-100.0,2.833751,17.354136,5.859769,294.777679,285.419952,-0.061739,-0.066123,18.97024,-0.006028,0.05862,0.152107,0.0,1.0,2340.462158
46.807434,-96.67511,-95.481667,2.944257,0.433228,2.944257,0.433228,-99.999855,-100.0,2.85452,17.786249,6.448429,294.739655,285.869751,-0.05988,-0.065344,16.143394,-0.006113,0.058751,0.154559,0.0,1.0,2344.419922
47.653961,-96.648514,-95.455063,2.960052,0.449586,2.960052,0.449586,-99.999855,-100.0,2.887321,18.395086,6.895467,294.681824,286.461395,-0.059386,-0.064969,15.358489,-0.006189,0.058885,0.156461,0.0,1.0,2350.098877
48.234062,-96.629372,-95.435921,2.96443,0.4545,2.96443,0.4545,-99.999855,-100.0,2.910454,18.8151,6.975992,294.63681,286.837341,-0.059991,-0.065734,15.917546,-0.006423,0.059201,0.159352,0.0,1.0,2354.05249
49.103443,-96.599388,-95.405945,2.969785,0.461575,2.969785,0.461575,-99.999855,-100.0,2.945678,19.448828,7.106995,294.563721,287.350037,-0.061997,-0.067578,18.999674,-0.006493,0.059289,0.161603,0.0,1.0,2360.037109
49.682587,-96.57869,-95.385246,2.973941,0.466484,2.973941,0.466484,-99.999855,-100.0,2.969539,19.873703,7.199712,294.511261,287.654663,-0.064125,-0.069251,19.432238,-0.006594,0.059396,0.165257,0.0,1.0,2364.051025
50.574242,-96.545807,-95.352364,2.980554,0.47321,2.980554,0.47321,-99.999855,-100.0,3.006935,20.532322,7.347832,294.429657,288.061676,-0.067879,-0.071598,12.764317,-0.006664,0.059479,0.16788,0.0,1.0,2370.262695
51.103104,-96.525719,-95.332275,2.984731,0.477112,2.984731,0.477112,-99.999855,-100.0,3.029525,20.925936,7.431539,294.380951,288.266022,-0.069685,-0.072867,17.269087,-0.00676,0.059611,0.17196,0.0,1.0,2373.964111
52.015114,-96.490196,-95.296753,2.991647,0.482383,2.991647,0.482383,-99.999855,-100.0,3.069164,21.60919,7.582472,294.302063,288.550385,-0.072064,-0.07395,13.863915,-0.006816,0.059695,0.174396,0.0,1.0,2380.366211
52.589241,-96.467216,-95.273773,2.996209,0.485416,2.996209,0.485416,-99.999855,-100.0,3.094604,22.042847,7.67415,294.25528,288.684509,-0.072553,-0.074094,14.299927,-0.006891,0.059833,0.17834,0.0,1.0,2384.411377
53.424812,-96.433052,-95.239609,3.002534,0.488576,3.002534,0.488576,-99.999855,-100.0,3.132262,22.678095,7.812992,294.194366,288.816833,-0.071658,-0.073131,21.974337,-0.006935,0.059924,0.180679,0.0,1.0,2390.311523
54.019611,-96.408173,-95.214729,3.007199,0.490595,3.007199,0.490595,-99.999855,-100.0,3.159565,23.133827,7.906446,294.154907,288.865814,-0.06963,-0.071915,18.880453,-0.00698,0.060051,0.183725,0.0,1.0,2394.524902
54.874084,-96.371658,-95.178215,3.013645,0.492662,3.013645,0.492662,-99.999855,-100.0,3.199471,23.792866,8.045421,294.103424,288.871368,-0.06528,-0.069567,18.825939,-0.007008,0.060144,0.185698,0.0,1.0,2400.589111
55.418922,-96.347954,-95.15451,3.016917,0.494972,3.016917,0.494972,-99.999855,-100.0,3.225134,24.215576,8.03008,294.071594,288.836151,-0.062231,-0.068076,14.099413,-0.007038,0.060273,0.188272,0.0,1.0,2404.462158
56.293957,-96.309288,-95.115845,3.023074,0.496614,3.023074,0.496614,-99.999855,-100.0,3.266788,24.89819,8.174213,294.020447,288.71933,-0.055681,-0.066021,12.918301,-0.007071,0.060338,0.189864,0.0,1.0,2410.691895
56.860626,-96.283859,-95.090416,3.027394,0.497651,3.027394,0.497651,-99.999855,-100.0,3.294198,25.342615,8.267232,293.984467,288.60611,-0.051714,-0.065326,13.146917,-0.007094,0.060461,0.192421,0.0,1.0,2414.733154
57.708252,-96.244995,-95.051552,3.038141,0.496858,3.038141,0.496858,-99.999855,-100.0,3.33766,26.011576,8.840417,293.92627,288.385345,-0.046356,-0.065098,14.922054,-0.007109,0.060548,0.19422,0.0,1.0,2420.795898
58.225502,-96.22065,-95.027199,3.048277,0.496592,3.048277,0.496592,-99.999855,-100.0,3.365732,26.421698,9.780048,293.88739,288.222626,-0.043886,-0.065496,13.478553,-0.007098,0.060763,0.19713,0.0,1.0,2424.501953
59.116741,-96.176849,-94.983406,3.05671,0.496673,3.05671,0.496673,-89.999855,-90.0,3.417822,27.132313,9.932723,293.817017,287.897003,-0.03855,-0.06659,20.205387,-0.007094,0.060966,0.199074,0.0,1.0,2430.904053
59.678734,-96.148079,-94.954636,3.059928,0.496358,3.059928,0.496358,-89.999855,-90.0,3.451092,27.582518,10.022426,293.769379,287.665436,-0.03555,-0.067703,13.877878,-0.007095,0.061134,0.202592,0.0,1.0,2434.94873
60.49736,-96.104851,-94.911407,3.064746,0.494861,3.064746,0.494861,-89.999855,-90.0,3.500185,28.240911,10.167933,293.700592,287.296997,-0.031473,-0.068998,20.036451,-0.007091,0.061199,0.204974,0.0,1.0,2440.856445
61.056911,-96.074387,-94.880943,3.072984,0.498591,3.072984,0.498591,-89.999855,-90.0,3.535311,28.693596,10.843247,293.655182,287.026459,-0.028255,-0.069379,13.988697,-0.007069,0.061295,0.208414,0.0,1.0,2444.954102
61.91814,-96.02578,-94.832329,3.079929,0.495307,3.079929,0.495307,-89.999855,-90.0,3.59143,29.39332,10.993477,293.591553,286.586853,-0.021069,-0.069088,19.878433,-0.007123,0.06146,0.210684,0.0,1.0,2451.338135
62.474941,-95.993248,-94.799805,3.083471,0.492322,3.083471,0.492322,-89.999855,-90.0,3.628253,29.848341,11.092559,293.554138,286.290527,-0.015532,-0.06834,20.37114,-0.007076,0.061599,0.213866,0.0,1.0,2455.505615
63.30294,-95.976723,-94.783279,3.088687,0.486555,3.088687,0.486555,-89.999855,-90.0,3.684135,30.532492,11.249555,293.505981,285.83548,-0.005207,-0.066112,7.294663,-0.007033,0.061669,0.215736,0.0,1.0,2461.779541
63.851353,-95.976723,-94.783279,3.092452,0.482182,3.092452,0.482182,-89.999855,-90.0,3.721832,30.98963,11.356374,293.477844,285.528473,0.003042,-0.064216,7.294663,-0.006951,0.061774,0.218144,0.0,1.0,2465.971191
64.649353,-95.976723,-94.783279,3.105326,0.474873,3.105326,0.474873,-89.999855,-90.0,3.778904,31.657711,12.706533,293.441895,285.080933,0.015228,-0.060985,7.294663,-0.006888,0.061849,0.219551,0.0,1.0,2472.091553
65.198372,-95.976723,-94.783279,3.112271,0.482307,3.112271,0.482307,-89.999855,-90.0,3.821512,32.116768,12.948275,293.385651,284.777161,0.023436,-0.066211,7.294663,-0.006784,0.062107,0.0,0.0,1.0,2476.291504
66.094879,-95.976723,-94.783279,3.087159,0.54015,3.087159,0.54015,-89.999855,-90.0,3.888187,32.80695,13.311037,292.575928,284.329254,0.002569,-0.19021,7.294663,-0.00689,0.062245,0.002812,0.0,1.0,2482.738281
66.753922,-95.976723,-94.783279,3.069709,0.518595,3.069709,0.518595,-89.999855,-90.0,3.933151,33.287411,12.406074,291.540741,284.020508,-0.056588,-0.343833,7.294663,-0.007716,0.061743,0.043298,0.0,1.0,2487.415283
67.701241,-95.976723,-94.783279,3.091029,0.372493,3.091029,0.372493,-89.999855,-90.0,3.996284,33.981018,13.253926,289.741608,283.566223,-0.181512,-0.588865,7.294663,-0.007409,0.061394,0.095058,0.0,1.0,2494.388428
68.318695,-95.976723,-94.783279,3.08821,0.291264,3.08821,0.291264,-89.999855,-90.0,4.04074,34.444618,13.406568,288.567017,283.247498,-0.271862,-0.725685,7.294663,-0.005321,0.061821,0.185014,0.0,1.0,2499.110352
69.226234,-95.976723,-94.783279,3.090061,0.172783,3.090061,0.172783,-89.999855,-90.0,4.11043,35.141956,14.847066,287.264832,282.732178,-0.39626,-0.823088,7.294663,-0.004161,0.061764,0.243744,0.0,1.0,2506.207275
69.821831,-95.976723,-94.783279,3.076454,0.060891,3.076454,0.060891,-89.999855,-90.0,4.162591,35.60796,16.387785,286.900757,282.359863,-0.455204,-0.798924,7.294663,-0.002468,0.061801,0.308853,0.0,1.0,2510.913818
70.72934,-95.976723,-94.783279,2.997894,-0.161737,2.997894,-0.161737,-89.999855,-90.0,4.246117,36.308567,16.41984,287.322418,281.762909,-0.481213,-0.61593,7.294663,-8.7E-4,0.061529,0.327057,0.0,1.0,2517.974854
71.314354,-95.976723,-94.783279,2.974664,-0.215427,2.974664,-0.215427,-89.999855,-90.0,4.298488,36.776993,14.902033,288.176788,281.34964,-0.443264,-0.416604,7.294663,0.002311,0.059958,0.305974,0.0,1.0,2522.680176
72.088394,-95.976723,-94.783279,3.046396,0.024642,3.046396,0.024642,-89.999855,-90.0,4.372365,37.482334,16.185268,289.877899,280.732452,-0.308711,-0.076232,7.294663,0.003078,0.059493,0.263255,0.0,1.0,2529.492676
72.540512,-95.976723,-94.783279,3.015616,0.528473,3.015616,0.528473,-89.999855,-90.0,4.432475,37.955067,19.613623,291.066742,280.339111,-0.190393,0.137857,7.294663,-3.52E-4,0.060928,0.1782,0.0,1.0,2533.737793
73.188896,-95.976723,-94.783279,2.732355,1.694796,2.732355,1.694796,-89.999855,-90.0,4.551012,38.64521,28.241507,292.406097,279.817322,-0.037216,0.350693,7.294663,-0.00755,0.060312,0.118758,0.0,1.0,2539.536377
73.690765,-95.976723,-94.783279,2.512599,2.602503,2.512599,2.602503,-89.999855,-90.0,4.649294,39.138569,27.934683,292.855438,279.495697,0.080345,0.402675,7.294663,-0.024211,0.054647,0.05179,0.0,1.0,2543.568604
74.518486,-95.976723,-94.783279,2.452875,3.641537,2.452875,3.641537,-89.999855,-90.0,4.782692,39.849888,25.19685,292.594269,279.117493,0.184988,0.319869,7.294663,-0.037179,0.050252,0.029323,0.0,1.0,2549.568359
75.119858,-95.976723,-94.783279,2.56102,4.025762,2.56102,4.025762,-89.999855,-90.0,4.864909,40.325008,25.355787,291.915253,278.917999,0.218374,0.186112,7.294663,-0.052022,0.049057,0.042381,0.0,1.0,2553.820313
76.00354,-95.976723,-94.783279,2.739942,3.781756,2.739942,3.781756,-89.999855,-90.0,5.015738,41.019711,37.823425,290.586426,278.687714,0.205496,-0.053848,7.294663,-0.057511,0.05122,0.076332,0.0,1.0,2560.353027
76.586861,-95.976723,-94.783279,2.812184,3.04681,2.812184,3.04681,-89.999855,-90.0,5.160523,41.497501,48.730717,289.728821,278.561249,0.167603,-0.200622,7.294663,-0.054025,0.054799,0.142773,0.0,1.0,2564.958252
77.460945,-95.976723,-94.783279,2.840194,1.367617,2.840194,1.367617,-89.999855,-90.0,5.453764,42.236298,64.746429,289.032196,278.402954,0.083256,-0.309873,7.294663,-0.043526,0.056244,0.185654,0.0,1.0,2572.116455
78.013359,-95.976723,-94.783279,2.880365,0.241585,2.880365,0.241585,-89.999855,-90.0,5.688223,42.716663,75.807365,289.124298,278.321686,0.046238,-0.286438,7.294663,-0.019537,0.056804,0.220485,0.0,1.0,2576.763428
78.782608,-95.976723,-94.783279,3.062829,-0.864434,3.062829,-0.864434,-89.999855,-90.0,6.122259,43.438023,98.865791,290.009827,278.235718,0.031025,-0.12639,7.294663,-0.003451,0.057607,0.21588,0.0,1.0,2583.653076
79.218811,-95.976723,-94.783279,3.269965,-1.064535,3.269965,-1.064535,-89.999855,-90.0,6.488634,43.91872,121.107681,290.902863,278.207581,0.053957,0.025166,7.294663,0.012349,0.061257,0.171603,0.0,1.0,2588.060791
79.757347,-95.976723,-94.783279,3.567338,-0.4612,3.567338,-0.4612,-89.999855,-90.0,7.199884,44.638004,163.352615,292.160065,278.217682,0.124973,0.228438,7.294663,0.015208,0.065399,0.126952,0.0,1.0,2594.141602
80.074432,-95.976723,-94.783279,3.714208,0.35103,3.714208,0.35103,-89.999855,-90.0,7.796343,45.115574,193.367279,292.693054,278.261414,0.179333,0.306778,7.294663,0.006589,0.071347,0.064092,0.0,1.0,2597.463135
80.563484,-95.976723,-94.783279,3.796339,1.666411,3.796339,1.666411,-89.999855,-90.0,8.871143,45.828148,233.762695,292.739655,278.379181,0.244199,0.292756,7.294663,-0.005015,0.074284,0.037442,0.0,1.0,2601.481934
80.90683,-95.976723,-94.783279,3.827424,2.316583,3.827424,2.316583,-89.999855,-90.0,9.686837,46.300545,253.966446,292.293365,278.486359,0.258814,0.20494,7.294663,-0.023806,0.075927,0.035112,0.0,1.0,2603.759277
81.416245,-95.976723,-94.783279,3.904167,2.519909,3.904167,2.519909,-89.999855,-90.0,11.016564,47.00539,276.023682,291.230957,278.67392,0.231483,0.013074,7.294663,-0.033094,0.076548,0.057427,0.0,1.0,2606.820068
81.737366,-95.976723,-94.783279,3.971251,2.126234,3.971251,2.126234,-89.999855,-90.0,11.957438,47.47298,287.883789,290.519135,278.806183,0.186797,-0.109488,7.294663,-0.035999,0.078083,0.110547,0.0,1.0,2608.696533
82.19342,-95.976723,-94.783279,4.042857,0.98024,4.042857,0.98024,-89.999855,-90.0,13.439506,48.170914,304.234131,289.924286,278.999847,0.106497,-0.206231,7.294663,-0.030375,0.079425,0.146138,0.0,1.0,2611.335449
82.481773,-95.976723,-94.783279,4.090731,0.134054,4.090731,0.134054,-89.999855,-90.0,14.472804,48.633671,315.778564,289.976257,279.121063,0.06589,-0.193335,7.294663,-0.014003,0.080857,0.17588,0.0,1.0,2613.006836
82.858498,-95.976723,-94.783279,4.226617,-0.708864,4.226617,-0.708864,-89.999855,-90.0,16.108488,49.323204,339.22522,290.693878,279.291107,0.044558,-0.067498,7.294663,-0.001915,0.081815,0.173282,0.0,1.0,2615.398926
83.042969,-95.976723,-94.783279,4.387455,-0.832228,4.387455,-0.832228,-89.999855,-90.0,17.275066,49.779152,360.842499,291.424225,279.399933,0.062592,0.053916,7.294663,0.010127,0.084532,0.137401,0.0,1.0,2616.895996
83.219437,-95.976723,-94.783279,4.639364,-0.272233,4.639364,-0.272233,-89.999855,-90.0,19.177147,50.456192,399.007324,292.417725,279.5625,0.124363,0.211139,7.294663,0.011889,0.087749,0.100883,0.0,1.0,2618.950684
83.303154,-95.976723,-94.783279,4.762352,0.420496,4.762352,0.420496,-89.999855,-90.0,20.550158,50.902378,423.566467,292.793915,279.672028,0.171211,0.263675,7.294663,0.003889,0.092787,0.051208,0.0,1.0,2620.198975
83.444466,-95.976723,-94.783279,4.803578,1.462378,4.803578,1.462378,-89.999855,-90.0,22.747406,51.563522,452.740906,292.702606,279.835571,0.223228,0.229257,7.294663,-0.006007,0.095247,0.032399,0.0,1.0,2621.962646
83.556999,-95.976723,-94.783279,4.800974,1.911448,4.800974,1.911448,-89.999855,-90.0,24.280674,51.999043,465.930847,292.255859,279.939911,0.229555,0.143701,7.294663,-0.020891,0.096072,0.036964,0.0,1.0,2623.117188
83.729126,-95.976723,-94.783279,4.828048,1.893334,4.828048,1.893334,-89.999855,-90.0,26.646914,52.645103,479.387512,291.343994,280.078339,0.194541,-0.019622,7.294663,-0.027306,0.096019,0.059302,0.0,1.0,2624.855469
83.83757,-95.976723,-94.783279,4.862485,1.459631,4.862485,1.459631,-89.999855,-90.0,28.258348,53.071339,487.196045,290.808533,280.151611,0.150597,-0.111306,7.294663,-0.027048,0.096561,0.104895,0.0,1.0,2626.017578
83.990608,-95.976723,-94.783279,4.909886,0.459629,4.909886,0.459629,-89.999855,-90.0,30.72653,53.704144,500.073486,290.496735,280.224457,0.080756,-0.160608,7.294663,-0.020852,0.09725,0.131668,0.0,1.0,2627.759277
84.078377,-95.976723,-94.783279,4.95868,-0.187286,4.95868,-0.187286,-89.999855,-90.0,32.410557,54.121521,510.21048,290.687408,280.247223,0.051846,-0.126078,7.294663,-0.006566,0.098198,0.147258,0.0,1.0,2628.914551
84.153862,-95.976723,-94.783279,5.088865,-0.673715,5.088865,-0.673715,-89.999855,-90.0,35.008614,54.740223,529.415649,291.437164,280.247528,0.049087,0.001342,7.294663,0.002676,0.099174,0.137724,0.0,1.0,2630.605225
84.145615,-95.976723,-94.783279,5.21126,-0.591362,5.21126,-0.591362,-89.999855,-90.0,36.801289,55.147297,546.148315,292.056274,280.230225,0.074926,0.102018,7.294663,0.009624,0.101777,0.100237,0.0,1.0,2631.669922
84.078514,-95.976723,-94.783279,5.359618,0.088891,5.359618,0.088891,-89.999855,-90.0,39.607613,55.749031,576.01947,292.734192,280.18634,0.136135,0.204867,7.294663,0.008448,0.104225,0.069281,0.0,1.0,2633.143066
84.024323,-95.976723,-94.783279,5.426218,0.706276,5.426218,0.706276,-89.999855,-90.0,41.562679,56.144016,596.109192,292.865692,280.147858,0.173094,0.217274,7.294663,-0.00127,0.107192,0.035385,0.0,1.0,2634.057861
83.962112,-95.976723,-94.783279,5.47011,1.423766,5.47011,1.423766,-89.999855,-90.0,44.611816,56.727356,621.48584,292.511353,280.075714,0.201006,0.142653,7.294663,-0.01009,0.108524,0.02881,0.0,1.0,2635.390137
83.930214,-95.976723,-94.783279,5.495906,1.592887,5.495906,1.592887,-89.999855,-90.0,46.706272,57.110497,634.256348,292.019257,280.014984,0.19151,0.053038,7.294663,-0.02034,0.109402,0.046527,0.0,1.0,2636.281006
83.928482,-95.976723,-94.783279,5.538794,1.256586,5.538794,1.256586,-89.999855,-90.0,49.828522,57.661633,649.429993,291.289398,279.901276,0.149139,-0.074245,7.294663,-0.022756,0.109918,0.071132,0.0,1.0,2637.599121
83.842377,-95.976723,-94.783279,5.573009,0.714446,5.573009,0.714446,-89.999855,-90.0,52.101448,58.050049,659.425293,290.965149,279.798126,0.101357,-0.128205,7.294663,-0.017951,0.110776,0.107625,0.0,1.0,2638.549561
83.771889,-95.976723,-94.783279,5.634122,-0.137336,5.634122,-0.137336,-89.999855,-90.0,55.437126,58.601727,674.704468,291.017792,279.616089,0.051252,-0.115458,7.294663,-0.010206,0.11146,0.123837,0.0,1.0,2639.927246
83.698112,-95.976723,-94.783279,5.706412,-0.536437,5.706412,-0.536437,-89.999855,-90.0,57.706211,58.964287,686.615601,291.372864,279.475403,0.041089,-0.054398,7.294663,0.001962,0.112682,0.121205,0.0,1.0,2640.837402
83.517944,-95.976723,-94.783279,5.852715,-0.584175,5.852715,-0.584175,-89.999855,-90.0,61.194263,59.499638,708.892883,292.123444,279.244202,0.063609,0.070237,7.294663,0.007663,0.114128,0.103452,0.0,1.0,2642.143066
83.352989,-95.976723,-94.783279,5.958694,-0.274464,5.958694,-0.274464,-89.999855,-90.0,63.587601,59.85046,726.811279,292.575226,279.082306,0.096498,0.141508,7.294663,0.008345,0.117054,0.065923,0.0,1.0,2642.949951
83.079636,-95.976723,-94.783279,6.056547,0.474734,6.056547,0.474734,-89.999855,-90.0,67.293999,60.367119,754.548523,292.856323,278.835205,0.150015,0.17764,7.294663,0.003921,0.119174,0.043333,0.0,1.0,2644.066162
82.901413,-95.976723,-94.783279,6.095168,0.950144,6.095168,0.950144,-89.999855,-90.0,69.837654,60.705204,770.652405,292.722809,278.669342,0.171196,0.147597,7.294663,-0.006782,0.121131,0.029279,0.0,1.0,2644.774414
84.207321,-83.709389,-82.515945,6.127643,1.259678,6.127643,1.259678,-89.999855,-90.0,73.742073,61.203285,789.411011,292.158997,278.417419,0.16909,0.043399,1144.994995,-0.013573,0.121903,0.035954,0.0,1.0,2645.828613
85.483589,-73.20623,-72.012787,6.14989,1.138298,6.14989,1.138298,-79.999855,-80.0,76.390007,61.529724,798.705872,291.70285,278.244781,0.144541,-0.036013,1466.935547,-0.017995,0.122553,0.064145,0.0,1.0,2646.540283
87.011551,-60.061779,-58.868336,6.181982,0.536685,6.181982,0.536685,-59.999859,-60.0,80.414703,62.011482,810.60968,291.250702,277.974548,0.090144,-0.111242,1697.905029,-0.016261,0.122998,0.086952,0.0,1.0,2647.624268
87.828552,-52.668842,-51.475399,6.212121,0.032145,6.212121,0.032145,-49.999859,-50.0,83.130211,62.327515,818.470154,291.221191,277.786224,0.059038,-0.11405,1768.101685,-0.007667,0.12364,0.10956,0.0,1.0,2648.355957
88.806625,-43.140205,-41.946762,6.288723,-0.50264,6.288723,-0.50264,-39.999859,-40.0,87.256355,62.793659,832.114258,291.606903,277.49527,0.038587,-0.045822,1801.827759,-4.59E-4,0.124242,0.111035,0.0,1.0,2649.449219
89.311531,-37.603264,-36.409817,6.369269,-0.587828,6.369269,-0.587828,-39.999859,-40.0,90.049294,63.098858,843.596008,292.040924,277.300049,0.049031,0.026828,1792.688599,0.007181,0.125774,0.09175,0.0,1.0,2650.152344
89.891785,-30.217234,-29.023788,6.487264,-0.233345,6.487264,-0.233345,-29.999857,-30.0,94.319496,63.547741,864.387512,292.629211,277.014313,0.090946,0.121033,1748.622681,0.008398,0.127385,0.070049,0.0,1.0,2651.130859
90.196655,-25.766489,-24.573046,6.550625,0.199585,6.550625,0.199585,-29.999857,-30.0,97.226318,63.840824,879.182861,292.828918,276.832672,0.12276,0.149136,1705.763794,0.003333,0.129745,0.040634,0.0,1.0,2651.729004
90.589272,-19.613514,-18.420069,6.591486,0.811649,6.591486,0.811649,-19.999857,-20.0,101.674957,64.271233,898.760925,292.699158,276.576721,0.155586,0.117543,1629.644653,-0.002851,0.131012,0.030649,0.0,1.0,2652.57666
90.825424,-15.775489,-14.582045,6.605245,1.033497,6.605245,1.033497,-19.999857,-20.0,104.688156,64.552307,908.374084,292.37674,276.416534,0.156185,0.058487,1574.691895,-0.011595,0.13183,0.037137,0.0,1.0,2653.125977
91.149452,-10.308345,-9.114901,6.619837,0.902024,6.619837,0.902024,-9.999858,-10.0,109.258286,64.965805,918.694824,291.799194,276.187927,0.126455,-0.042263,1490.563477,-0.014764,0.132105,0.053258,0.0,1.0,2653.939697
91.348389,-6.810648,-5.617204,6.630875,0.56473,6.630875,0.56473,-9.999858,-10.0,112.329987,65.236404,924.024658,291.512726,276.040741,0.09509,-0.089959,1435.366699,-0.012886,0.132397,0.082135,0.0,1.0,2654.484619
91.622276,-1.725152,-0.531707,6.658303,-0.068142,6.658303,-0.068142,1.42E-4,0.0,116.969749,65.634933,931.763489,291.455353,275.825592,0.051754,-0.09606,1356.502441,-0.008068,0.132618,0.096458,0.0,1.0,2655.309326
91.780525,1.721213,2.914657,6.698077,-0.401573,6.698077,-0.401573,1.42E-4,0.0,120.086014,65.895668,937.980042,291.674347,275.687012,0.039487,-0.057396,1307.674927,9.73E-4,0.133166,0.099327,0.0,1.0,2655.856689
91.964874,6.842383,8.035828,6.787466,-0.504397,6.787466,-0.504397,10.000142,10.0,124.806343,66.278923,950.480164,292.21759,275.491547,0.05164,0.034436,1241.487305,0.005737,0.133962,0.088377,0.0,1.0,2656.643311
92.052956,10.21766,11.411104,6.856385,-0.305917,6.856385,-0.305917,10.000142,10.0,127.992569,66.528915,961.148315,292.572968,275.37326,0.076192,0.091734,1202.660278,0.007206,0.135749,0.061215,0.0,1.0,2657.125244
92.160606,15.251645,16.445089,6.922105,0.245685,6.922105,0.245685,10.000142,10.0,132.842316,66.895332,978.043091,292.825012,275.21875,0.119757,0.127137,1152.996704,0.00437,0.137128,0.043446,0.0,1.0,2657.779053
92.233398,18.602219,19.795662,6.945661,0.617156,6.945661,0.617156,20.000143,20.0,136.119781,67.133942,987.814758,292.74765,275.131897,0.138713,0.109087,1125.689575,-0.00351,0.138442,0.030844,0.0,1.0,2658.18457
92.35685,23.636219,24.829662,6.954241,0.882468,6.954241,0.882468,20.000143,20.0,141.088593,67.48381,998.497742,292.3349,275.02356,0.140575,0.033268,1093.00708,-0.008817,0.138913,0.034712,0.0,1.0,2658.782227
92.447731,27.002769,28.196215,6.955553,0.809207,6.955553,0.809207,30.000143,30.0,144.425079,67.712082,1002.959656,291.985382,274.963013,0.122624,-0.027188,1076.199951,-0.012607,0.139085,0.05535,0.0,1.0,2659.187744
92.591377,32.071499,33.264942,6.958931,0.366278,6.958931,0.366278,30.000143,30.0,149.452942,68.047546,1007.863647,291.629852,274.884277,0.080314,-0.085886,1057.249023,-0.01156,0.139111,0.072826,0.0,1.0,2659.815186
92.687828,35.463505,36.656948,6.969127,-0.014171,6.969127,-0.014171,40.000141,40.0,152.817978,68.266708,1011.087341,291.601166,274.837891,0.055592,-0.088737,1048.064209,-0.005233,0.139179,0.090602,0.0,1.0,2660.245605
92.816879,40.571148,41.764591,7.01198,-0.416189,7.01198,-0.416189,40.000141,40.0,157.889008,68.588661,1017.619507,291.892761,274.777435,0.039228,-0.036604,1038.384766,2.02E-4,0.139383,0.092036,0.0,1.0,2660.894043
92.881409,43.989323,45.18277,7.061694,-0.474321,7.061694,-0.474321,40.000141,40.0,161.291641,68.798569,1024.020874,292.223633,274.745056,0.047736,0.01912,1034.124756,0.005946,0.14024,0.077457,0.0,1.0,2661.311279
92.946426,49.144272,50.337715,7.135593,-0.190535,7.135593,-0.190535,50.000141,50.0,166.442474,69.105957,1036.332153,292.664551,274.712433,0.081503,0.090186,1030.710815,0.006776,0.141234,0.060913,0.0,1.0,2661.885986
92.980103,52.601585,53.795033,7.174313,0.144918,7.174313,0.144918,50.000141,50.0,169.912292,69.305763,1045.243286,292.803802,274.702942,0.106745,0.109817,1030.126221,0.002722,0.142712,0.038867,0.0,1.0,2662.232178
93.039604,57.824196,59.017639,7.19359,0.602568,7.19359,0.602568,60.000141,60.0,175.169647,69.597893,1056.671021,292.678101,274.70697,0.131775,0.081911,1031.475586,-0.00207,0.143486,0.031905,0.0,1.0,2662.717529
93.090729,61.331871,62.525314,7.194586,0.753771,7.194586,0.753771,60.000141,60.0,178.701172,69.787865,1061.73999,292.417084,274.719818,0.130975,0.034884,1033.61499,-0.008608,0.143872,0.03819,0.0,1.0,2663.035889
93.181686,66.630699,67.824142,7.18972,0.617374,7.18972,0.617374,70.000145,70.0,184.023132,70.0662,1066.427002,291.974304,274.748657,0.105614,-0.041458,1038.129517,-0.010768,0.143892,0.051241,0.0,1.0,2663.525635
93.24958,70.185661,71.379105,7.187039,0.341262,7.187039,0.341262,70.000145,70.0,187.581497,70.247635,1068.428467,291.77124,274.770905,0.08054,-0.074742,1041.678589,-0.00882,0.143794,0.07338,0.0,1.0,2663.864746
93.353439,75.546837,76.74028,7.197688,-0.140939,7.197688,-0.140939,80.000145,80.0,192.93129,70.513794,1071.590698,291.767792,274.805206,0.047944,-0.072077,1047.347168,-0.004875,0.143741,0.083533,0.0,1.0,2664.390625
93.439232,80.93734,82.130791,7.240041,-0.427447,7.240041,-0.427447,80.000145,80.0,198.30188,70.772636,1077.005005,292.096893,274.840393,0.041604,-0.014719,1053.06543,0.002013,0.143954,0.083705,0.0,1.0,2664.91748
93.477638,84.548141,85.741585,7.280941,-0.39692,7.280941,-0.39692,80.000145,80.0,201.901093,70.940933,1082.514282,292.390472,274.865936,0.054063,0.034485,1056.937378,0.005334,0.144449,0.074019,0.0,1.0,2665.251221
93.512001,89.991013,91.184456,7.340362,-0.072102,7.340362,-0.072102,90.000145,90.0,207.340057,71.186668,1093.076782,292.733429,274.91037,0.086774,0.088747,1062.875488,0.00567,0.145619,0.052571,0.0,1.0,2665.705322
93.531654,93.638618,94.832062,7.359978,0.232312,7.359978,0.232312,90.000145,90.0,210.99614,71.345963,1100.094849,292.788116,274.944916,0.108907,0.094216,1066.970337,0.002997,0.146482,0.039722,0.0,1.0,2665.979248
93.573418,99.145218,100.338661,7.368906,0.59068,7.368906,0.59068,100.000145,100.0,216.518799,71.578323,1108.190186,292.588104,275.00293,0.123866,0.055454,1073.604614,-0.003319,0.1472,0.032689,0.0,1.0,2666.369629
93.61203,102.838417,104.031868,7.364199,0.645832,7.364199,0.645832,100.000145,100.0,220.218979,71.729126,1111.484619,292.332733,275.043457,0.118125,0.010139,1078.214722,-0.007169,0.147376,0.037717,0.0,1.0,2666.630615
93.683678,108.408432,109.601883,7.354945,0.436232,7.354945,0.436232,110.000145,110.0,225.783508,71.949684,1113.911987,291.958984,275.101776,0.09051,-0.053048,1085.18335,-0.009226,0.147284,0.055458,0.0,1.0,2667.038086
93.727852,112.139099,113.332542,7.352972,0.15984,7.352972,0.15984,110.000145,110.0,229.49826,72.093178,1114.877319,291.838959,275.136414,0.067091,-0.071734,1089.708374,-0.007754,0.147153,0.068778,0.0,1.0,2667.320313
93.777046,117.755211,118.948654,7.366482,-0.249299,7.366482,-0.249299,120.000145,120.0,235.076904,72.303192,1116.737427,291.930237,275.179932,0.043721,-0.053643,1096.060059,-0.002283,0.147059,0.080147,0.0,1.0,2667.730469
93.800011,121.512527,122.705971,7.390867,-0.388729,7.390867,-0.388729,120.000145,120.0,238.803146,72.439659,1119.098877,292.145386,275.203857,0.041754,-0.016138,1100.059204,0.001871,0.147179,0.07892,0.0,1.0,2667.989258
93.810188,127.165962,128.359406,7.441764,-0.318473,7.441764,-0.318473,130.000137,130.0,244.412842,72.638756,1125.058838,292.539459,275.235016,0.060356,0.049206,1105.669556,0.005553,0.147817,0.064825,0.0,1.0,2668.337891
93.806503,130.946213,132.139648,7.468643,-0.101874,7.468643,-0.101874,130.000137,130.0,248.171631,72.767624,1130.011841,292.724365,275.254578,0.08146,0.07791,1109.183105,0.005461,0.148502,0.051402,0.0,1.0,2668.537842
93.798538,136.640366,137.833817,7.489354,0.297361,7.489354,0.297361,140.000137,140.0,253.840164,72.955109,1136.963135,292.765015,275.283813,0.108061,0.079801,1114.558228,0.001455,0.149373,0.035877,0.0,1.0,2668.798828
93.802414,140.451691,141.645126,7.485775,0.484699,7.485775,0.484699,140.000137,140.0,257.635895,73.076378,1140.054932,292.623047,275.302795,0.115472,0.052549,1118.15918,-0.002428,0.149729,0.032713,0.0,1.0,2668.960449
93.824493,146.190475,147.383926,7.470485,0.520822,7.470485,0.520822,150.000137,150.0,263.341614,73.253166,1141.665894,292.274292,275.327728,0.104558,-0.008829,1123.526245,-0.006924,0.149715,0.040942,0.0,1.0,2669.20752
93.848206,150.028717,151.222168,7.459517,0.361496,7.459517,0.361496,150.000137,150.0,267.146881,73.367889,1141.39502,292.06662,275.339722,0.085924,-0.04391,1126.975098,-0.007838,0.149522,0.052316,0.0,1.0,2669.383057
93.891663,155.799835,156.993271,7.449137,-0.019463,7.449137,-0.019463,160.000137,160.0,272.851318,73.535591,1140.412598,291.940521,275.347992,0.056395,-0.063409,1131.758789,-0.005164,0.14919,0.068764,0.0,1.0,2669.666016
93.919411,159.653854,160.84729,7.454482,-0.251722,7.454482,-0.251722,160.000137,160.0,276.652252,73.644508,1140.295776,292.023468,275.34668,0.043417,-0.047772,1134.613159,-0.001623,0.149013,0.074605,0.0,1.0,2669.864502
93.945404,165.441055,166.634506,7.483085,-0.409066,7.483085,-0.409066,160.000137,160.0,282.357422,73.803398,1142.171387,292.329132,275.336456,0.044506,0.004522,1138.327026,0.003596,0.14909,0.070921,0.0,1.0,2670.159424
93.949203,169.305084,170.498535,7.50896,-0.332953,7.50896,-0.332953,170.000137,170.0,286.169189,73.906204,1144.919312,292.556061,275.326294,0.057876,0.041916,1140.592651,0.005612,0.149426,0.06143,0.0,1.0,2670.341797
93.942207,175.110519,176.30397,7.540644,-0.029996,7.540644,-0.029996,170.000137,170.0,291.907593,74.055527,1150.423218,292.771393,275.309357,0.085097,0.074735,1143.776123,0.004756,0.150179,0.044292,0.0,1.0,2670.583252
93.938728,178.665359,179.85881,7.54548,0.184617,7.54548,0.184617,180.000137,180.0,295.427917,74.143913,1153.485962,292.768402,275.298981,0.098512,0.071347,1145.697266,0.002102,0.150664,0.035751,0.0,1.0,2670.715576
93.945587,184.819046,186.012482,7.536786,0.424341,7.536786,0.424341,180.000137,180.0,301.525055,74.291733,1156.422607,292.54184,275.280731,0.106427,0.029296,1149.031372,-0.002637,0.15091,0.033675,0.0,1.0,2670.937012
93.959801,188.715424,189.908875,7.524806,0.410381,7.524806,0.410381,190.000137,190.0,305.380554,74.382195,1156.663696,292.328613,275.267609,0.097409,-0.007896,1151.185059,-0.005423,0.150828,0.040263,0.0,1.0,2671.082764
93.993088,194.570206,195.763641,7.506435,0.172196,7.506435,0.172196,190.000137,190.0,311.161224,74.514076,1155.425537,292.069214,275.242737,0.072051,-0.051082,1154.272217,-0.005863,0.150496,0.055664,0.0,1.0,2671.321045
94.019264,198.47673,199.670166,7.50176,-0.0614,7.50176,-0.0614,200.000137,200.0,315.010712,74.599594,1154.369019,292.022705,275.22168,0.054189,-0.057434,1156.082275,-0.003933,0.150231,0.065311,0.0,1.0,2671.493652
94.053909,204.342316,205.535751,7.511692,-0.350176,7.511692,-0.350176,200.000137,200.0,320.780731,74.724297,1153.955811,292.167297,275.183685,0.040797,-0.031097,1158.544434,8.77E-4,0.150035,0.07096,0.0,1.0,2671.765137
94.066994,208.254242,209.447678,7.530583,-0.408255,7.530583,-0.408255,210.000137,210.0,324.628723,74.804939,1154.990723,292.36087,275.155548,0.043846,0.002132,1159.939331,0.003939,0.150113,0.067416,0.0,1.0,2671.943848
94.068352,214.123993,215.317444,7.564877,-0.272732,7.564877,-0.272732,210.000137,210.0,330.41217,74.921928,1158.644897,292.653534,275.11261,0.063354,0.050038,1161.719482,0.005832,0.150612,0.054051,0.0,1.0,2672.190186
94.062515,218.041931,219.235382,7.5783,-0.073468,7.5783,-0.073468,220.000137,220.0,334.279755,74.9972,1161.738281,292.755554,275.085358,0.08061,0.065062,1162.92334,0.004951,0.151091,0.043701,0.0,1.0,2672.335693
94.058098,223.9272,225.120651,7.581563,0.228646,7.581563,0.228646,220.000137,220.0,340.098816,75.106079,1165.501831,292.705688,275.048065,0.098074,0.053043,1164.799316,0.00105,0.151566,0.034317,0.0,1.0,2672.534912
94.063828,227.691345,228.884781,7.573181,0.331014,7.573181,0.331014,230.000137,230.0,343.824219,75.173264,1166.66687,292.561493,275.026154,0.099918,0.026766,1165.969238,-0.002008,0.151664,0.034601,0.0,1.0,2672.659912
94.082672,233.760254,234.953705,7.553974,0.279451,7.553974,0.279451,230.000137,230.0,349.819763,75.277847,1166.388184,292.267792,274.991913,0.085518,-0.023713,1168.160156,-0.004729,0.151464,0.04402,0.0,1.0,2672.872803
94.102638,237.700851,238.894287,7.543651,0.114825,7.543651,0.114825,240.000137,240.0,353.706146,75.343575,1165.454224,292.131561,274.968903,0.069086,-0.045946,1169.498657,-0.004683,0.151202,0.054112,0.0,1.0,2673.023193
94.132576,243.285477,244.478928,7.537085,-0.177869,7.537085,-0.177869,240.000137,240.0,359.206482,75.434013,1164.216675,292.098328,274.934082,0.049681,-0.049585,1171.148315,-0.00164,0.150873,0.065517,0.0,1.0,2673.252686
94.154289,247.557327,248.750763,7.544079,-0.352628,7.544079,-0.352628,250.000137,250.0,363.410034,75.50103,1164.063232,292.2099,274.906036,0.041765,-0.029455,1172.238647,0.002541,0.150742,0.067178,0.0,1.0,2673.435547
94.165329,253.308823,254.502274,7.570032,-0.420312,7.570032,-0.420312,250.000137,250.0,369.071869,75.588112,1165.697632,292.512787,274.868652,0.038251,0.022436,1173.477173,0.001679,0.150882,0.1,0.0,1.0,2673.675293
94.153732,257.419342,258.612762,7.598156,-0.335196,7.598156,-0.335196,260.000153,260.0,373.123718,75.647896,1168.27124,292.835938,274.844513,0.05052,0.074459,1174.314087,0.002001,0.151401,0.1,0.0,1.0,2673.827637
94.110756,263.34317,264.536621,7.636525,0.033295,7.636525,0.033295,260.000153,260.0,378.978271,75.73011,1173.636475,293.305939,274.818329,0.083628,0.145352,1175.529663,0.001596,0.151963,0.1,0.0,1.0,2673.997314
94.070457,267.299072,268.492523,7.655653,0.406949,7.655653,0.406949,270.000153,270.0,382.89743,75.782242,1177.731079,293.546326,274.809113,0.10945,0.177785,1176.527222,-1.59E-4,0.15273,0.1,0.0,1.0,2674.074219
94.009346,273.244995,274.438416,7.661329,1.033421,7.661329,1.033421,270.000153,270.0,388.800629,75.856407,1183.056885,293.735931,274.810364,0.142936,0.195163,1178.338257,-0.001938,0.153113,0.1,0.0,1.0,2674.146973
93.549454,273.244995,274.438416,7.656667,1.429284,7.656667,1.429284,270.000153,270.0,392.74826,75.903282,1185.253296,293.753906,274.821686,0.157178,0.187937,963.374084,-0.004921,0.153227,0.1,0.0,1.0,2674.179688
92.810684,273.244995,274.438416,7.645172,1.88495,7.645172,1.88495,270.000153,270.0,398.67865,75.970123,1186.453003,293.680389,274.853485,0.163952,0.160161,640.452698,-0.006806,0.153133,0.1,0.0,1.0,2674.226563
92.322128,273.244995,274.438416,7.636199,2.082404,7.636199,2.082404,270.000153,270.0,402.632965,76.012642,1186.011597,293.614899,274.883392,0.160033,0.139313,424.55127,-0.008976,0.152903,0.1,0.0,1.0,2674.264404
91.592369,273.244995,274.438416,7.623819,2.225958,7.623819,2.225958,270.000153,270.0,408.558746,76.073753,1184.185425,293.570862,274.93927,0.147086,0.11733,96.859764,-0.009916,0.152724,0.1,0.0,1.0,2674.337646
91.105583,273.244995,274.438416,7.615077,2.256411,7.615077,2.256411,270.000153,270.0,412.503326,76.112907,1182.601685,293.606964,274.983002,0.137615,0.113463,18.075533,-0.0106,0.152476,0.1,0.0,1.0,2674.397217
90.370399,273.244995,274.438416,7.605522,2.271565,7.605522,2.271565,270.000153,270.0,418.410339,76.169456,1180.347656,293.771301,275.058014,0.127548,0.12486,18.075533,-0.010745,0.152302,0.1,0.0,1.0,2674.497559
89.87439,273.244995,274.438416,7.601195,2.298132,7.601195,2.298132,270.000153,270.0,422.342834,76.20575,1179.254395,293.941254,275.114746,0.125333,0.141271,18.075533,-0.010817,0.15211,0.1,0.0,1.0,2674.567383
89.118988,273.244995,274.438416,7.599253,2.399468,7.599253,2.399468,270.000153,270.0,428.236603,76.258057,1178.453247,294.243805,275.211304,0.128856,0.17143,18.075533,-0.010943,0.152024,0.1,0.0,1.0,2674.667969
88.60788,273.244995,274.438416,7.598982,2.512387,7.598982,2.512387,270.000153,270.0,432.164703,76.291504,1178.443359,294.449585,275.284271,0.134478,0.190565,18.075533,-0.011426,0.151985,0.1,0.0,1.0,2674.72876
87.832428,273.244995,274.438416,7.597859,2.728412,7.597859,2.728412,270.000153,270.0,438.057709,76.339539,1178.782227,294.727875,275.407867,0.144583,0.211935,18.075533,-0.011964,0.15198,0.1,0.0,1.0,2674.809326
87.311646,273.244995,274.438416,7.595837,2.885865,7.595837,2.885865,270.000153,270.0,441.987366,76.370171,1178.971558,294.882935,275.500061,0.150505,0.219925,18.075533,-0.012992,0.151957,0.1,0.0,1.0,2674.857178
86.527634,273.244995,274.438416,7.590812,3.102271,7.590812,3.102271,270.000153,270.0,447.882172,76.414146,1178.840942,295.072388,275.653015,0.15603,0.223388,18.075533,-0.013742,0.151917,0.1,0.0,1.0,2674.925049
86.003983,273.244995,274.438416,7.586021,3.221407,7.586021,3.221407,270.000153,270.0,451.810913,76.442245,1178.362549,295.18042,275.764313,0.157008,0.222083,18.075533,-0.014773,0.151816,0.1,0.0,1.0,2674.970947
85.217209,273.244995,274.438416,7.578058,3.347451,7.578058,3.347451,270.000153,270.0,457.699738,76.482758,1177.104492,295.339386,275.944336,0.155098,0.218888,18.075533,-0.01534,0.15172,0.1,0.0,1.0,2675.044678
84.691307,273.244995,274.438416,7.571733,3.401778,7.571733,3.401778,270.000153,270.0,461.621552,76.508774,1175.996216,295.45636,276.072357,0.152483,0.218188,18.075533,-0.01594,0.151561,0.1,0.0,1.0,2675.098145
83.898735,273.244995,274.438416,7.562902,3.452199,7.562902,3.452199,270.000153,270.0,467.496887,76.546463,1174.181274,295.662476,276.275513,0.14839,0.221428,18.075533,-0.016199,0.151435,0.1,0.0,1.0,2675.185303
83.366852,273.244995,274.438416,7.556871,3.47807,7.556871,3.47807,270.000153,270.0,471.408783,76.570755,1173.011597,295.822083,276.417938,0.146437,0.226654,18.075533,-0.016439,0.151258,0.1,0.0,1.0,2675.246582
82.56234,273.244995,274.438416,7.549769,3.522017,7.549769,3.522017,270.000153,270.0,477.269775,76.606018,1171.49231,296.088409,276.641663,0.145482,0.237809,18.075533,-0.016562,0.151137,0.1,0.0,1.0,2675.341309
82.021057,273.244995,274.438416,7.54541,3.561499,7.54541,3.561499,270.000153,270.0,481.17334,76.628769,1170.689697,296.276489,276.797363,0.146166,0.246184,18.075533,-0.016772,0.150995,0.1,0.0,1.0,2675.404785
81.201675,273.244995,274.438416,7.540368,3.637133,7.540368,3.637133,270.000153,270.0,487.024231,76.661797,1169.74939,296.561066,277.040405,0.148563,0.257906,18.075533,-0.01696,0.150908,0.1,0.0,1.0,2675.498535
80.650818,273.244995,274.438416,7.537013,3.696132,7.537013,3.696132,270.000153,270.0,490.922546,76.683105,1169.243042,296.746155,277.208496,0.150509,0.264211,18.075533,-0.01732,0.150807,0.1,0.0,1.0,2675.560059
79.818329,273.244995,274.438416,7.532374,3.786408,7.532374,3.786408,270.000153,270.0,496.766876,76.714058,1168.511353,297.011902,277.469147,0.153058,0.270702,18.075533,-0.017601,0.15074,0.1,0.0,1.0,2675.651367
79.259605,273.244995,274.438416,7.528831,3.843131,7.528831,3.843131,270.000153,270.0,500.661011,76.73407,1167.976563,297.181427,277.648041,0.154128,0.273251,18.075533,-0.018031,0.150647,0.1,0.0,1.0,2675.712158
78.416245,273.244995,274.438416,7.523504,3.913913,7.523504,3.913913,270.000153,270.0,506.498566,76.763222,1167.036743,297.429352,277.923065,0.154596,0.275349,18.075533,-0.018301,0.150577,0.1,0.0,1.0,2675.804932
77.850456,273.244995,274.438416,7.519384,3.951028,7.519384,3.951028,270.000153,270.0,510.387482,76.782135,1166.315918,297.59436,278.11026,0.154249,0.27635,18.075533,-0.018638,0.15047,0.1,0.0,1.0,2675.868408
76.994446,273.244995,274.438416,7.513495,3.990934,7.513495,3.990934,270.000153,270.0,516.216003,76.809799,1165.087402,297.848145,278.39563,0.152688,0.278353,18.075533,-0.018814,0.150388,0.1,0.0,1.0,2675.966064
76.41925,273.244995,274.438416,7.509184,4.004638,7.509184,4.004638,270.000153,270.0,520.097961,76.827835,1164.104492,298.027222,278.588379,0.150427,0.28087,18.075533,-0.019004,0.15027,0.1,0.0,1.0,2676.031982
75.550652,273.244995,274.438416,7.502581,4.007169,7.502581,4.007169,270.000153,270.0,525.91449,76.854347,1162.556885,298.321167,278.880524,0.146845,0.287812,18.075533,-0.01907,0.150184,0.1,0.0,1.0,2676.132568
74.966713,273.244995,274.438416,7.497585,4.005256,7.497585,4.005256,270.000153,270.0,529.787964,76.871689,1161.556274,298.535095,279.076996,0.145153,0.294638,18.075533,-0.019082,0.150052,0.1,0.0,1.0,2676.201172
74.082016,273.244995,274.438416,7.491452,4.010823,7.491452,4.010823,270.000153,270.0,535.592224,76.897255,1160.235352,298.876984,279.374146,0.144334,0.307075,18.075533,-0.019073,0.149952,0.1,0.0,1.0,2676.304443
73.48587,273.244995,274.438416,7.487781,4.024951,7.487781,4.024951,270.000153,270.0,539.458435,76.914001,1159.532104,299.112488,279.573853,0.144919,0.315748,18.075533,-0.019099,0.149829,0.1,0.0,1.0,2676.372803
72.582016,273.244995,274.438416,7.483748,4.062646,7.483748,4.062646,270.000153,270.0,545.253906,76.938667,1158.717529,299.465607,279.875885,0.146929,0.327491,18.075533,-0.019166,0.149756,0.1,0.0,1.0,2676.473877
71.973312,273.244995,274.438416,7.481122,4.095988,7.481122,4.095988,270.000153,270.0,549.11554,76.954826,1158.2854,299.695801,280.078827,0.148533,0.333712,18.075533,-0.019346,0.149675,0.1,0.0,1.0,2676.540039
71.051598,273.244995,274.438416,7.477477,4.148983,7.477477,4.148983,270.000153,270.0,554.905334,76.978653,1157.658447,300.029358,280.385406,0.150571,0.340164,18.075533,-0.019505,0.149622,0.1,0.0,1.0,2676.638916
70.431648,273.244995,274.438416,7.474674,4.181887,7.474674,4.181887,270.000153,270.0,558.763428,76.994278,1157.196411,300.244476,280.590973,0.151374,0.34277,18.075533,-0.019757,0.14955,0.1,0.0,1.0,2676.704834
69.493698,273.244995,274.438416,7.470409,4.220359,7.470409,4.220359,270.000153,270.0,564.547363,77.017395,1156.383423,300.560913,280.900696,0.1516,0.345039,18.075533,-0.019914,0.149493,0.1,0.0,1.0,2676.80542
68.862907,273.244995,274.438416,7.467072,4.238058,7.467072,4.238058,270.000153,270.0,568.40094,77.032616,1155.762085,300.77121,281.107727,0.1512,0.346125,18.075533,-0.020097,0.149408,0.1,0.0,1.0,2676.874023
67.907845,273.244995,274.438416,7.46223,4.253375,7.46223,4.253375,270.000153,270.0,574.177185,77.055206,1154.754883,301.091156,281.418701,0.150171,0.348051,18.075533,-0.020181,0.149341,0.1,0.0,1.0,2676.97998
67.264832,273.244995,274.438416,7.458705,4.258847,7.458705,4.258847,270.000153,270.0,578.025208,77.070129,1154.072632,301.309326,281.626068,0.149461,0.349861,18.075533,-0.020254,0.149245,0.1,0.0,1.0,2677.05249
66.289871,273.244995,274.438416,7.4541,4.264646,7.4541,4.264646,270.000153,270.0,583.79303,77.092346,1153.089722,301.644653,281.93692,0.148722,0.353457,18.075533,-0.02028,0.149174,0.1,0.0,1.0,2677.164063
65.632492,273.244995,274.438416,7.45124,4.269552,7.45124,4.269552,270.000153,270.0,587.635559,77.107056,1152.461304,301.872528,282.143951,0.148559,0.356261,18.075533,-0.020308,0.149082,0.1,0.0,1.0,2677.239746
64.634346,273.244995,274.438416,7.448051,4.280894,7.448051,4.280894,270.000153,270.0,593.395691,77.128983,1151.636597,302.217712,282.454102,0.148793,0.360565,18.075533,-0.020331,0.149025,0.1,0.0,1.0,2677.354492
63.96059,273.244995,274.438416,7.445812,4.291397,7.445812,4.291397,270.000153,270.0,597.233643,77.143509,1151.168335,302.44812,282.660553,0.149173,0.363183,18.075533,-0.020385,0.148961,0.1,0.0,1.0,2677.431641
62.937096,273.244995,274.438416,7.442607,4.309923,7.442607,4.309923,270.000153,270.0,602.987793,77.165184,1150.52771,302.791595,282.969696,0.14985,0.366369,18.075533,-0.020435,0.148916,0.1,0.0,1.0,2677.547852
62.246063,273.244995,274.438416,7.440074,4.322907,7.440074,4.322907,270.000153,270.0,606.822266,77.179558,1150.150146,303.018524,283.175385,0.150235,0.367921,18.075533,-0.020523,0.148852,0.1,0.0,1.0,2677.625732
61.196312,273.244995,274.438416,7.436349,4.340511,7.436349,4.340511,270.000153,270.0,612.571533,77.201042,1149.575928,303.356079,283.483154,0.150575,0.369501,18.075533,-0.020585,0.148801,0.1,0.0,1.0,2677.743652
60.606045,273.244995,274.438416,7.434197,4.348779,7.434197,4.348779,270.000153,270.0,615.764343,77.212952,1149.247925,303.542694,283.653717,0.15062,0.370107,18.075533,-0.020669,0.148727,0.1,0.0,1.0,2677.809814
59.402847,273.244995,274.438416,7.430545,4.361965,7.430545,4.361965,270.000153,270.0,622.147034,77.23671,1148.552368,303.915222,283.993744,0.150671,0.371,18.075533,-0.020708,0.148684,0.1,0.0,1.0,2677.938477
58.674126,273.244995,274.438416,7.428102,4.367718,7.428102,4.367718,270.000153,270.0,625.974854,77.250946,1148.144897,304.139008,284.197052,0.150494,0.37147,18.075533,-0.020771,0.148611,0.1,0.0,1.0,2678.017822
57.565048,273.244995,274.438416,7.424896,4.373073,7.424896,4.373073,270.000153,270.0,631.71405,77.272308,1147.545898,304.476685,284.500885,0.150132,0.372344,18.075533,-0.020799,0.148562,0.1,0.0,1.0,2678.139648
56.814369,273.244995,274.438416,7.422678,4.375388,7.422678,4.375388,270.000153,270.0,635.538513,77.286552,1147.169678,304.703552,284.702698,0.149915,0.373106,18.075533,-0.020824,0.148498,0.1,0.0,1.0,2678.222412
55.670216,273.244995,274.438416,7.419815,4.378475,7.419815,4.378475,270.000153,270.0,641.27301,77.307953,1146.648438,305.046356,285.004395,0.149723,0.374497,18.075533,-0.020835,0.148454,0.1,0.0,1.0,2678.348389
54.894661,273.244995,274.438416,7.417881,4.381036,7.417881,4.381036,270.000153,270.0,645.094666,77.322235,1146.336914,305.276123,285.204834,0.149706,0.37551,18.075533,-0.02085,0.148396,0.1,0.0,1.0,2678.433594
53.710953,273.244995,274.438416,7.415449,4.386153,7.415449,4.386153,270.000153,270.0,650.825195,77.343712,1145.918945,305.62146,285.504639,0.149823,0.376985,18.075533,-0.020862,0.148358,0.1,0.0,1.0,2678.562256
52.907528,273.244995,274.438416,7.41381,4.390397,7.41381,4.390397,270.000153,270.0,654.644531,77.358063,1145.671631,305.851593,285.703979,0.149959,0.377844,18.075533,-0.020886,0.148309,0.1,0.0,1.0,2678.648682
51.679676,273.244995,274.438416,7.411689,4.39731,7.411689,4.39731,270.000153,270.0,660.372009,77.379013,1145.330078,306.195892,286.002289,0.150171,0.378856,18.075533,-0.020907,0.148276,0.1,0.0,1.0,2678.779297
60.679161,327.222534,328.415955,7.410205,4.401886,7.410205,4.401886,310.000153,310.0,664.189392,77.3918,1145.116455,306.424713,286.200745,0.150279,0.379337,2488.596191,-0.02094,0.148234,0.1,0.0,1.0,2678.866699
70.63121,391.617401,392.810852,7.408206,4.407835,7.408206,4.407835,370.000153,370.0,669.914185,77.411133,1144.803467,306.76712,286.497894,0.150355,0.379827,3530.513672,-0.020961,0.148204,0.1,0.0,1.0,2678.999023
75.260391,425.806488,426.999939,7.406776,4.411018,7.406776,4.411018,410.000153,410.0,673.729858,77.424141,1144.598267,306.995117,286.695709,0.150346,0.380056,3904.873047,-0.02099,0.148164,0.1,0.0,1.0,2679.087646
80.33062,467.059235,468.252655,7.404836,4.41443,7.404836,4.41443,460.000153,460.0,679.452026,77.443817,1144.294189,307.33728,286.992035,0.150268,0.380357,4232.387695,-0.021005,0.148136,0.1,0.0,1.0,2679.221924
82.830475,489.269989,490.46344,7.403456,4.416,7.403456,4.416,480.000153,480.0,683.266052,77.457062,1144.097656,307.565735,287.189423,0.150196,0.380575,4350.191406,-0.021021,0.148097,0.1,0.0,1.0,2679.311768
85.658844,516.514038,517.70752,7.401616,4.417683,7.401616,4.417683,510.000153,510.0,688.985779,77.477104,1143.81543,307.90918,287.485291,0.1501,0.380971,4427.267578,-0.021029,0.148069,0.1,0.0,1.0,2679.447754
87.085327,531.473755,532.667175,7.400333,4.418662,7.400333,4.418662,530.000122,530.0,692.798218,77.490601,1143.640381,308.138641,287.682495,0.15006,0.381275,4430.342773,-0.021037,0.148032,0.1,0.0,1.0,2679.538818
88.735161,550.233398,551.426819,7.398656,4.420249,7.398656,4.420249,550.000122,550.0,698.515747,77.511032,1143.403076,308.483307,287.978333,0.150039,0.381759,4383.119629,-0.021041,0.148007,0.1,0.0,1.0,2679.67627
89.553139,560.805298,561.998718,7.397498,4.421486,7.397498,4.421486,560.000122,560.0,702.326843,77.52478,1143.254639,308.713287,288.17569,0.150091,0.382073,4325.600098,-0.021049,0.147973,0.1,0.0,1.0,2679.768066
90.522942,574.434998,575.628479,7.395984,4.423675,7.395984,4.423675,570.000122,570.0,708.042603,77.545609,1143.050049,309.058136,288.471985,0.150141,0.382481,4210.62207,-0.021055,0.14795,0.1,0.0,1.0,2679.906494
91.017899,582.34729,583.540771,7.394926,4.425239,7.394926,4.425239,580.000122,580.0,711.852539,77.559624,1142.92688,309.287872,288.669739,0.150179,0.382693,4119.427246,-0.021065,0.14792,0.1,0.0,1.0,2679.999268
