airspeed_indicator_indicated_speed_kt,altimeter_indicated_altitude_ft,altimeter_pressure_alt_ft,attitude_indicator_indicated_pitch_deg,attitude_indicator_indicated_roll_deg,attitude_indicator_internal_pitch_deg,attitude_indicator_internal_roll_deg,encoder_indicated_altitude_ft,encoder_pressure_alt_ft,gps_indicated_altitude_ft,gps_indicated_ground_speed_kt,gps_indicated_vertical_speed,indicated_heading_deg,magnetic_compass_indicated_heading_deg,slip_skid_ball_indicated_slip_skid,turn_indicator_indicated_turn_rate,vertical_speed_indicator_indicated_speed_fpm,flight_aileron,flight_elevator,flight_rudder,flight_flaps,engine_throttle,engine_rpm
24.861032,-195.432968,-194.239517,3.045663,1.342106,2.697101,0.180234,-189.999863,-190.0,18.855307,1.35E-4,-0.001306,297.868439,15.591343,-0.046648,-0.052994,-1669.111084,-0.0,0.0,0.0,0.0,0.0,603.624756
24.876513,-200.819733,-199.626297,3.043137,1.335491,2.696541,0.18017,-199.999863,-200.0,18.855303,1.33E-4,-0.001407,297.867584,15.187956,-0.046633,-0.047943,-1669.468018,-0.0,0.0,0.0,0.0,0.0,603.576355
24.892384,-208.908081,-207.71463,2.853368,0.732426,2.687599,0.179862,-209.999863,-210.0,18.855255,1.54E-4,-0.018155,297.866272,14.577656,-0.046721,-0.041277,-1670.177856,-0.019078,0.053931,4.3E-5,0.0,1.0,676.976074
24.901049,-214.304642,-213.111191,2.724015,0.371647,2.666067,0.178485,-209.999863,-210.0,18.855165,2.59E-4,-0.036008,297.865265,14.172065,-0.04686,-0.037412,-1670.708862,-0.010463,0.053752,1.08E-4,0.0,1.0,790.479248
24.909204,-222.412781,-221.21933,2.60816,0.172869,2.60816,0.172869,-219.999863,-220.0,18.854958,7.83E-4,-0.022442,297.863464,13.573221,-0.049127,-0.032416,-1671.787476,-0.005309,0.053321,1.59E-4,0.0,1.0,1014.810303
24.919701,-227.813766,-226.620316,2.586778,0.166428,2.586778,0.166428,-219.999863,-220.0,18.854986,0.002248,0.040932,297.862183,13.184405,-0.048996,-0.029551,-1672.224731,-0.00247,0.052163,2.49E-4,0.0,1.0,1179.21875
24.940973,-235.918671,-234.72522,2.589048,0.153298,2.589048,0.153298,-229.999863,-230.0,18.855488,0.008494,0.158537,297.860107,12.623257,-0.043346,-0.025862,-1672.861084,-0.002378,0.051736,3.13E-4,0.0,1.0,1420.266235
24.961168,-241.323669,-240.130219,2.601287,0.143057,2.601287,0.143057,-239.999863,-240.0,18.856178,0.01694,0.253833,297.858643,12.267376,-0.042055,-0.023754,-1673.253906,-0.00219,0.051781,4.17E-4,0.0,1.0,1566.533936
25.005093,-249.433014,-248.239578,2.622872,0.126603,2.622872,0.126603,-249.999863,-250.0,18.857851,0.0388,0.41649,297.854797,11.766327,-0.032064,-0.02126,-1673.775879,-0.002044,0.052026,4.9E-4,0.0,1.0,1754.704102
25.046291,-254.840134,-253.646698,2.636282,0.115692,2.636282,0.115692,-249.999863,-250.0,18.85947,0.061005,0.545886,297.848541,11.456943,-0.023469,-0.02039,-1674.072144,-0.001809,0.052457,6.82E-4,0.0,1.0,1857.787842
25.130472,-262.95163,-261.758209,2.652373,0.100803,2.652373,0.100803,-259.999847,-260.0,18.862778,0.107973,0.77329,297.834045,11.033892,-0.018326,-0.020024,-1674.432861,-0.001653,0.052726,9.95E-4,0.0,1.0,1980.694824
25.203699,-268.359619,-267.166168,2.660775,0.092116,2.660775,0.092116,-259.999847,-260.0,18.865648,0.149429,0.94335,297.819153,10.78111,-0.020645,-0.020597,-1674.616211,-0.00144,0.053047,0.00172,0.0,1.0,2043.960938
25.341925,-276.471649,-275.278229,2.670027,0.081209,2.670027,0.081209,-269.999847,-270.0,18.871058,0.228163,1.217951,297.79129,10.448266,-0.023313,-0.022158,-1674.806152,-0.001316,0.053215,0.002464,0.0,1.0,2115.892822
24.695858,-281.786469,-280.593018,2.674741,0.075294,2.674741,0.075294,-279.999847,-280.0,18.875456,0.292224,1.413936,297.769287,10.258222,-0.024515,-0.023577,-1671.202148,-0.00116,0.053401,0.003857,0.0,1.0,2151.42627
21.650803,-288.222107,-287.028656,2.679933,0.068204,2.679933,0.068204,-289.999847,-290.0,18.883316,0.40625,1.725081,297.734009,10.021831,-0.025926,-0.025742,-1608.306763,-0.001076,0.053495,0.004958,0.0,1.0,2190.619141
19.955219,-291.55127,-290.357819,2.682681,0.064422,2.682681,0.064422,-289.999847,-290.0,18.889433,0.494397,1.937111,297.709564,9.896793,-0.026551,-0.027126,-1533.384399,-9.74E-4,0.053599,0.006721,0.0,1.0,2209.410889
17.887276,-295.441589,-294.248138,2.685928,0.059823,2.685928,0.059823,-289.999847,-290.0,18.899963,0.644891,2.266411,297.675476,9.757607,-0.027287,-0.028498,-1386.023438,-9.2E-4,0.053654,0.007944,0.0,1.0,2229.388916
16.809204,-297.452942,-296.259491,2.687858,0.057248,2.687858,0.057248,-299.999847,-300.0,18.907906,0.757354,2.490232,297.655212,9.696453,-0.027494,-0.028897,-1270.325073,-8.55E-4,0.053719,0.009648,0.0,1.0,2238.507568
15.612609,-299.801605,-298.608154,2.690566,0.05382,2.690566,0.05382,-299.999847,-300.0,18.921227,0.944032,2.830485,297.632019,9.650626,-0.02752,-0.028252,-1078.147583,-8.18E-4,0.053757,0.010661,0.0,1.0,2247.559814
15.074263,-301.014618,-299.821198,2.69241,0.051698,2.69241,0.051698,-299.999847,-300.0,18.931051,1.080294,3.055612,297.621857,9.649523,-0.027206,-0.027035,-941.198486,-7.69E-4,0.053811,0.011821,0.0,1.0,2251.249756
14.612479,-302.429047,-301.235626,2.695152,0.048582,2.695152,0.048582,-299.999847,-300.0,18.94721,1.302031,3.396971,297.616211,9.689692,-0.026313,-0.0239,-728.219055,-7.39E-4,0.053848,0.012329,0.0,1.0,2254.221191
14.506102,-303.158142,-301.964691,2.697079,0.046527,2.697079,0.046527,-299.999847,-300.0,18.958931,1.461174,3.624778,297.618744,9.742805,-0.025401,-0.021075,-584.848083,-6.94E-4,0.053903,0.012611,0.0,1.0,2254.907959
14.596072,-304.006012,-302.812561,2.700829,0.043388,2.700829,0.043388,-299.999847,-300.0,18.977976,1.716415,4.008911,297.631226,9.859058,-0.023634,-0.01599,-376.642609,-6.65E-4,0.053942,0.012485,0.0,1.0,2254.528076
14.791833,-304.441376,-303.247925,2.708581,0.037374,2.708581,0.037374,-299.999847,-300.0,18.992033,1.897314,4.351609,297.64444,9.959117,-0.023006,-0.012344,-251.86647,-6.2E-4,0.054017,0.011861,0.0,1.0,2253.56543
15.243158,-304.944977,-303.751526,2.71863,0.02446,2.71863,0.02446,-299.999847,-300.0,19.014847,2.184278,4.816669,297.669373,10.139857,-0.019998,-0.006805,-118.40506,-5.34E-4,0.054172,0.0112,0.0,1.0,2251.374756
15.625798,-305.201599,-304.008148,2.720933,0.021917,2.720933,0.021917,-299.999847,-300.0,19.031301,2.385705,5.046284,297.688324,10.278888,-0.017627,-0.003052,-79.618889,-3.49E-4,0.054373,0.009953,0.0,1.0,2250.470459
16.29183,-305.495392,-304.301941,2.723081,0.019777,2.723081,0.019777,-299.999847,-300.0,19.057438,2.702543,5.398495,297.716797,10.511569,-0.015131,0.001921,-53.994495,-3.13E-4,0.054419,0.009006,0.0,1.0,2250.64209
16.783113,-305.642975,-304.449524,2.725114,0.018417,2.725114,0.018417,-299.999847,-300.0,19.07584,2.923307,5.632097,297.735077,10.68052,-0.013923,0.004728,-42.393116,-2.83E-4,0.054462,0.007582,0.0,1.0,2251.398926
17.57214,-305.808594,-304.615143,2.728916,0.016388,2.728916,0.016388,-299.999847,-300.0,19.104919,3.268349,5.986787,297.758942,10.950711,-0.012623,0.007864,-29.151661,-2.63E-4,0.054502,0.006668,0.0,1.0,2253.092773
18.124535,-305.889404,-304.695953,2.731822,0.014941,2.731822,0.014941,-299.999847,-300.0,19.125286,3.50741,6.221996,297.772491,11.13966,-0.012138,0.009341,-22.389959,-2.34E-4,0.054578,0.005475,0.0,1.0,2254.44873
18.98185,-305.976257,-304.782837,2.736419,0.012757,2.736419,0.012757,-299.999847,-300.0,19.157312,3.879173,6.575614,297.788727,11.432254,-0.011848,0.010655,-20.235344,-2.13E-4,0.054636,0.004797,0.0,1.0,2256.668701
19.567804,-306.015869,-304.822449,2.739723,0.011154,2.739723,0.011154,-299.999847,-300.0,19.179646,4.135581,6.811896,297.797729,11.631085,-0.011883,0.01115,-21.750443,-1.82E-4,0.054728,0.003986,0.0,1.0,2258.218506
20.46228,-306.053925,-304.860474,2.744853,0.008544,2.744853,0.008544,-299.999847,-300.0,19.214619,4.532683,7.16615,297.809631,11.931061,-0.012039,0.011564,-18.380077,-1.59E-4,0.054794,0.003536,0.0,1.0,2260.593506
21.066328,-306.06781,-304.87439,2.748507,0.006547,2.748507,0.006547,-299.999847,-300.0,19.238916,4.805538,7.401427,297.817902,12.130005,-0.012079,0.011866,-19.717955,-1.22E-4,0.054897,0.00294,0.0,1.0,2262.191406
21.980629,-306.075165,-304.881714,2.754126,0.003172,2.754126,0.003172,-299.999847,-300.0,19.276834,5.22666,7.754475,297.832336,12.423331,-0.01179,0.012595,-17.892546,-9.4E-5,0.05497,0.002527,0.0,1.0,2264.593506
22.594193,-306.072693,-304.879242,2.758102,5.95E-4,2.758102,5.95E-4,-299.999847,-300.0,19.303091,5.515102,7.988479,297.844543,12.613595,-0.01127,0.013439,2.897676,-4.5E-5,0.055083,0.001805,0.0,1.0,2266.193115
23.518703,-306.060272,-304.866821,2.764141,-0.003645,2.764141,-0.003645,-299.999847,-300.0,19.343941,5.958976,8.339719,297.867401,12.888142,-0.009865,0.015254,16.425013,-9.0E-6,0.055162,0.001195,0.0,1.0,2268.585449
24.137001,-306.04715,-304.853699,2.768363,-0.006765,2.768363,-0.006765,-299.999847,-300.0,19.372145,6.262176,8.571378,297.886261,13.062444,-0.00853,0.01689,14.948339,5.2E-5,0.055283,5.2E-5,0.0,1.0,2270.175293
25.067699,-306.021667,-304.828217,2.751851,-0.011465,2.751851,-0.011465,-299.999847,-300.0,19.414248,6.727591,7.692173,297.919037,13.308592,-0.005983,0.019753,19.269167,9.7E-5,0.055367,-8.91E-4,0.0,1.0,2272.552734
25.691669,-306.001984,-304.808533,2.748776,-0.014949,2.748776,-0.014949,-299.999847,-300.0,19.440262,7.044793,7.915257,297.944214,13.461364,-0.004014,0.021942,11.471028,1.64E-4,0.055037,-0.00253,0.0,1.0,2274.134277
26.627148,-305.969452,-304.776001,2.757541,-0.020053,2.757541,-0.020053,-299.999847,-300.0,19.480682,7.530692,8.236551,297.983246,13.672004,-9.37E-4,0.025009,13.532092,2.14E-4,0.054976,-0.003789,0.0,1.0,2276.503174
27.242359,-305.945984,-304.752533,2.763534,-0.02338,2.763534,-0.02338,-299.999847,-300.0,19.508495,7.861177,8.438935,298.009674,13.799432,9.89E-4,0.026877,14.866775,2.86E-4,0.055151,-0.00574,0.0,1.0,2278.078857
28.133606,-305.908386,-304.714935,2.782192,-0.031442,2.782192,-0.031442,-299.999847,-300.0,19.552887,8.366432,9.303133,298.04541,13.970255,0.003345,0.028596,19.089378,3.34E-4,0.055271,-0.007062,0.0,1.0,2280.408936
28.726557,-305.881592,-304.688141,2.788187,-0.033062,2.788187,-0.033062,-299.999847,-300.0,19.584234,8.709445,9.497511,298.064728,14.070315,0.004724,0.02898,15.599849,4.49E-4,0.055644,-0.008849,0.0,1.0,2281.943359
29.615278,-305.838989,-304.645538,2.793608,-0.033392,2.793608,-0.033392,-299.999847,-300.0,19.6325,9.232952,9.804034,298.083008,14.199242,0.004795,0.027822,18.791729,4.72E-4,0.055764,-0.009814,0.0,1.0,2284.226807
30.207058,-305.809143,-304.615692,2.79741,-0.032968,2.79741,-0.032968,-299.999847,-300.0,19.665503,9.587791,9.727328,298.08783,14.270864,0.003543,0.026003,15.307026,4.77E-4,0.055872,-0.010728,0.0,1.0,2285.740967
31.096771,-305.762848,-304.569397,2.779548,-0.031579,2.779548,-0.031579,-299.999847,-300.0,19.712027,10.128566,9.071208,298.085449,14.356523,5.0E-6,0.022133,13.968318,4.71E-4,0.055948,-0.01097,0.0,1.0,2288.005127
31.68969,-305.731628,-304.538177,2.783302,-0.030829,2.783302,-0.030829,-299.999847,-300.0,19.742636,10.494627,9.283773,298.078949,14.39902,-0.002984,0.019103,14.175446,4.51E-4,0.055591,-0.010851,0.0,1.0,2289.512451
32.577271,-305.684021,-304.49057,2.792601,-0.029965,2.792601,-0.029965,-299.999847,-300.0,19.789835,11.051782,9.583732,298.066101,14.441008,-0.007746,0.014644,14.55612,4.4E-4,0.055666,-0.010526,0.0,1.0,2291.770996
33.167965,-305.651733,-304.458282,2.798322,-0.029773,2.798322,-0.029773,-299.999847,-300.0,19.822117,11.428446,9.778008,298.058136,14.454757,-0.010576,0.012141,14.846891,4.28E-4,0.055852,-0.009883,0.0,1.0,2293.275635
34.027241,-305.603729,-304.410278,2.817292,-0.037408,2.817292,-0.037408,-299.999847,-300.0,19.872164,11.985003,10.815951,298.051941,14.45512,-0.01372,0.009614,20.56035,4.25E-4,0.055966,-0.009485,0.0,1.0,2295.469482
34.614243,-305.569702,-304.376251,2.823974,-0.039066,2.823974,-0.039066,-299.999847,-300.0,19.908543,12.371467,11.00239,298.053497,14.442608,-0.013988,0.009108,21.252169,5.34E-4,0.056346,-0.009175,0.0,1.0,2296.973389
35.49448,-305.516998,-304.323547,2.830032,-0.041799,2.830032,-0.041799,-299.999847,-300.0,19.964296,12.958287,11.29183,298.06665,14.40589,-0.012366,0.010127,22.02195,5.58E-4,0.056479,-0.009253,0.0,1.0,2299.22876
36.105183,-305.479248,-304.285797,2.826741,-0.044063,2.826741,-0.044063,-299.999847,-300.0,20.003519,13.370689,11.208291,298.083405,14.368826,-0.00992,0.011947,17.44923,5.97E-4,0.056601,-0.009911,0.0,1.0,2300.79541
36.987629,-305.424408,-304.230957,2.816602,-0.044045,2.816602,-0.044045,-299.999847,-300.0,20.054106,13.971405,10.216808,298.116211,14.300788,-0.005163,0.015618,17.448742,6.29E-4,0.056535,-0.010748,0.0,1.0,2303.053223
37.574741,-305.387909,-304.194458,2.821745,-0.046283,2.821745,-0.046283,-299.999847,-300.0,20.088491,14.376255,10.40596,298.141174,14.247056,-0.001255,0.018184,17.464823,6.29E-4,0.056332,-0.012389,0.0,1.0,2304.560303
38.452744,-305.332886,-304.139465,2.839735,-0.054594,2.839735,-0.054594,-299.999847,-300.0,20.142342,14.989869,11.473815,298.176575,14.156205,0.003746,0.021064,17.694071,6.61E-4,0.056435,-0.013637,0.0,1.0,2306.821777
39.0354,-305.295532,-304.102081,2.849042,-0.057183,2.849042,-0.057183,-299.999847,-300.0,20.181068,15.403032,11.69797,298.196686,14.090214,0.006936,0.022285,18.159552,7.8E-4,0.056795,-0.015407,0.0,1.0,2308.32959
39.907696,-305.238129,-304.044678,2.855182,-0.057366,2.855182,-0.057366,-299.999847,-300.0,20.240215,16.028694,11.955623,298.217255,13.985332,0.00931,0.022429,18.840712,8.17E-4,0.056981,-0.016412,0.0,1.0,2310.591064
40.487885,-305.198975,-304.005524,2.859163,-0.056741,2.859163,-0.056741,-299.999847,-300.0,20.280376,16.449627,12.134425,298.223999,13.912598,0.009216,0.021437,17.967402,8.2E-4,0.057104,-0.017441,0.0,1.0,2312.098145
41.356464,-305.139069,-303.945618,2.8539,-0.054693,2.8539,-0.054693,-299.999847,-300.0,20.340231,17.086563,11.240148,298.223846,13.800961,0.006593,0.018561,18.274748,8.11E-4,0.057183,-0.017778,0.0,1.0,2314.358154
41.934071,-305.099182,-303.905731,2.853753,-0.053275,2.853753,-0.053275,-299.999847,-300.0,20.377995,17.514784,11.420993,298.21875,13.72569,0.003608,0.016101,21.477589,7.81E-4,0.057078,-0.01777,0.0,1.0,2315.859375
42.797237,-305.039917,-303.846466,2.860015,-0.048669,2.860015,-0.048669,-299.999847,-300.0,20.435867,18.162315,11.675496,298.207184,13.612841,-0.002157,0.012335,18.513952,7.61E-4,0.057075,-0.017516,0.0,1.0,2318.099609
43.37088,-305.000519,-303.807098,2.865957,-0.048755,2.865957,-0.048755,-299.999847,-300.0,20.475111,18.597355,11.85949,298.199341,13.538364,-0.005886,0.01006,18.781471,6.95E-4,0.0572,-0.016937,0.0,1.0,2319.588135
44.228638,-304.941376,-303.747925,2.874029,-0.048872,2.874029,-0.048872,-299.999847,-300.0,20.535095,19.254745,12.123138,298.192688,13.429069,-0.010311,0.007895,15.481134,6.97E-4,0.057319,-0.016545,0.0,1.0,2322.640869
44.799034,-304.901703,-303.708252,2.880385,-0.050514,2.880385,-0.050514,-299.999847,-300.0,20.575962,19.696119,12.159448,298.193604,13.358578,-0.012196,0.007429,18.118025,6.98E-4,0.057481,-0.016212,0.0,1.0,2325.414307
45.607937,-304.845367,-303.651917,2.874048,-0.053116,2.874048,-0.053116,-299.999847,-300.0,20.631203,20.325525,11.569683,298.204468,13.263178,-0.012239,0.008382,17.110113,7.22E-4,0.057608,-0.016258,0.0,1.0,2329.949951
46.20248,-304.804199,-303.610748,2.87847,-0.054587,2.87847,-0.054587,-299.999847,-300.0,20.671705,20.79134,11.749792,298.21933,13.197165,-0.010706,0.010069,23.362501,7.59E-4,0.057481,-0.016801,0.0,1.0,2333.575439
47.081612,-304.743317,-303.549866,2.886897,-0.056936,2.886897,-0.056936,-299.999847,-300.0,20.73275,21.485289,11.997562,298.248596,13.107328,-0.006542,0.013362,24.031359,7.8E-4,0.057569,-0.017545,0.0,1.0,2339.210205
47.651501,-304.703735,-303.510284,2.89205,-0.058399,2.89205,-0.058399,-299.999847,-300.0,20.773012,21.938242,12.151109,298.270294,13.054854,-0.003036,0.01564,17.124825,8.13E-4,0.057738,-0.019008,0.0,1.0,2342.973389
48.508854,-304.644379,-303.450928,2.868864,-0.063493,2.868864,-0.063493,-299.999847,-300.0,20.827646,22.621742,9.511251,298.301697,12.985817,0.00206,0.018378,23.898932,8.34E-4,0.057841,-0.020093,0.0,1.0,2348.715332
49.082279,-304.606201,-303.41275,2.869661,-0.064361,2.869661,-0.064361,-299.999847,-300.0,20.859669,23.080091,9.691226,298.32016,12.946714,0.00521,0.019619,23.361601,9.07E-4,0.057377,-0.021663,0.0,1.0,2352.590088
49.940498,-304.550842,-303.357422,2.87944,-0.064232,2.87944,-0.064232,-299.999847,-300.0,20.908712,23.771528,9.912635,298.338257,12.898999,0.00806,0.019763,22.53331,9.19E-4,0.057393,-0.022586,0.0,1.0,2358.445557
50.511753,-304.514832,-303.321381,2.885211,-0.063428,2.885211,-0.063428,-299.999847,-300.0,20.941978,24.235027,10.039988,298.343445,12.874639,0.008332,0.018781,22.170689,9.18E-4,0.057589,-0.023491,0.0,1.0,2362.368408
51.367443,-304.461609,-303.268158,2.892145,-0.061224,2.892145,-0.061224,-299.999847,-300.0,20.992655,24.933975,10.224483,298.341339,12.849199,0.006144,0.015974,21.833462,9.06E-4,0.057704,-0.02375,0.0,1.0,2368.27124
51.937145,-304.426422,-303.232971,2.896647,-0.059472,2.896647,-0.059472,-299.999847,-300.0,21.026951,25.402338,10.348822,298.335052,12.839429,0.003259,0.013587,21.716034,8.75E-4,0.057843,-0.023645,0.0,1.0,2372.215576
52.790722,-304.373871,-303.18042,2.903181,-0.056819,2.903181,-0.056819,-299.999847,-300.0,21.07917,26.108368,10.534423,298.322815,12.834979,-0.00236,0.010042,21.66334,8.5E-4,0.057933,-0.023331,0.0,1.0,2378.142822
53.359203,-304.338806,-303.145355,2.907736,-0.055244,2.907736,-0.055244,-299.999847,-300.0,21.114506,26.581318,10.661742,298.31546,12.838412,-0.006329,0.008107,21.693892,8.12E-4,0.058064,-0.022719,0.0,1.0,2382.100342
54.211201,-304.286011,-303.09256,2.91563,-0.060726,2.91563,-0.060726,-299.999847,-300.0,21.169065,27.294022,11.408805,298.310211,12.852438,-0.012207,0.006254,21.867535,7.89E-4,0.058155,-0.022351,0.0,1.0,2388.04541
54.777653,-304.250244,-303.056793,2.928345,-0.072245,2.928345,-0.072245,-299.999847,-300.0,21.20825,27.77128,11.96005,298.311951,12.867419,-0.014159,0.005899,22.26103,8.68E-4,0.058313,-0.022089,0.0,1.0,2392.013428
55.627151,-304.195251,-303.001801,2.935289,-0.072034,2.935289,-0.072034,-299.999847,-300.0,21.268515,28.490238,12.141397,298.32428,12.898058,-0.015223,0.007286,22.927441,0.001032,0.058567,-0.022176,0.0,1.0,2397.9729
56.193432,-304.157745,-302.964294,2.939118,-0.072039,2.939118,-0.072039,-299.999847,-300.0,21.309208,28.971537,12.269588,298.338196,12.923602,-0.014578,0.00898,23.329535,0.001029,0.058706,-0.022792,0.0,1.0,2401.951904
57.042587,-304.100311,-302.90686,2.945013,-0.072119,2.945013,-0.072119,-299.999847,-300.0,21.371056,29.696386,12.46497,298.364014,12.969062,-0.012021,0.011955,23.8878,0.001029,0.058782,-0.023488,0.0,1.0,2407.929688
57.608418,-304.06131,-302.867859,2.949205,-0.072106,2.949205,-0.072106,-299.999847,-300.0,21.412836,30.181501,12.596878,298.382446,13.003814,-0.009694,0.013874,22.560913,0.00103,0.0589,-0.024779,0.0,1.0,2411.921387
58.456573,-304.00177,-302.808319,2.955215,-0.071494,2.955215,-0.071494,-299.999847,-300.0,21.476322,30.911907,12.792696,298.406708,13.061993,-0.006276,0.015839,19.137665,0.00103,0.058984,-0.0257,0.0,1.0,2417.917969
59.0215,-303.961395,-302.767975,2.959291,-0.070774,2.959291,-0.070774,-299.999847,-300.0,21.519192,31.400618,12.923398,298.418823,13.10438,-0.004547,0.016353,17.475319,0.001021,0.059104,-0.026913,0.0,1.0,2421.921631
59.86795,-303.899933,-302.706482,2.965091,-0.068955,2.965091,-0.068955,-299.999847,-300.0,21.584316,32.136253,13.120355,298.428192,13.172467,-0.003544,0.015648,23.467344,0.001011,0.059186,-0.027519,0.0,1.0,2427.934814
60.431458,-303.858337,-302.664917,2.968745,-0.067444,2.968745,-0.067444,-299.999847,-300.0,21.628134,32.628338,12.188629,298.42865,13.220246,-0.004118,0.014342,15.845309,9.85E-4,0.059302,-0.027988,0.0,1.0,2431.947998
61.283024,-303.797272,-302.603821,2.932384,-0.064192,2.932384,-0.064192,-299.999847,-300.0,21.675354,33.368942,8.856776,298.424438,13.294209,-0.007956,0.011911,22.575773,9.63E-4,0.059375,-0.028011,0.0,1.0,2438.00293
61.850109,-303.759003,-302.565552,2.936299,-0.062799,2.936299,-0.062799,-299.999847,-300.0,21.705156,33.864296,9.016151,298.419128,13.344243,-0.010279,0.010073,23.327551,9.17E-4,0.058648,-0.0278,0.0,1.0,2442.103027
62.698574,-303.704285,-302.510834,2.947127,-0.060293,2.947127,-0.060293,-299.999847,-300.0,21.750765,34.609665,9.209926,298.410248,13.419189,-0.014718,0.007551,22.140402,8.97E-4,0.058726,-0.027534,0.0,1.0,2448.318115
63.263138,-303.669067,-302.475647,2.956553,-0.064284,2.956553,-0.064284,-299.999847,-300.0,21.782495,35.108082,10.453568,298.40564,13.468431,-0.018585,0.006126,21.632853,8.61E-4,0.058943,-0.02709,0.0,1.0,2452.48999
64.107574,-303.616821,-302.423401,2.966638,-0.063991,2.966638,-0.063991,-299.999847,-300.0,21.83408,35.857868,10.390595,298.404175,13.540369,-0.022838,0.005342,21.517195,9.18E-4,0.059131,-0.02686,0.0,1.0,2458.774414
64.670349,-303.582062,-302.388611,2.970208,-0.063695,2.970208,-0.063695,-299.999847,-300.0,21.868879,36.359119,10.484921,298.412933,13.586581,-0.024821,0.006745,21.516405,9.14E-4,0.059333,0.0,0.0,1.0,2462.977051
65.516708,-303.529785,-302.336334,2.975867,-0.064049,2.975867,-0.064049,-299.999847,-300.0,21.921682,37.113014,10.633074,298.524689,13.65302,-0.021757,0.024522,21.58073,9.1E-4,0.059404,-4.38E-4,0.0,1.0,2469.302002
66.082924,-303.494812,-302.301361,2.975611,-0.05966,2.975611,-0.05966,-299.999847,-300.0,21.956894,37.616943,10.050142,298.659363,13.695963,-0.014415,0.044267,21.649923,9.15E-4,0.059517,-0.006026,0.0,1.0,2473.535645
66.942833,-303.444855,-302.251404,2.938582,-0.058912,2.938582,-0.058912,-299.999847,-300.0,21.98814,38.37492,5.83999,298.898621,13.760186,0.001283,0.075586,19.605577,8.52E-4,0.059512,-0.012759,0.0,1.0,2479.924805
67.803879,-303.400146,-302.206696,2.943235,-0.053926,2.943235,-0.053926,-299.999847,-300.0,22.018879,39.135437,6.573018,299.117981,13.826755,0.023468,0.098673,22.474438,8.42E-4,0.058772,-0.024722,0.0,1.0,2486.36084
68.378616,-303.372162,-302.178711,2.925593,-0.094853,2.925593,-0.094853,-299.999847,-300.0,22.04207,39.643856,7.277273,299.214447,13.873599,0.036146,0.10298,22.308781,7.7E-4,0.058865,-0.03569,0.0,1.0,2490.673584
68.954117,-303.344849,-302.151398,2.883551,-0.181371,2.883551,-0.181371,-299.999847,-300.0,22.067308,40.153389,7.801252,299.249573,13.923222,0.045922,0.095866,18.417074,0.001355,0.058512,-0.040514,0.0,1.0,2495.00415
69.816452,-303.30426,-302.110809,2.794534,-0.378925,2.794534,-0.378925,-299.999847,-300.0,22.107622,40.919731,8.256899,299.176727,14.004246,0.052982,0.065312,22.060415,0.002591,0.057671,-0.04227,0.0,1.0,2501.528809
70.389183,-303.27713,-302.083679,2.727047,-0.541249,2.727047,-0.541249,-299.999847,-300.0,22.135511,41.431942,8.413259,299.055084,14.06328,0.051457,0.035369,18.406273,0.005413,0.055891,-0.038628,0.0,1.0,2505.890381
71.241798,-303.235931,-302.04248,2.646426,-0.799431,2.646426,-0.799431,-299.999847,-300.0,22.180096,42.202106,9.461385,298.810577,14.159762,0.039821,-0.013715,22.585621,0.007732,0.054541,-0.032545,0.0,1.0,2512.43335
72.088951,-303.193298,-301.999847,2.554131,-1.064992,2.554131,-1.064992,-299.999847,-300.0,22.227949,42.974319,9.59232,298.56012,14.265611,0.019127,-0.056256,14.549191,0.01142,0.052929,-0.02032,0.0,1.0,2518.963623
72.652832,-303.164063,-301.970612,2.494107,-1.237679,2.494107,-1.237679,-299.999847,-300.0,22.259861,43.490192,9.498632,298.429474,14.341302,0.004119,-0.075065,19.012547,0.015214,0.051083,-0.007797,0.0,1.0,2523.311035
73.49984,-303.119446,-301.925995,2.427829,-1.455834,2.427829,-1.455834,-299.999847,-300.0,22.306639,44.265533,9.229392,298.332336,14.462944,-0.015161,-0.083255,19.277695,0.017681,0.049882,-0.001265,0.0,1.0,2529.832031
74.066818,-303.089417,-301.895966,2.394799,-1.571098,2.394799,-1.571098,-299.999847,-300.0,22.33725,44.783447,9.141967,298.332886,14.549961,-0.023334,-0.077214,18.985054,0.020798,0.048557,0.003592,0.0,1.0,2534.187012
74.918365,-303.044067,-301.850616,2.4078,-1.712438,2.4078,-1.712438,-299.999847,-300.0,22.385328,45.561893,10.438466,298.400513,14.690534,-0.028584,-0.058549,13.740169,0.022444,0.047896,0.003564,0.0,1.0,2540.739746
75.483421,-303.012878,-301.819427,2.480647,-1.84032,2.480647,-1.84032,-299.999847,-300.0,22.423723,46.081924,12.634836,298.460663,14.791863,-0.030456,-0.046473,14.386692,0.024463,0.048156,1.83E-4,0.0,1.0,2545.11792
76.325394,-302.961334,-301.767914,2.637849,-2.159614,2.637849,-2.159614,-299.999847,-300.0,22.507805,46.863564,23.680866,298.521606,14.958466,-0.030501,-0.038466,17.825583,0.02629,0.049613,-0.002824,0.0,1.0,2551.688721
76.879448,-302.917908,-301.724457,2.72325,-2.381508,2.72325,-2.381508,-299.999847,-300.0,22.611376,47.385605,38.432163,298.519836,15.08228,-0.025004,-0.040746,24.293596,0.030852,0.052757,-0.005872,0.0,1.0,2556.071289
77.690292,-302.821564,-301.628113,2.80925,-2.622925,2.80925,-2.622925,-299.999847,-300.0,22.865868,48.169762,62.665722,298.42215,15.290917,-0.015409,-0.056672,24.320635,0.034022,0.054465,-0.005783,0.0,1.0,2562.632813
78.213905,-302.726837,-301.533386,2.880948,-2.735955,2.880948,-2.735955,-299.999847,-300.0,23.102913,48.693001,79.045464,298.288116,15.445472,-0.011089,-0.075742,32.565273,0.03747,0.056185,-8.99E-4,0.0,1.0,2566.977539
78.974632,-302.525543,-301.332092,3.01366,-2.867317,3.01366,-2.867317,-299.999847,-300.0,23.565044,49.478115,105.438316,298.014557,15.697997,-0.009961,-0.111003,47.558208,0.039085,0.057619,0.005803,0.0,1.0,2573.419189
79.462463,-302.344757,-301.151306,3.118152,-2.952024,3.118152,-2.952024,-299.999847,-300.0,23.948881,50.001373,124.294991,297.81131,15.877779,-0.012689,-0.134598,59.144089,0.040962,0.060273,0.019481,0.0,1.0,2577.64624
80.163467,-301.992584,-300.799133,3.267675,-3.078247,3.267675,-3.078247,-299.999847,-300.0,24.644444,50.785378,152.95636,297.548798,16.160303,-0.019883,-0.158445,78.652321,0.042172,0.062363,0.029643,0.0,1.0,2583.853271
80.611504,-301.698456,-300.505035,3.371894,-3.144173,3.371894,-3.144173,-299.999847,-300.0,25.186317,51.307076,171.450241,297.42691,16.355043,-0.024125,-0.163442,92.74411,0.043975,0.065353,0.042769,0.0,1.0,2587.890137
81.256821,-301.161804,-299.968353,3.528888,-3.168461,3.528888,-3.168461,-299.999847,-300.0,26.116108,52.087555,199.83075,297.350342,16.65349,-0.026605,-0.151567,115.053024,0.044917,0.065353,0.048863,0.0,1.0,2593.10376
81.661835,-300.737152,-299.543701,3.66833,-3.110834,3.66833,-3.110834,-299.999847,-300.0,26.816999,52.606075,220.188522,297.355194,16.854815,-0.023808,-0.134316,130.635284,0.045264,0.065353,0.052692,0.0,1.0,2595.904541
82.225449,-299.993134,-298.799683,3.92607,-2.900069,3.92607,-2.900069,-299.999847,-300.0,28.006271,53.380234,255.611618,297.39743,17.156395,-0.013474,-0.103645,155.35878,0.04444,0.065353,0.052449,0.0,1.0,2599.418701
82.570419,-299.420135,-298.226685,4.116148,-2.686932,4.116148,-2.686932,-299.999847,-300.0,28.904333,53.893333,282.482178,297.415771,17.353975,-0.003878,-0.085868,173.08493,0.04143,0.065353,0.050337,0.0,1.0,2601.427979
83.041145,-298.432861,-297.239441,4.414256,-2.322534,4.414256,-2.322534,-299.999847,-300.0,30.42771,54.657421,326.193634,297.38208,17.637766,0.010985,-0.071255,201.950623,0.038385,0.065353,0.04942,0.0,1.0,2604.081787
83.325829,-297.681915,-296.488464,4.618555,-2.081515,4.618555,-2.081515,-299.999847,-300.0,31.569954,55.16251,358.506104,297.309906,17.813511,0.018696,-0.070587,222.782776,0.033179,0.065353,0.051105,0.0,1.0,2605.665283
83.709534,-296.401276,-295.207855,4.950072,-1.802594,4.950072,-1.802594,-299.999847,-300.0,33.501057,55.912712,413.60733,297.147919,18.048126,0.025077,-0.07974,256.737213,0.029736,0.065353,0.054713,0.0,1.0,2607.827881
83.932838,-295.434265,-294.240814,5.19935,-1.676945,5.19935,-1.676945,-289.999847,-290.0,34.948582,56.407333,453.083374,297.027618,18.18107,0.0259,-0.088159,281.42923,0.025751,0.065353,0.062813,0.0,1.0,2609.151611
84.216576,-293.796753,-292.603333,5.594346,-1.581246,5.594346,-1.581246,-289.999847,-290.0,37.359035,57.140079,508.885803,296.88739,18.341002,0.024101,-0.094571,321.38913,0.023956,0.065353,0.068828,0.0,1.0,2610.980225
84.374451,-292.574066,-291.380615,5.847394,-1.54436,5.847394,-1.54436,-289.999847,-290.0,39.118137,57.621944,545.399231,296.842133,18.420725,0.023114,-0.091177,349.454681,0.022589,0.065353,0.075839,0.0,1.0,2612.101074
84.565567,-290.535553,-289.342102,6.219421,-1.48066,6.219421,-1.48066,-289.999847,-290.0,41.991116,58.333862,602.475403,296.860443,18.501324,0.024612,-0.072973,393.10141,0.022062,0.065353,0.078102,0.0,1.0,2613.643555
84.660393,-289.035645,-287.842194,6.476534,-1.402501,6.476534,-1.402501,-289.999847,-290.0,44.06683,58.800671,641.461975,296.915802,18.530691,0.028969,-0.054881,423.131927,0.021152,0.065353,0.077187,0.0,1.0,2614.581055
84.753777,-286.566803,-285.373352,6.87687,-1.218879,6.87687,-1.218879,-289.999847,-290.0,47.428108,59.48822,701.840515,297.014099,18.541031,0.039742,-0.027531,469.480896,0.020036,0.065353,0.074419,0.0,1.0,2615.850586
84.785629,-284.771149,-283.577698,7.1492,-1.062602,7.1492,-1.062602,-279.999847,-280.0,49.839497,59.937592,743.370544,297.061249,18.526562,0.048202,-0.013894,501.156342,0.017413,0.065353,0.069504,0.0,1.0,2616.606934
84.793655,-281.842834,-280.649384,7.559012,-0.83157,7.559012,-0.83157,-279.999847,-280.0,53.71806,60.597343,806.431702,297.067322,18.47348,0.059662,-0.006303,550.112,0.01518,0.065353,0.067146,0.0,1.0,2617.614014
84.774849,-279.730927,-278.537506,7.831332,-0.704577,7.831332,-0.704577,-279.999847,-280.0,56.479713,61.027229,848.796509,297.026886,18.417187,0.064468,-0.009436,583.515442,0.01188,0.065353,0.066843,0.0,1.0,2618.205566
84.712204,-276.317871,-275.12442,8.240138,-0.603171,8.240138,-0.603171,-279.999847,-280.0,60.886055,61.656551,911.91449,296.926056,18.301872,0.066607,-0.021598,634.639465,0.010065,0.065353,0.068864,0.0,1.0,2618.981689
84.647842,-273.876587,-272.683136,8.513673,-0.591597,8.513673,-0.591597,-269.999847,-270.0,63.998711,62.06546,953.916809,296.856079,18.20577,0.065088,-0.030184,669.289246,0.008617,0.065353,0.073906,0.0,1.0,2619.428711
84.515846,-269.962738,-268.769287,8.928931,-0.637037,8.928931,-0.637037,-269.999847,-270.0,68.929695,62.662361,1016.672974,296.793579,18.037519,0.060787,-0.035932,721.934265,0.008451,0.065353,0.077405,0.0,1.0,2619.99585
84.402946,-267.184326,-265.990875,9.209935,-0.678877,9.209935,-0.678877,-269.999847,-270.0,72.390938,63.049023,1058.309448,296.793243,17.913486,0.058661,-0.032969,757.384094,0.009101,0.065353,0.08053,0.0,1.0,2620.304688
84.194344,-262.761597,-261.568146,9.636197,-0.7093,9.636197,-0.7093,-259.999847,-260.0,77.842194,63.611546,1120.375854,296.852814,17.718231,0.058556,-0.019002,810.947144,0.009698,0.065353,0.080547,0.0,1.0,2620.660645
84.028778,-259.64267,-258.449219,9.921595,-0.692728,9.921595,-0.692728,-259.999847,-260.0,81.648048,63.974571,1161.362305,296.916687,17.586966,0.061185,-0.006355,846.84137,0.010133,0.065353,0.077568,0.0,1.0,2620.824463
83.742554,-254.708771,-253.515335,10.346596,-0.611661,10.346596,-0.611661,-259.999847,-260.0,87.610916,64.500542,1221.863037,297.004883,17.395834,0.068019,0.010048,900.840149,0.009896,0.065353,0.074374,0.0,1.0,2620.957275
83.528687,-251.249817,-250.056381,10.624887,-0.537438,10.624887,-0.537438,-249.999863,-250.0,91.752388,64.838509,1261.223145,297.038818,17.275421,0.072954,0.016032,936.868408,0.008738,0.065353,0.069965,0.0,1.0,2620.97168
83.177841,-245.809189,-244.615753,11.031034,-0.441442,11.031034,-0.441442,-249.999863,-250.0,98.206055,65.326035,1318.197144,297.032013,17.108913,0.078629,0.014446,990.801758,0.007678,0.065353,0.068268,0.0,1.0,2620.886719
82.92617,-242.016235,-240.822784,11.293038,-0.407363,11.293038,-0.407363,-239.999863,-240.0,102.663452,65.637932,1354.480469,296.993591,17.008816,0.079948,0.007581,1026.578979,0.006306,0.065353,0.068608,0.0,1.0,2620.762695
82.524483,-236.083542,-234.890106,11.67241,-0.423011,11.67241,-0.423011,-239.999863,-240.0,109.569672,66.085922,1405.96814,296.914368,16.877695,0.078186,-0.006095,1079.770508,0.005819,0.065353,0.070529,0.0,1.0,2620.482422
82.241333,-231.970474,-230.777023,11.916356,-0.470355,11.916356,-0.470355,-229.999863,-230.0,114.312691,66.3713,1438.2146,296.867279,16.80514,0.075288,-0.013851,1114.7854,0.006043,0.065353,0.07449,0.0,1.0,2620.23584
81.793976,-225.572632,-224.379181,12.269087,-0.565544,12.269087,-0.565544,-229.999863,-230.0,121.621429,66.779381,1483.382935,296.837891,16.72361,0.070444,-0.017935,1166.415527,0.006719,0.065353,0.076845,0.0,1.0,2619.779785
81.480759,-221.161057,-219.967606,12.495374,-0.623256,12.495374,-0.623256,-219.999863,-220.0,126.615067,67.038101,1511.345581,296.851929,16.690905,0.068473,-0.014878,1200.116577,0.008079,0.065353,0.078314,0.0,1.0,2619.418945
80.989189,-214.335114,-213.141678,12.819947,-0.665785,12.819947,-0.665785,-219.999863,-220.0,134.272797,67.406151,1550.010986,296.913513,16.680061,0.06854,-0.003629,1249.394409,0.008904,0.065353,0.077612,0.0,1.0,2618.793701
80.64801,-209.653976,-208.460526,13.024745,-0.660694,13.024745,-0.660694,-209.999863,-210.0,139.48085,67.638153,1573.527954,296.966766,16.700884,0.070735,0.005477,1281.213135,0.009511,0.065353,0.074533,0.0,1.0,2618.321777
80.120033,-202.443573,-201.250137,13.310746,-0.61219,13.310746,-0.61219,-199.999863,-200.0,147.431717,67.966179,1605.189453,297.030273,16.776485,0.076002,0.01558,1327.509155,0.009438,0.065353,0.07187,0.0,1.0,2617.533936
79.759995,-197.520645,-196.327209,13.485153,-0.570137,13.485153,-0.570137,-199.999863,-200.0,152.815094,68.171616,1623.710449,297.048523,16.856386,0.079492,0.017824,1357.210938,0.008746,0.065353,0.068695,0.0,1.0,2616.959473
79.212616,-189.976456,-188.783005,13.720031,-0.527232,13.720031,-0.527232,-189.999863,-190.0,160.996445,68.460144,1647.311157,297.030212,17.018454,0.083044,0.013136,1399.866699,0.008145,0.065353,0.067783,0.0,1.0,2616.031738
78.845238,-184.849289,-183.655853,13.858161,-0.525033,13.858161,-0.525033,-189.999863,-190.0,166.510391,68.639641,1660.126587,296.993805,17.152855,0.083471,0.00606,1426.945557,0.007532,0.065353,0.068698,0.0,1.0,2615.375
78.293472,-177.028107,-175.834656,14.037822,-0.569635,14.037822,-0.569635,-179.999863,-180.0,174.851151,68.890045,1674.877441,296.928314,17.390881,0.081442,-0.00583,1465.359985,0.0075,0.065353,0.070519,0.0,1.0,2614.341309
77.926414,-171.736893,-170.543442,14.139648,-0.623259,14.139648,-0.623259,-169.999863,-170.0,180.446671,69.044746,1681.75061,296.892609,17.572426,0.079063,-0.011948,1489.40271,0.008138,0.065353,0.073793,0.0,1.0,2613.624268
77.378441,-163.701981,-162.50853,14.26616,-0.712061,14.26616,-0.712061,-159.999863,-160.0,188.872925,69.25901,1687.734741,296.873566,17.877331,0.075564,-0.014648,1522.955322,0.008904,0.065353,0.075578,0.0,1.0,2612.364014
77.015198,-158.290405,-157.09697,14.33316,-0.761998,14.33316,-0.761998,-159.999863,-160.0,194.501389,69.390327,1688.917725,296.886871,18.101522,0.074431,-0.01192,1543.5625,0.010172,0.065353,0.07653,0.0,1.0,2611.026855
76.473747,-150.113815,-148.92038,14.406742,-0.799495,14.406742,-0.799495,-149.999863,-150.0,202.942017,69.57058,1686.585938,296.936096,18.467363,0.075246,-0.003009,1571.499634,0.010886,0.065353,0.075865,0.0,1.0,2608.461182
76.117661,-144.626068,-143.432617,14.436787,-0.79865,14.436787,-0.79865,-149.999863,-150.0,208.557175,69.679939,1682.32959,296.976715,18.729164,0.077452,0.003905,1588.401367,0.011421,0.065353,0.073404,0.0,1.0,2606.510254
75.593254,-136.364258,-135.170822,14.451015,-0.767611,14.451015,-0.767611,-139.999863,-140.0,216.944046,69.828362,1671.890259,297.02359,19.143961,0.082235,0.011301,1610.740234,0.011409,0.065353,0.071373,0.0,1.0,2603.37085
75.252655,-130.846771,-129.65332,14.438744,-0.740377,14.438744,-0.740377,-129.999863,-130.0,222.500793,69.917297,1662.201538,297.035919,19.431427,0.085378,0.012725,1623.572144,0.010966,0.065353,0.069029,0.0,1.0,2601.194092
74.75956,-122.574066,-121.380623,14.386707,-0.71447,14.386707,-0.71447,-119.999855,-120.0,230.765915,70.036415,1643.539185,297.019318,19.871336,0.088784,0.008742,1639.641357,0.010577,0.065353,0.068413,0.0,1.0,2597.874512
74.442535,-117.081764,-115.888321,14.329636,-0.716545,14.329636,-0.716545,-119.999855,-120.0,236.218628,70.106789,1628.35376,296.989319,20.16567,0.089582,0.003053,1647.813965,0.010207,0.065353,0.069243,0.0,1.0,2595.656738
73.99572,-108.863159,-107.669716,14.211558,-0.75427,14.211558,-0.75427,-109.999855,-110.0,244.293533,70.199669,1601.569946,296.934601,20.601006,0.088695,-0.006597,1657.444092,0.010236,0.065353,0.070743,0.0,1.0,2592.364746
73.714523,-103.419868,-102.226425,14.112163,-0.797202,14.112163,-0.797202,-99.999855,-100.0,249.597214,70.25367,1581.157715,296.902802,20.883146,0.087256,-0.011819,1661.550659,0.010775,0.065353,0.073479,0.0,1.0,2590.210938
73.320114,-95.326149,-94.132706,13.933814,-0.86914,13.933814,-0.86914,-99.999855,-100.0,257.41687,70.32373,1546.965942,296.879791,21.288496,0.084996,-0.014887,1664.172607,0.011389,0.065353,0.075069,0.0,1.0,2587.064941
73.076241,-89.987839,-88.794395,13.796314,-0.911244,13.796314,-0.911244,-89.999855,-90.0,262.530487,70.36367,1521.960693,296.884033,21.543976,0.084304,-0.01345,1663.526367,0.012416,0.065353,0.076219,0.0,1.0,2585.034912
72.740501,-82.083176,-80.889732,13.563024,-0.947159,13.563024,-0.947159,-79.999855,-80.0,270.037598,70.414375,1481.422607,296.915009,21.900564,0.085099,-0.00715,1658.916626,0.013018,0.065353,0.076007,0.0,1.0,2582.105469
72.537811,-76.891197,-75.697754,13.389636,-0.950862,13.389636,-0.950862,-79.999855,-80.0,274.925903,70.442558,1452.525269,296.944214,22.117823,0.086947,-0.001736,1653.395996,0.013531,0.065353,0.074458,0.0,1.0,2580.238525
72.267906,-69.23497,-68.041527,13.102672,-0.929558,13.102672,-0.929558,-69.999855,-70.0,282.071716,70.477318,1406.578369,296.982117,22.407917,0.091042,0.004946,1641.423462,0.013584,0.065353,0.072998,0.0,1.0,2577.582764
72.112305,-64.226967,-63.03352,12.893492,-0.905979,12.893492,-0.905979,-69.999855,-70.0,286.704651,70.496033,1374.309814,296.995392,22.574183,0.093936,0.007119,1630.975708,0.013279,0.065353,0.071103,0.0,1.0,2575.919678
71.916832,-56.874008,-55.680565,12.553753,-0.874302,12.553753,-0.874302,-59.999859,-60.0,293.447021,70.518349,1323.60437,296.989136,22.777111,0.097526,0.005758,1611.555054,0.012943,0.065353,0.070439,0.0,1.0,2573.606201
71.815765,-52.083416,-50.889973,12.310938,-0.863699,12.310938,-0.863699,-49.999859,-50.0,297.798187,70.529961,1288.366211,296.968872,22.878227,0.098845,0.002216,1596.199097,0.01249,0.065353,0.070752,0.0,1.0,2572.196289
71.704887,-45.079639,-43.886192,11.924861,-0.872295,11.924861,-0.872295,-49.999859,-50.0,304.100159,70.543495,1233.580444,296.925415,22.974052,0.099094,-0.004958,1569.437744,0.012339,0.065353,0.071765,0.0,1.0,2570.298828
71.659851,-40.536457,-39.343014,11.654762,-0.892817,11.654762,-0.892817,-39.999859,-40.0,308.146942,70.550507,1195.937378,296.895752,22.998796,0.098351,-0.009529,1549.206543,0.012461,0.065353,0.073938,0.0,1.0,2569.187744
71.635132,-33.923866,-32.730419,11.233971,-0.93595,11.233971,-0.93595,-29.999857,-30.0,313.978699,70.559006,1138.130005,296.865356,22.975422,0.096668,-0.013517,1515.184814,0.012755,0.065353,0.075421,0.0,1.0,2567.763916
71.646957,-29.654955,-28.461512,10.944973,-0.964885,10.944973,-0.964885,-29.999857,-30.0,317.704498,70.563873,1098.913208,296.858856,22.919312,0.095847,-0.013662,1490.121582,0.013371,0.065353,0.076941,0.0,1.0,2566.981689
71.709198,-23.637028,-22.443583,10.514126,-0.992877,10.514126,-0.992877,-19.999857,-20.0,322.90213,70.570717,1041.100708,296.870117,22.78009,0.095717,-0.01028,1450.217651,0.013784,0.065353,0.077266,0.0,1.0,2566.085938
71.774315,-19.491571,-18.298126,10.201044,-0.997844,10.201044,-0.997844,-19.999857,-20.0,326.442108,70.575943,999.570251,296.888916,22.639853,0.096622,-0.00617,1419.435547,0.014184,0.065353,0.076703,0.0,1.0,2565.626465
71.916466,-13.756031,-12.562587,9.744405,-0.980292,9.744405,-0.980292,-9.999858,-10.0,331.286194,70.584839,939.739746,296.918945,22.380056,0.09921,-5.7E-5,1371.702759,0.014255,0.065353,0.075763,0.0,1.0,2565.2146
72.038261,-10.08777,-8.894325,9.43726,-0.956171,9.43726,-0.956171,-9.999858,-10.0,334.349609,70.592133,899.995239,296.933777,22.170076,0.101325,0.002926,1337.766113,0.014004,0.065353,0.074262,0.0,1.0,2565.104736
72.261208,-4.821736,-3.628292,8.974557,-0.913144,8.974557,-0.913144,-9.999858,-10.0,338.697296,70.605934,840.830505,296.938293,21.802004,0.10428,0.004182,1283.872437,0.01366,0.065353,0.07352,0.0,1.0,2565.201904
72.435974,-1.471416,-0.277972,8.666264,-0.88683,8.666264,-0.88683,1.42E-4,0.0,341.43222,70.617485,801.821655,296.928131,21.522585,0.105562,0.002786,1246.000732,0.013045,0.065353,0.073294,0.0,1.0,2565.447754
72.737213,3.538788,4.732232,8.207277,-0.862389,8.207277,-0.862389,1.42E-4,0.0,345.292786,70.639099,744.206726,296.897675,21.055267,0.106095,-0.001721,1186.72644,0.012669,0.065353,0.073802,0.0,1.0,2566.094971
72.962883,6.720771,7.914216,7.905677,-0.857477,7.905677,-0.857477,10.000142,10.0,347.707916,70.656792,706.561096,296.872589,20.713745,0.105521,-0.005322,1145.648315,0.01232,0.065353,0.075325,0.0,1.0,2566.714111
73.336632,11.245722,12.439166,7.463613,-0.865746,7.463613,-0.865746,10.000142,10.0,351.098602,70.688957,651.563416,296.840302,20.161118,0.103733,-0.009492,1082.069214,0.01225,0.065353,0.076579,0.0,1.0,2567.922607
73.607162,14.096875,15.29032,7.177908,-0.876201,7.177908,-0.876201,10.000142,10.0,353.208588,70.714523,616.086304,296.827362,19.769062,0.102429,-0.010652,1038.484863,0.012368,0.065353,0.078194,0.0,1.0,2568.911621
74.041878,18.12953,19.322975,6.766044,-0.888135,6.766044,-0.888135,20.000143,20.0,356.156647,70.759651,565.014587,296.825928,19.151857,0.100952,-0.009256,971.71759,0.012517,0.065353,0.078841,0.0,1.0,2570.661377
74.350204,20.660387,21.85383,6.504148,-0.887753,6.504148,-0.887753,20.000143,20.0,357.983368,70.794556,532.600281,296.835632,18.724936,0.100657,-0.006591,926.684937,0.012688,0.065353,0.078912,0.0,1.0,2571.998779
74.835838,24.224363,25.417807,6.132302,-0.868493,6.132302,-0.868493,20.000143,20.0,360.5271,70.854599,486.741455,296.858398,18.068247,0.101276,-0.001433,858.689209,0.012682,0.065353,0.078427,0.0,1.0,2574.247803
75.173767,26.450142,27.643587,5.899297,-0.843511,5.899297,-0.843511,30.000143,30.0,362.099518,70.899986,458.164612,296.873352,17.623465,0.102203,0.001782,813.408203,0.012407,0.065353,0.077289,0.0,1.0,2575.901611
75.699432,29.572815,30.766258,5.573462,-0.794763,5.573462,-0.794763,30.000143,30.0,364.286774,70.976425,418.507813,296.885468,16.952061,0.103775,0.004589,746.222473,0.01205,0.065353,0.076541,0.0,1.0,2578.60083
76.061798,31.516272,32.709717,5.372836,-0.759946,5.372836,-0.759946,30.000143,30.0,365.639313,71.033142,394.313049,296.883789,16.505033,0.104466,0.004738,702.30011,0.011354,0.065353,0.075935,0.0,1.0,2580.538574
76.617126,34.237164,35.430607,5.098464,-0.71642,5.098464,-0.71642,30.000143,30.0,367.524902,71.127098,361.55423,296.867096,15.840851,0.104528,0.00253,638.627808,0.010856,0.065353,0.076019,0.0,1.0,2583.639648
76.995522,35.928398,37.121841,4.934342,-0.696046,4.934342,-0.696046,40.000141,40.0,368.695862,71.19577,342.173645,296.849792,15.405426,0.103774,1.09E-4,598.046143,0.010235,0.065353,0.076854,0.0,1.0,2585.828369
77.571083,38.294888,39.488331,4.718287,-0.682009,4.718287,-0.682009,40.000141,40.0,370.340027,71.307983,316.988678,296.824463,14.768701,0.101698,-0.003287,540.742737,0.009944,0.065353,0.077719,0.0,1.0,2589.276367
77.95797,39.767509,40.960953,4.595377,-0.680047,4.595377,-0.680047,40.000141,40.0,371.371613,71.388977,302.915771,296.812836,14.358355,0.100038,-0.004571,505.342072,0.009743,0.065353,0.078986,0.0,1.0,2591.674072
78.539215,41.83445,43.027893,4.444066,-0.680561,4.444066,-0.680561,40.000141,40.0,372.84079,71.519768,286.099335,296.809692,13.76954,0.097721,-0.004066,457.082397,0.009715,0.065353,0.079567,0.0,1.0,2595.397461
78.925102,43.127384,44.320827,4.365729,-0.677265,4.365729,-0.677265,40.000141,40.0,373.77948,71.613113,277.865601,296.81723,13.397932,0.096672,-0.002178,428.439941,0.009722,0.065353,0.079724,0.0,1.0,2597.950684
79.497978,44.956676,46.15012,4.282225,-0.659794,4.282225,-0.659794,50.000141,50.0,375.146606,71.762238,270.133942,296.837921,12.876884,0.096005,0.002021,391.143433,0.009675,0.065353,0.079347,0.0,1.0,2601.863525
79.874084,46.113468,47.306911,4.249047,-0.638538,4.249047,-0.638538,50.000141,50.0,376.042847,71.867592,268.112885,296.853424,12.556278,0.096085,0.004925,370.179504,0.009426,0.065353,0.078313,0.0,1.0,2604.513184
80.426758,47.773605,48.967049,4.232404,-0.596485,4.232404,-0.596485,50.000141,50.0,377.385437,72.034241,269.811493,296.869995,12.119004,0.096553,0.00787,344.637115,0.009122,0.065353,0.077538,0.0,1.0,2608.495605
80.785812,48.841797,50.035244,4.242981,-0.565957,4.242981,-0.565957,50.000141,50.0,378.291504,72.150887,274.07962,296.873596,11.85812,0.096685,0.008459,331.496765,0.008521,0.065353,0.076709,0.0,1.0,2610.797607
81.307098,50.406361,51.599808,4.290761,-0.527868,4.290761,-0.527868,50.000141,50.0,379.687958,72.333771,285.11438,296.86673,11.514645,0.096216,0.007149,317.437103,0.008085,0.065353,0.076529,0.0,1.0,2613.654053
81.641365,51.436153,52.629601,4.343617,-0.510577,4.343617,-0.510577,50.000141,50.0,380.655731,72.460686,295.508942,296.856537,11.318357,0.095281,0.005337,311.68869,0.007541,0.065353,0.076872,0.0,1.0,2615.285645
82.119873,52.98151,54.174957,4.454051,-0.500684,4.454051,-0.500684,50.000141,50.0,382.182617,72.65802,315.577332,296.840698,11.073993,0.093124,0.002572,308.231049,0.007294,0.065353,0.077382,0.0,1.0,2617.464111
82.421898,54.024197,55.21764,4.548185,-0.501802,4.548185,-0.501802,50.000141,50.0,383.262238,72.793861,331.896606,296.834137,10.944946,0.091453,0.001443,309.208862,0.007153,0.065353,0.078174,0.0,1.0,2618.788086
82.846535,55.627415,56.820858,4.719417,-0.508087,4.719417,-0.508087,60.000141,60.0,384.993591,73.003403,360.703552,296.835815,10.80283,0.089107,0.001687,315.337921,0.007169,0.065353,0.078502,0.0,1.0,2620.637207
83.109154,56.734253,57.927696,4.852952,-0.510115,4.852952,-0.510115,60.000141,60.0,386.233551,73.146523,382.729034,296.844818,10.742622,0.087972,0.003114,322.389557,0.007258,0.065353,0.078418,0.0,1.0,2621.796875
83.470123,58.471752,59.665195,5.080726,-0.503174,5.080726,-0.503174,60.000141,60.0,388.24057,73.36557,419.841217,296.86557,10.704086,0.087058,0.006313,337.185852,0.007287,0.065353,0.077968,0.0,1.0,2623.445557
83.68779,59.693176,60.88662,5.249753,-0.491154,5.249753,-0.491154,60.000141,60.0,389.68692,73.514023,447.171967,296.880371,10.712543,0.086899,0.008468,349.733398,0.007188,0.065353,0.07693,0.0,1.0,2624.489014
83.978622,61.639385,62.832829,5.526929,-0.465724,5.526929,-0.465724,60.000141,60.0,392.035675,73.739494,491.778442,296.896088,10.775125,0.086963,0.010404,372.358032,0.007016,0.065353,0.07619,0.0,1.0,2625.974609
84.148224,63.02388,64.217323,5.726238,-0.447905,5.726238,-0.447905,60.000141,60.0,393.72995,73.891136,523.736694,296.900024,10.848947,0.086859,0.010516,389.843903,0.006653,0.065353,0.075404,0.0,1.0,2626.912354
84.364441,65.249199,66.442642,6.045919,-0.450811,6.045919,-0.450811,70.000145,70.0,396.478088,74.119705,574.680664,296.920654,11.005291,0.081684,0.012986,419.440796,0.002133,0.065353,0.1,0.0,1.0,2628.238281
84.479881,66.841766,68.03521,6.275141,-0.477415,6.275141,-0.477415,70.000145,70.0,398.455475,74.27227,610.509033,296.990967,11.138841,0.080385,0.022994,441.276154,0.002147,0.065353,0.1,0.0,1.0,2629.064941
84.60656,69.410378,70.603821,6.642433,-0.467539,6.642433,-0.467539,70.000145,70.0,401.652069,74.500351,667.117249,297.157043,11.382957,0.084349,0.046525,476.95401,0.002273,0.065353,0.1,0.0,1.0,2630.208496
84.659561,71.251663,72.445107,6.899439,-0.410089,6.899439,-0.410089,70.000145,70.0,403.944061,74.651245,706.644104,297.282043,11.574478,0.089996,0.063517,502.573639,0.002226,0.065353,0.1,0.0,1.0,2630.901367
84.693466,74.221649,75.4151,7.297083,-0.255041,7.297083,-0.255041,70.000145,70.0,407.634216,74.874733,768.083435,297.451202,11.902304,0.100619,0.084395,543.570007,0.001953,0.065353,0.1,0.0,1.0,2631.830566
84.687447,76.348335,77.541779,7.567583,-0.12188,7.567583,-0.12188,80.000145,80.0,410.267212,75.021187,810.077209,297.53656,12.145057,0.107586,0.092894,572.493835,0.001214,0.065353,0.1,0.0,1.0,2632.375244
84.638702,79.770561,80.964005,7.978512,0.082994,7.978512,0.082994,80.000145,80.0,414.481354,75.236038,873.921082,297.615082,12.538802,0.115759,0.096495,618.029175,5.8E-4,0.065353,0.1,0.0,1.0,2633.081543
84.5812,82.212891,83.406334,8.254957,0.205816,8.254957,0.205816,80.000145,80.0,417.468689,75.375519,916.69043,297.639069,12.816563,0.118931,0.093883,649.657959,-3.95E-4,0.065353,0.1,0.0,1.0,2633.47998
84.458946,86.125999,87.319443,8.672315,0.344541,8.672315,0.344541,90.000145,90.0,422.216675,75.578247,980.659058,297.651154,13.248433,0.120111,0.085839,698.707825,-9.8E-4,0.065353,0.1,0.0,1.0,2633.971924
84.353828,88.904823,90.098267,8.951811,0.404893,8.951811,0.404893,90.000145,90.0,425.559082,75.708626,1022.96637,297.656738,13.542569,0.11893,0.080115,732.297852,-0.001641,0.065353,0.1,0.0,1.0,2634.230225
84.160912,93.332542,94.525986,9.371805,0.451931,9.371805,0.451931,90.000145,90.0,430.835419,75.896294,1085.644287,297.681671,13.987844,0.115503,0.0743,783.715088,-0.001928,0.065353,0.1,0.0,1.0,2634.514404
84.008781,96.458839,97.652283,9.651519,0.464697,9.651519,0.464697,100.000145,100.0,434.525787,76.015732,1126.771118,297.717133,14.285317,0.112968,0.07349,818.514343,-0.002152,0.065353,0.1,0.0,1.0,2634.634277
83.745384,101.410973,102.604416,10.069026,0.474411,10.069026,0.474411,100.000145,100.0,440.315704,76.185692,1187.243164,297.802887,14.73032,0.109996,0.077305,871.230713,-0.002213,0.065353,0.1,0.0,1.0,2634.70874
83.546585,104.887207,106.080658,10.344861,0.484683,10.344861,0.484683,100.000145,100.0,444.341736,76.292473,1226.595825,297.879395,15.025537,0.109009,0.082653,906.577942,-0.002259,0.065353,0.1,0.0,1.0,2634.687012
83.214661,110.36187,111.555313,10.7526,0.516425,10.7526,0.516425,110.000145,110.0,450.622864,76.4422,1283.887939,298.013672,15.465545,0.109212,0.093054,959.677185,-0.002308,0.065353,0.1,0.0,1.0,2634.547119
82.971931,114.18325,115.376694,11.018967,0.550552,11.018967,0.550552,110.000145,110.0,454.966766,76.534706,1320.732056,298.109253,15.756649,0.110296,0.100353,995.003723,-0.002459,0.065353,0.1,0.0,1.0,2634.38208
82.578094,120.166534,121.359978,11.407821,0.617184,11.407821,0.617184,120.000145,120.0,461.707581,76.661957,1373.617676,298.25116,16.189049,0.112767,0.110043,1047.588867,-0.002622,0.065353,0.1,0.0,1.0,2634.029053
82.297089,124.321617,125.51506,11.658546,0.667824,11.658546,0.667824,120.000145,120.0,466.344818,76.738838,1407.080078,298.340515,16.47373,0.114562,0.11502,1082.403931,-0.002939,0.065353,0.1,0.0,1.0,2633.724854
81.85154,130.794022,131.987473,12.019773,0.742605,12.019773,0.742605,130.000137,130.0,473.502991,76.841835,1454.245483,298.463959,16.893812,0.116906,0.119905,1133.901611,-0.00318,0.065353,0.1,0.0,1.0,2633.170166
81.456261,136.767975,137.961426,12.324155,0.801162,12.324155,0.801162,140.000137,140.0,480.055969,76.920692,1492.83728,298.564453,17.258659,0.118297,0.122077,1178.112793,-0.003536,0.065353,0.1,0.0,1.0,2632.582275
81.049889,142.163818,143.357254,12.576356,0.842221,12.576356,0.842221,140.000137,140.0,485.924744,76.979729,1523.840576,298.648621,17.570185,0.118904,0.122958,1216.047607,-0.003815,0.065353,0.1,0.0,1.0,2631.999023
80.544502,149.348175,150.541626,12.879704,0.87929,12.879704,0.87929,150.000137,150.0,493.638031,77.041832,1559.714722,298.757477,17.959089,0.119011,0.123742,1264.542847,-0.004011,0.065353,0.1,0.0,1.0,2631.161621
80.198074,154.267944,155.461395,13.068076,0.895789,13.068076,0.895789,150.000137,150.0,498.874695,77.074577,1581.047485,298.833435,18.210825,0.118859,0.124573,1295.728882,-0.004187,0.065353,0.1,0.0,1.0,2630.551514
79.666695,161.82901,163.022461,13.32855,0.911937,13.32855,0.911937,160.000137,160.0,506.853912,77.110741,1609.061035,298.955505,18.577227,0.118632,0.126775,1340.673096,-0.004266,0.065353,0.1,0.0,1.0,2629.564697
79.325928,166.982208,168.175659,13.12457,0.91884,13.12457,0.91884,170.000137,170.0,512.252625,77.12619,1630.335083,299.039642,18.814096,0.118726,0.12827,1369.34375,-0.004343,0.266571,0.1,0.0,1.0,2628.866211
79.018532,174.846436,176.039886,9.505702,0.99846,9.505702,0.99846,170.000137,170.0,520.126831,77.142258,1472.88562,299.229919,19.145172,0.143038,0.143759,1409.450928,-0.004375,0.262491,0.1,0.0,1.0,2627.905518
79.006409,180.066635,181.260086,7.450754,1.172273,7.450754,1.172273,180.000137,180.0,524.661621,77.15728,1249.767578,299.447388,19.329918,0.189472,0.169803,1430.003174,-0.004755,0.190114,0.1,0.0,1.0,2627.378174
79.344437,187.557114,188.750565,6.737231,1.559308,6.737231,1.559308,190.000137,190.0,530.11438,77.191788,964.240234,299.801788,19.528467,0.234061,0.209824,1441.400269,-0.005582,0.149015,0.1,0.0,1.0,2626.891357
79.649567,192.202866,193.396317,6.747758,1.821395,6.747758,1.821395,190.000137,190.0,533.132324,77.220924,859.562927,299.975952,19.603382,0.238461,0.222933,1433.422363,-0.007425,0.134745,0.1,0.0,1.0,2626.763916
80.145752,198.605194,199.798645,6.417559,2.134088,6.417559,2.134088,200.000137,200.0,537.170044,77.270935,764.14917,300.119781,19.625849,0.232767,0.220284,1400.169678,-0.008673,0.134955,0.1,0.0,1.0,2626.802246
80.502388,202.515503,203.708954,5.980917,2.280452,5.980917,2.280452,200.000137,200.0,539.618591,77.308266,706.796753,300.16568,19.578798,0.225736,0.209838,1366.30188,-0.010162,0.128351,0.1,0.0,1.0,2626.972168
81.069695,207.882446,209.075897,5.442486,2.40622,5.442486,2.40622,210.000137,210.0,542.929138,77.371201,621.350464,300.222534,19.413101,0.211301,0.192437,1301.465698,-0.010859,0.119618,0.1,0.0,1.0,2627.436035
81.460571,211.146667,212.340103,5.204034,2.433079,5.204034,2.433079,210.000137,210.0,544.914551,77.41819,573.111023,300.273224,19.240351,0.199397,0.183071,1250.421509,-0.011458,0.10885,0.1,0.0,1.0,2627.871582
82.044815,215.610443,216.803894,5.029804,2.40179,5.029804,2.40179,220.000137,220.0,547.635071,77.496422,520.919373,300.391418,18.89427,0.180494,0.175741,1164.729492,-0.011586,0.104081,0.1,0.0,1.0,2628.683594
82.42543,218.326218,219.519669,4.935646,2.348822,4.935646,2.348822,220.000137,220.0,549.330383,77.553642,498.256653,300.501801,18.611631,0.16898,0.175712,1103.248901,-0.011437,0.100596,0.1,0.0,1.0,2629.312256
82.976379,222.067673,223.261124,4.813247,2.257046,4.813247,2.257046,220.000137,220.0,551.756042,77.646912,474.39267,300.717255,18.122641,0.155564,0.183192,1007.953064,-0.011185,0.098713,0.1,0.0,1.0,2630.360107
83.328407,224.371826,225.565277,4.746347,2.205043,4.746347,2.205043,220.000137,220.0,553.317505,77.713951,463.42041,300.888214,17.761536,0.149692,0.192034,944.306702,-0.010748,0.096265,0.1,0.0,1.0,2631.114258
83.830612,227.593155,228.786591,4.700631,2.161993,4.700631,2.161993,230.000137,230.0,555.606323,77.821548,453.883179,301.167511,17.181656,0.145124,0.207932,851.915405,-0.0105,0.094927,0.1,0.0,1.0,2632.306885
84.147789,229.611084,230.80452,4.692167,2.158771,4.692167,2.158771,230.000137,230.0,557.11554,77.897766,452.210846,301.355621,16.777748,0.144248,0.218029,794.178833,-0.010295,0.094013,0.1,0.0,1.0,2633.130615
84.59774,232.486511,233.679947,4.70329,2.186779,4.70329,2.186779,230.000137,230.0,559.381653,78.018425,455.128571,301.622833,16.158865,0.144762,0.229678,716.19397,-0.01028,0.093843,0.1,0.0,1.0,2634.394043
84.881561,234.325256,235.518707,4.721221,2.219337,4.721221,2.219337,230.000137,230.0,560.906555,78.102829,459.924225,301.784882,15.744399,0.145454,0.234263,671.284912,-0.010413,0.094066,0.1,0.0,1.0,2635.247559
85.285294,237.000793,238.194244,4.759558,2.27239,4.759558,2.27239,240.000137,240.0,563.231079,78.234993,470.121094,302.002136,15.130319,0.14589,0.236397,615.956177,-0.010568,0.094424,0.1,0.0,1.0,2636.535889
85.540787,238.746994,239.940445,4.794873,2.302871,4.794873,2.302871,240.000137,240.0,564.812378,78.326576,478.558075,302.133026,14.731513,0.145377,0.235389,587.29126,-0.010821,0.095191,0.1,0.0,1.0,2637.395996
85.905128,241.336014,242.529449,4.854025,2.331405,4.854025,2.331405,240.000137,240.0,567.241821,78.468796,493.114075,302.318298,14.157927,0.14332,0.232023,555.944092,-0.010966,0.095897,0.1,0.0,1.0,2638.682373
86.137947,242.678192,243.871643,4.890734,2.337576,4.890734,2.337576,240.000137,240.0,568.554626,78.546051,501.532928,302.415405,13.87042,0.141673,0.230174,542.375977,-0.011102,0.09708,0.1,0.0,1.0,2639.357178
86.450539,245.52121,246.714645,4.971107,2.333864,4.971107,2.333864,250.000137,250.0,571.46637,78.717514,520.821533,302.633759,13.294907,0.138007,0.227737,520.377625,-0.011121,0.097458,0.1,0.0,1.0,2640.79834
86.659538,247.280609,248.47406,5.032127,2.325751,5.032127,2.325751,250.000137,250.0,573.223633,78.820671,533.258118,302.771332,12.991273,0.135892,0.227911,522.063538,-0.011114,0.099422,0.1,0.0,1.0,2641.629639
86.957397,249.949158,251.142593,5.107236,2.314229,5.107236,2.314229,250.000137,250.0,575.939697,78.978836,552.552612,302.991547,12.589275,0.133563,0.230336,526.414001,-0.011075,0.100643,0.1,0.0,1.0,2642.854248
87.144775,251.753967,252.947403,5.160047,2.312083,5.160047,2.312083,250.000137,250.0,577.803528,79.086357,565.259155,303.146851,12.360499,0.13276,0.233216,530.661072,-0.01102,0.102145,0.1,0.0,1.0,2643.653809
87.410416,254.51059,255.704025,5.237936,2.32236,5.237936,2.32236,250.000137,250.0,580.679138,79.250381,584.443726,303.386963,12.081239,0.13264,0.238401,539.138489,-0.01101,0.103201,0.1,0.0,1.0,2644.825195
87.57756,256.385254,257.578705,5.295457,2.338834,5.295457,2.338834,260.000153,260.0,582.649597,79.361343,597.383606,303.548431,11.939891,0.133112,0.241853,546.014343,-0.011059,0.104759,0.1,0.0,1.0,2645.585938
87.815163,259.260956,260.454407,5.374318,2.375115,5.374318,2.375115,260.000153,260.0,585.686768,79.529839,616.85614,303.787079,11.797587,0.134265,0.246092,558.076172,-0.011137,0.105909,0.1,0.0,1.0,2646.695557
87.965309,261.222717,262.416168,5.429646,2.404754,5.429646,2.404754,260.000153,260.0,587.765076,79.643341,629.669739,303.942505,11.74985,0.135074,0.248122,567.024719,-0.01131,0.107486,0.1,0.0,1.0,2647.414307
88.179588,264.23526,265.428711,5.504446,2.451354,5.504446,2.451354,260.000153,260.0,590.962341,79.815041,648.538757,304.169373,11.748842,0.136036,0.249885,581.465454,-0.011451,0.108593,0.1,0.0,1.0,2648.460693
88.315773,266.292725,267.486176,5.557147,2.481914,5.557147,2.481914,270.000153,270.0,593.145325,79.930298,660.794739,304.317932,11.794547,0.136389,0.250499,591.726013,-0.011673,0.110089,0.1,0.0,1.0,2649.137939
88.510872,269.453033,270.646484,5.628345,2.523252,5.628345,2.523252,270.000153,270.0,596.49585,80.104118,678.741455,304.539276,11.930625,0.136491,0.251005,607.695923,-0.011819,0.111143,0.1,0.0,1.0,2650.124023
88.635033,271.609711,272.803162,5.678205,2.548109,5.678205,2.548109,270.000153,270.0,598.778381,80.220467,690.350708,304.688171,12.064749,0.136343,0.251472,618.61261,-0.012015,0.112567,0.1,0.0,1.0,2650.761719
88.812988,274.918762,276.112213,5.74504,2.581546,5.74504,2.581546,280.000153,280.0,602.274109,80.39547,707.287842,304.915619,12.327709,0.13601,0.252667,635.177856,-0.012134,0.113564,0.1,0.0,1.0,2651.689941
88.924759,277.173401,278.366852,5.791226,2.603113,5.791226,2.603113,280.000153,280.0,604.650635,80.512329,718.206543,305.071198,12.541959,0.135836,0.253979,646.233154,-0.012293,0.114901,0.1,0.0,1.0,2652.290039
89.0886,280.631195,281.824646,5.853558,2.636128,5.853558,2.636128,280.000153,280.0,608.282776,80.687691,734.061584,305.310028,12.917447,0.1358,0.256591,663.035156,-0.012396,0.115825,0.1,0.0,1.0,2653.162598
89.192413,282.983551,284.177002,5.897472,2.660216,5.897472,2.660216,280.000153,280.0,610.747375,80.804527,744.31781,305.472656,13.201081,0.135962,0.258697,674.065857,-0.012553,0.117071,0.1,0.0,1.0,2653.726074
89.338631,286.583344,287.776794,5.955806,2.69957,5.955806,2.69957,290.000153,290.0,614.507813,80.979485,759.262756,305.719391,13.671341,0.136471,0.261988,690.517029,-0.012668,0.117949,0.1,0.0,1.0,2654.544678
89.433899,289.029999,290.22345,5.996211,2.72842,5.996211,2.72842,290.000153,290.0,617.055298,81.095825,768.861633,305.885132,14.011486,0.136927,0.264172,701.384277,-0.012855,0.119116,0.1,0.0,1.0,2655.072998
89.569107,292.767242,293.960693,6.049833,2.773709,6.049833,2.773709,290.000153,290.0,620.93573,81.269691,782.763855,306.133942,14.555807,0.137683,0.267125,717.37854,-0.012992,0.119924,0.1,0.0,1.0,2655.840088
