airspeed_indicator_indicated_speed_kt,altimeter_indicated_altitude_ft,altimeter_pressure_alt_ft,attitude_indicator_indicated_pitch_deg,attitude_indicator_indicated_roll_deg,attitude_indicator_internal_pitch_deg,attitude_indicator_internal_roll_deg,encoder_indicated_altitude_ft,encoder_pressure_alt_ft,gps_indicated_altitude_ft,gps_indicated_ground_speed_kt,gps_indicated_vertical_speed,indicated_heading_deg,magnetic_compass_indicated_heading_deg,slip_skid_ball_indicated_slip_skid,turn_indicator_indicated_turn_rate,vertical_speed_indicator_indicated_speed_fpm,flight_aileron,flight_elevator,flight_rudder,flight_flaps,engine_throttle,engine_rpm,Command_fault,Command
5.338164,-96.922462,-95.729012,2.97548,1.383867,2.592325,0.106685,-99.999855,-100.0,2.286269,0.0,0.006029,297.87149,268.437775,0.010378,-0.071747,-23.448149,-0.0,0.0,0.0,0.0,0.0,599.35907,, takeoff
5.303975,-96.975883,-95.78244,2.934184,1.246598,2.59241,0.10735,-99.999855,-100.0,2.2863,0.0,0.001407,297.870087,272.22998,0.010228,-0.060441,-21.954008,-0.01977,0.051847,0.0,0.0,1.0,607.805237,, takeoff
5.303231,-96.999626,-95.806183,2.777771,0.749234,2.585232,0.10744,-99.999855,-100.0,2.286282,3.1E-5,-0.012159,297.869232,274.505829,0.010068,-0.054689,-17.354311,-0.017809,0.051848,7.0E-5,0.0,1.0,672.056702,, takeoff
5.32467,-97.027412,-95.833969,2.582183,0.218047,2.548354,0.105286,-99.999855,-100.0,2.28615,2.21E-4,-0.038755,297.867706,277.946838,0.008926,-0.047164,-20.269905,-0.010703,0.051705,1.13E-4,0.0,1.0,852.412292,, takeoff
5.372924,-97.041275,-95.847832,2.518054,0.101814,2.518031,0.101737,-99.999855,-100.0,2.286056,7.08E-4,-0.015341,297.866577,280.137848,0.008776,-0.042988,-10.753658,-0.003115,0.050967,1.89E-4,0.0,1.0,998.163452,, takeoff
5.544472,-97.05867,-95.865227,2.505143,0.092297,2.505143,0.092297,-99.999855,-100.0,2.286151,0.003893,0.050144,297.86438,283.607391,0.007693,-0.037207,-17.562716,-0.001454,0.050361,2.46E-4,0.0,1.0,1248.007813,, takeoff
5.718975,-97.067032,-95.873589,2.514652,0.084575,2.514652,0.084575,-99.999855,-100.0,2.286376,0.008666,0.086252,297.862213,285.70816,0.006602,-0.034208,-19.750061,-0.001319,0.050103,3.56E-4,0.0,1.0,1398.685059,, takeoff
6.116969,-97.077423,-95.88398,2.543,0.070654,2.543,0.070654,-99.999855,-100.0,2.286983,0.02356,0.147517,297.855896,288.959778,0.003567,-0.030462,-19.653751,-0.001208,0.050293,4.64E-4,0.0,1.0,1616.545654,, takeoff
6.466489,-97.082718,-95.889275,2.56523,0.061118,2.56523,0.061118,-99.999855,-100.0,2.287555,0.040336,0.17773,297.847809,291.046387,-0.003898,-0.028865,-7.171359,-0.001009,0.05086,7.8E-4,0.0,1.0,1741.54126,, takeoff
7.072784,-97.088425,-95.894981,2.595653,0.048789,2.595653,0.048789,-99.999855,-100.0,2.288606,0.076509,0.230185,297.827881,293.86377,-0.01013,-0.028131,-11.476629,-8.73E-4,0.051305,0.001184,0.0,1.0,1888.290649,, takeoff
7.516312,-97.091118,-95.897667,2.612838,0.042301,2.612838,0.042301,-99.999855,-100.0,2.289424,0.108169,0.276108,297.807861,295.533508,-0.013269,-0.028847,-12.248099,-6.97E-4,0.051913,0.00218,0.0,1.0,1962.782837,, takeoff
8.279683,-97.094109,-95.900665,2.634255,0.035358,2.634255,0.035358,-99.999855,-100.0,2.290946,0.172682,0.334726,297.764404,297.921204,-0.004493,-0.031667,-14.470225,-6.04E-4,0.052257,0.003181,0.0,1.0,2053.406738,, takeoff
8.827812,-97.095421,-95.901978,2.64552,0.032269,2.64552,0.032269,-99.999855,-100.0,2.29214,0.226522,0.379376,297.726532,299.348969,-6.3E-5,-0.034691,-6.610984,-5.05E-4,0.052685,0.005354,0.0,1.0,2099.053467,, takeoff
9.668757,-97.096519,-95.903076,2.657637,0.029186,2.657637,0.029186,-99.999855,-100.0,2.294154,0.321338,0.449115,297.661835,301.18158,0.004384,-0.04001,-13.818339,-4.61E-4,0.05291,0.007248,0.0,1.0,2148.908203,, takeoff
10.291695,-97.096794,-95.903351,2.664242,0.02817,2.664242,0.02817,-99.999855,-100.0,2.295807,0.401199,0.500632,297.608734,302.302399,0.007115,-0.044413,-15.093619,-4.17E-4,0.053153,0.010483,0.0,1.0,2174.891602,, takeoff
11.239167,-97.096527,-95.903084,2.671317,0.028375,2.671317,0.028375,-99.999855,-100.0,2.298595,0.53819,0.58186,297.525085,303.665466,0.009298,-0.050827,-13.856239,-4.02E-4,0.053285,0.013138,0.0,1.0,2202.286621,, takeoff
11.838727,-97.095993,-95.90255,2.674789,0.029352,2.674789,0.029352,-99.999855,-100.0,2.300544,0.634665,0.634081,297.470825,304.332825,0.010202,-0.054675,-10.998787,-4.05E-4,0.053426,0.01732,0.0,1.0,2214.19873,, takeoff
12.814163,-97.09462,-95.901176,2.679205,0.031934,2.679205,0.031934,-99.999855,-100.0,2.304034,0.807927,0.721639,297.386963,305.117065,0.010828,-0.059505,7.980878,-4.19E-4,0.053496,0.020033,0.0,1.0,2227.313721,, takeoff
13.424393,-97.09346,-95.900017,2.681655,0.033976,2.681655,0.033976,-99.999855,-100.0,2.30643,0.926717,0.774898,297.33728,305.426788,0.011063,-0.061754,14.815877,-4.56E-4,0.053584,0.024226,0.0,1.0,2232.593506,, takeoff
13.770291,-97.092705,-95.899261,2.682927,0.035249,2.682927,0.035249,-99.999855,-100.0,2.307861,0.997566,0.806284,297.311188,305.542633,0.011075,-0.062597,17.90667,-4.56E-4,0.053584,0.024226,0.0,1.0,2234.81543,, takeoff
14.01044,-97.09214,-95.898697,2.683793,0.036139,2.683793,0.036139,-99.999855,-100.0,2.308885,1.048167,0.829798,297.293976,305.598175,0.01126,-0.063008,7.3232,-4.85E-4,0.053633,0.02671,0.0,1.0,2236.199219,, takeoff
15.982621,-97.08709,-95.893646,2.69139,0.046171,2.69139,0.046171,-99.999855,-100.0,2.318346,1.511211,1.004447,297.175751,305.323364,0.011271,-0.062509,6.895806,-5.16E-4,0.053676,0.028876,0.0,1.0,2246.771484,, takeoff
16.62447,-97.084625,-95.891182,2.693872,0.049191,2.693872,0.049191,-99.999855,-100.0,2.3218,1.678893,1.065711,297.139282,304.971985,0.011422,-0.062085,5.90301,-6.6E-4,0.053828,0.034787,0.0,1.0,2249.767822,, takeoff
17.585752,-97.080589,-95.887146,2.697593,0.05398,2.697593,0.05398,-99.999855,-100.0,2.327351,1.945927,1.154744,297.099274,304.228638,0.011964,-0.059142,15.351918,-7.03E-4,0.053877,0.03661,0.0,1.0,2253.897949,, takeoff
18.225714,-97.07766,-95.884216,2.700498,0.057231,2.700498,0.057231,-99.999855,-100.0,2.331299,2.134053,1.211419,297.081024,303.600739,0.01268,-0.056117,16.894451,-7.71E-4,0.053952,0.038611,0.0,1.0,2256.431396,, takeoff
19.212402,-97.072784,-95.879341,2.705261,0.062142,2.705261,0.062142,-99.999855,-100.0,2.33777,2.439496,1.302126,297.063385,302.44873,0.014113,-0.050406,15.651764,-8.18E-4,0.05401,0.039523,0.0,1.0,2260.044678,, takeoff
19.798571,-97.069672,-95.876228,2.708284,0.065261,2.708284,0.065261,-99.999855,-100.0,2.341839,2.629767,1.356658,297.056091,301.670074,0.014926,-0.04693,17.701494,-8.88E-4,0.054105,0.040405,0.0,1.0,2262.050293,, takeoff
20.810369,-97.063942,-95.870499,2.713514,0.071099,2.713514,0.071099,-99.999855,-100.0,2.349253,2.973202,1.448738,297.044281,300.186646,0.016132,-0.041546,6.769593,-9.32E-4,0.054166,0.04077,0.0,1.0,2265.311768,, takeoff
21.44927,-97.060074,-95.866631,2.716949,0.075217,2.716949,0.075217,-99.999855,-100.0,2.354188,3.199522,1.509936,297.034241,299.174347,0.016342,-0.03899,14.8262,-0.001016,0.05427,0.04136,0.0,1.0,2267.263428,, takeoff
22.37969,-97.0541,-95.860657,2.721891,0.081778,2.721891,0.081778,-99.999855,-100.0,2.361732,3.542259,1.595518,297.012909,297.617615,0.015619,-0.036746,18.094421,-0.001075,0.054339,0.041862,0.0,1.0,2269.991211,, takeoff
22.990318,-97.04995,-95.856506,2.72526,0.086455,2.72526,0.086455,-99.999855,-100.0,2.366916,3.775481,1.64938,296.993195,296.555725,0.014627,-0.036343,13.872159,-0.001168,0.054438,0.042929,0.0,1.0,2271.722656,, takeoff
23.972172,-97.042915,-95.849472,2.730734,0.094372,2.730734,0.094372,-99.999855,-100.0,2.375631,4.163585,1.738714,296.952118,294.807465,0.011474,-0.037224,9.990026,-0.001235,0.054505,0.043915,0.0,1.0,2274.428955,, takeoff
24.609045,-97.038109,-95.844666,2.734473,0.099702,2.734473,0.099702,-99.999855,-100.0,2.381533,4.423629,1.800548,296.919098,293.661011,0.008973,-0.038717,7.269641,-0.001348,0.054615,0.045969,0.0,1.0,2276.143555,, takeoff
25.535103,-97.030739,-95.837288,2.743213,0.109831,2.743213,0.109831,-99.999855,-100.0,2.3908,4.814216,2.011941,296.865784,291.993042,0.005682,-0.041338,18.51103,-0.001424,0.054689,0.04762,0.0,1.0,2278.599365,, takeoff
26.195282,-97.025139,-95.831696,2.750432,0.119003,2.750432,0.119003,-99.999855,-100.0,2.398073,5.101232,2.163444,296.824829,290.817322,0.001965,-0.043415,7.208306,-0.001569,0.054864,0.050285,0.0,1.0,2280.328125,, takeoff
27.144497,-97.016518,-95.823074,2.756325,0.12654,2.756325,0.12654,-99.999855,-100.0,2.409129,5.52592,2.256195,296.766937,289.167419,-0.002469,-0.045918,12.823152,-0.0017,0.055009,0.052333,0.0,1.0,2282.789551,, takeoff
27.802141,-97.01017,-95.816727,2.760424,0.131307,2.760424,0.131307,-99.999855,-100.0,2.417085,5.828531,2.322919,296.729004,288.063171,-0.004704,-0.047104,18.180437,-0.001808,0.055126,0.055228,0.0,1.0,2284.483154,, takeoff
28.720957,-97.000793,-95.80735,2.766482,0.137105,2.766482,0.137105,-99.999855,-100.0,2.428613,6.262442,2.419321,296.683197,286.590729,-0.006835,-0.047391,14.205653,-0.001876,0.055208,0.057124,0.0,1.0,2286.837891,, takeoff
29.348413,-96.994057,-95.800613,2.770999,0.140967,2.770999,0.140967,-99.999855,-100.0,2.436785,6.566707,2.480819,296.656616,285.639221,-0.007443,-0.046822,7.783829,-0.001959,0.05533,0.059415,0.0,1.0,2288.443359,, takeoff
30.314167,-96.983192,-95.789749,2.778015,0.146449,2.778015,0.146449,-99.999855,-100.0,2.449803,7.046162,2.581676,296.623596,284.27887,-0.007246,-0.04482,10.787523,-0.002014,0.05542,0.060744,0.0,1.0,2290.906982,, takeoff
30.939199,-96.975845,-95.782402,2.782733,0.150115,2.782733,0.150115,-99.999855,-100.0,2.458522,7.3637,2.649204,296.605408,283.472412,-0.006656,-0.043194,7.903864,-0.002092,0.05556,0.062395,0.0,1.0,2292.499023,, takeoff
31.873753,-96.964394,-95.77095,2.789613,0.155712,2.789613,0.155712,-99.999855,-100.0,2.471999,7.849344,2.744835,296.580902,282.384125,-0.005572,-0.040621,14.058344,-0.002144,0.055655,0.063304,0.0,1.0,2294.880127,, takeoff
32.443008,-96.957138,-95.763695,2.793932,0.159494,2.793932,0.159494,-99.999855,-100.0,2.480471,8.151486,2.799133,296.56546,281.794556,-0.005133,-0.039326,10.993915,-0.002224,0.055792,0.064529,0.0,1.0,2296.332031,, takeoff
33.399658,-96.944542,-95.751099,2.806257,0.166271,2.806257,0.166271,-99.999855,-100.0,2.495483,8.668503,3.244128,296.535919,280.937439,-0.005061,-0.037966,20.088442,-0.002278,0.055879,0.065302,0.0,1.0,2298.77002,, takeoff
34.016994,-96.935936,-95.742493,2.813093,0.171225,2.813093,0.171225,-99.999855,-100.0,2.506403,9.009632,3.302712,296.512024,280.473511,-0.005855,-0.037945,12.892183,-0.002375,0.056125,0.066779,0.0,1.0,2300.348633,, takeoff
34.916801,-96.922691,-95.729248,2.818998,0.178739,2.818998,0.178739,-99.999855,-100.0,2.522695,9.514965,3.397439,296.470154,279.928009,-0.007941,-0.039002,13.898948,-0.002446,0.056262,0.067973,0.0,1.0,2302.648438,, takeoff
35.584084,-96.912376,-95.718933,2.823561,0.184762,2.823561,0.184762,-99.999855,-100.0,2.535105,9.896202,3.475619,296.433136,279.622986,-0.010801,-0.040623,13.406974,-0.002553,0.05638,0.070067,0.0,1.0,2304.35498,, takeoff
36.505306,-96.897476,-95.704025,2.830144,0.192923,2.830144,0.192923,-99.999855,-100.0,2.552736,10.432009,3.58083,296.376587,279.339142,-0.015346,-0.043373,8.690907,-0.002639,0.056471,0.071918,0.0,1.0,2306.716797,, takeoff
37.092091,-96.887596,-95.694153,2.834633,0.198162,2.834633,0.198162,-99.999855,-100.0,2.564279,10.779004,3.645277,296.338074,279.239624,-0.018628,-0.045296,19.264595,-0.002756,0.056603,0.074745,0.0,1.0,2308.224854,, takeoff
38.034161,-96.871162,-95.677719,2.841806,0.205799,2.841806,0.205799,-99.999855,-100.0,2.583301,11.344587,3.757656,296.277344,279.207581,-0.023208,-0.0478,10.046843,-0.002831,0.056693,0.076671,0.0,1.0,2310.64917,, takeoff
38.617722,-96.860626,-95.667183,2.846396,0.210378,2.846396,0.210378,-99.999855,-100.0,2.5954,11.700603,3.811015,296.24057,279.263336,-0.025707,-0.049027,8.93121,-0.00294,0.056836,0.079707,0.0,1.0,2312.155029,, takeoff
39.552437,-96.843117,-95.649673,2.860384,0.220525,2.860384,0.220525,-99.999855,-100.0,2.616193,12.280197,4.357001,296.187378,279.466248,-0.028163,-0.049719,17.385397,-0.003005,0.056928,0.081546,0.0,1.0,2314.574951,, takeoff
40.130951,-96.831711,-95.638268,2.866871,0.224815,2.866871,0.224815,-99.999855,-100.0,2.630265,12.644608,4.428381,296.157318,279.657593,-0.029312,-0.049697,9.255402,-0.00315,0.057208,0.084206,0.0,1.0,2316.077393,, takeoff
41.033772,-96.813026,-95.619583,2.872863,0.230029,2.872863,0.230029,-99.999855,-100.0,2.652687,13.221095,4.534564,296.116608,280.047638,-0.029583,-0.04868,10.198562,-0.003212,0.057337,0.085709,0.0,1.0,2318.426025,, takeoff
41.65881,-96.799522,-95.606079,2.877426,0.233641,2.877426,0.233641,-99.999855,-100.0,2.668584,13.625667,4.616026,296.091431,280.376923,-0.029102,-0.0476,10.881885,-0.003286,0.057457,0.087744,0.0,1.0,2320.054688,, takeoff
42.530228,-96.77993,-95.586487,2.88413,0.238411,2.88413,0.238411,-99.999855,-100.0,2.691298,14.197668,4.724453,296.059235,280.907654,-0.027707,-0.045805,13.915844,-0.003338,0.057549,0.089003,0.0,1.0,2322.331299,, takeoff
43.125938,-96.766075,-95.572632,2.888958,0.241945,2.888958,0.241945,-99.999855,-100.0,2.707188,14.593541,4.800724,296.037201,281.312012,-0.026721,-0.04473,16.077742,-0.003406,0.057683,0.090613,0.0,1.0,2323.925293,, takeoff
44.040699,-96.743935,-95.550491,2.903357,0.249234,2.903357,0.249234,-99.999855,-100.0,2.73398,15.209405,5.446762,296.001343,281.987549,-0.025697,-0.043539,19.025589,-0.003456,0.057779,0.091714,0.0,1.0,2327.591797,, takeoff
44.606876,-96.729492,-95.536049,2.908312,0.25355,2.908312,0.25355,-99.999855,-100.0,2.751439,15.595511,5.498179,295.975647,282.432678,-0.025597,-0.043455,13.809488,-0.00356,0.058067,0.093507,0.0,1.0,2330.513428,, takeoff
45.492699,-96.705978,-95.512535,2.91435,0.260216,2.91435,0.260216,-99.999855,-100.0,2.779239,16.2047,5.615348,295.929993,283.156586,-0.026559,-0.044181,14.604147,-0.003622,0.058166,0.094792,0.0,1.0,2335.678711,, takeoff
46.30431,-96.683525,-95.490082,2.92043,0.266751,2.92043,0.266751,-99.999855,-100.0,2.805258,16.768143,5.735968,295.880981,283.837555,-0.02871,-0.045866,18.10276,-0.003717,0.058287,0.097075,0.0,1.0,2340.803223,, takeoff
46.942196,-96.665306,-95.471863,2.925261,0.271716,2.925261,0.271716,-99.999855,-100.0,2.826128,17.215336,5.822923,295.839905,284.377808,-0.030778,-0.0474,12.607257,-0.003789,0.058379,0.098906,0.0,1.0,2344.998291,, takeoff
47.530899,-96.648056,-95.454613,2.929996,0.276459,2.929996,0.276459,-99.999855,-100.0,2.845686,17.63061,5.908171,295.799896,284.874146,-0.033338,-0.04901,15.895098,-0.003882,0.058505,0.101579,0.0,1.0,2348.947754,, takeoff
48.436764,-96.620613,-95.42717,2.947081,0.292991,2.947081,0.292991,-99.999855,-100.0,2.878603,18.275341,6.87145,295.738373,285.625092,-0.03757,-0.050908,18.003479,-0.003949,0.0586,0.10358,0.0,1.0,2355.130127,, takeoff
48.997944,-96.602699,-95.409256,2.952917,0.29732,2.952917,0.29732,-99.999855,-100.0,2.900665,18.678793,6.941625,295.700043,286.077606,-0.039686,-0.052115,13.306022,-0.004186,0.058942,0.106656,0.0,1.0,2359.008057,, takeoff
49.900318,-96.572548,-95.379105,2.958745,0.302562,2.958745,0.302562,-99.999855,-100.0,2.936678,19.33197,7.073533,295.642822,286.773193,-0.042666,-0.05312,15.642307,-0.004247,0.059058,0.108572,0.0,1.0,2365.280762,, takeoff
50.752338,-96.542725,-95.349281,2.965038,0.307022,2.965038,0.307022,-99.999855,-100.0,2.971404,19.954395,7.209225,295.594086,287.385315,-0.043795,-0.053118,19.347395,-0.004322,0.059175,0.111433,0.0,1.0,2371.237793,, takeoff
51.360256,-96.520721,-95.327278,2.969849,0.309836,2.969849,0.309836,-99.999855,-100.0,2.996617,20.401598,7.312895,295.562683,287.790314,-0.043728,-0.052592,12.453969,-0.004386,0.059301,0.11387,0.0,1.0,2375.500732,, takeoff
52.209366,-96.489014,-95.29557,2.976467,0.313145,2.976467,0.313145,-99.999855,-100.0,3.032489,21.031219,7.451,295.524109,288.30661,-0.042383,-0.051109,20.457045,-0.004426,0.059397,0.11544,0.0,1.0,2381.475098, set /instrumentation/turn-indicator/serviceable false, takeoff
52.814495,-96.465805,-95.272362,2.981339,0.31552,2.981339,0.31552,-99.999855,-100.0,3.058524,21.483395,7.545392,295.498566,288.636169,-0.040438,-0.293845,13.61736,-0.004473,0.059529,0.117369,0.0,1.0,2385.746338, set /instrumentation/turn-indicator/serviceable false, takeoff
53.685055,-96.431633,-95.23819,2.98801,0.31863,2.98801,0.31863,-99.999855,-100.0,3.096615,22.137981,7.68641,295.462769,289.049469,-0.037245,-0.60174,14.230605,-0.004507,0.059627,0.118646,0.0,1.0,2391.901611, set /instrumentation/turn-indicator/serviceable false, takeoff
54.264519,-96.40834,-95.214897,2.992527,0.320867,2.992527,0.320867,-99.999855,-100.0,3.122401,22.576563,7.778524,295.437378,289.283112,-0.035107,-0.782742,14.631716,-0.004552,0.05976,0.120436,0.0,1.0,2396.00708, set /instrumentation/turn-indicator/serviceable false, takeoff
55.13295,-96.372696,-95.179245,2.998919,0.324119,2.998919,0.324119,-99.999855,-100.0,3.161668,23.237604,7.918605,295.395813,289.568848,-0.032294,-1.022405,18.691727,-0.004584,0.059851,0.121706,0.0,1.0,2402.169678, set /instrumentation/turn-indicator/serviceable false, takeoff
55.711197,-96.34848,-95.155037,3.003123,0.326362,3.003123,0.326362,-99.999855,-100.0,3.188233,23.680342,8.007905,295.365234,289.715607,-0.030861,-1.163296,14.584625,-0.004615,0.059939,0.123125,0.0,1.0,2406.281494, set /instrumentation/turn-indicator/serviceable false, takeoff
56.578636,-96.311592,-95.118141,3.008387,0.331026,3.008387,0.331026,-99.999855,-100.0,3.228231,24.347397,8.055872,295.31311,289.869934,-0.029611,-1.349849,17.166786,-0.004662,0.060062,0.125313,0.0,1.0,2412.455811, set /instrumentation/turn-indicator/serviceable false, takeoff
57.15538,-96.286636,-95.093193,3.012609,0.333279,3.012609,0.333279,-99.999855,-100.0,3.255234,24.794004,8.142995,295.274445,289.929321,-0.029389,-1.459518,17.411169,-0.004729,0.060168,0.127919,0.0,1.0,2416.576416, set /instrumentation/turn-indicator/serviceable false, takeoff
57.732136,-96.261421,-95.067978,3.016736,0.335125,3.016736,0.335125,-99.999855,-100.0,3.282552,25.242081,8.236918,295.234528,289.954529,-0.029409,-1.558729,17.641357,-0.004761,0.060252,0.129852,0.0,1.0,2420.701172, set /instrumentation/turn-indicator/serviceable false, takeoff
58.595829,-96.2229,-95.029457,3.027562,0.335635,3.027562,0.335635,-99.999855,-100.0,3.32579,25.916855,8.832813,295.175964,289.929962,-0.029773,-1.690095,14.779896,-0.004788,0.060335,0.131848,0.0,1.0,2426.893311, set /instrumentation/turn-indicator/serviceable false, takeoff
59.455959,-96.183083,-94.989639,3.041809,0.337217,3.041809,0.337217,-99.999855,-100.0,3.372223,26.594681,9.84349,295.119995,289.833771,-0.028978,-1.803126,19.807835,-0.004795,0.060551,0.134776,0.0,1.0,2433.089111, set /instrumentation/turn-indicator/serviceable false, takeoff
60.00391,-96.156616,-94.963173,3.046633,0.337567,3.046633,0.337567,-89.999855,-90.0,3.403805,27.029261,9.922071,295.086548,289.736908,-0.027967,-1.866937,13.289063,-0.004817,0.060836,0.137575,0.0,1.0,2437.04834, set /instrumentation/turn-indicator/serviceable false, takeoff
60.575291,-96.128166,-94.934723,3.049715,0.337375,3.049715,0.337375,-89.999855,-90.0,3.437047,27.483959,10.013985,295.054901,289.608154,-0.026009,-1.9273,16.23295,-0.004822,0.060933,0.139247,0.0,1.0,2441.198975, set /instrumentation/turn-indicator/serviceable false, takeoff
61.478443,-96.081604,-94.888161,3.05526,0.336737,3.05526,0.336737,-89.999855,-90.0,3.490349,28.20636,10.178384,295.012177,289.351074,-0.020998,-2.011325,13.863901,-0.00482,0.060994,0.140829,0.0,1.0,2447.861572, set /instrumentation/turn-indicator/serviceable false, takeoff
62.307842,-96.037254,-94.843811,3.06449,0.339762,3.06449,0.339762,-89.999855,-90.0,3.540875,28.874289,10.92136,294.977844,289.062744,-0.014536,-2.077766,19.197193,-0.004811,0.061105,0.142966,0.0,1.0,2454.058594, set /instrumentation/turn-indicator/serviceable false, takeoff
62.875198,-96.005898,-94.812454,3.070606,0.339818,3.070606,0.339818,-89.999855,-90.0,3.577387,29.333651,10.999406,294.955597,288.840057,-0.009475,-2.118027,19.705919,-0.004854,0.06129,0.144682,0.0,1.0,2458.327637, set /instrumentation/turn-indicator/serviceable false, takeoff
63.442829,-95.973724,-94.780281,3.074116,0.338091,3.074116,0.338091,-89.999855,-90.0,3.614237,29.794075,11.108838,294.933502,288.59967,-0.003692,-2.154449,20.099152,-0.004855,0.061412,0.145795,0.0,1.0,2462.607178, set /instrumentation/turn-indicator/serviceable false, takeoff
64.268188,-95.925537,-94.732086,3.078966,0.334994,3.078966,0.334994,-89.999855,-90.0,3.668588,30.467367,11.252502,294.899963,288.222321,0.004628,-2.20143,15.632638,-0.00483,0.061482,0.146899,0.0,1.0,2468.862305, set /instrumentation/turn-indicator/serviceable false, fly_strait
65.175255,-95.871735,-94.678291,3.083611,0.354402,3.083611,0.354402,-89.999855,-90.0,3.728454,31.200779,11.430199,294.72168,287.784363,0.005307,-2.245235,16.191801,-0.004786,0.061579,0.0,0.0,1.0,2475.679443, set /instrumentation/turn-indicator/serviceable false, fly_strait
65.770874,-95.836998,-94.643547,3.088435,0.357299,3.088435,0.357299,-89.999855,-90.0,3.767826,31.665316,12.676085,294.253326,287.4953,-0.014774,-2.269528,16.629513,-0.004881,0.061654,0.00247,0.0,1.0,2480.04834, set /instrumentation/turn-indicator/serviceable false, fly_strait
66.633965,-95.786049,-94.592598,3.085765,0.326236,3.085765,0.326236,-89.999855,-90.0,3.828215,32.325191,12.848959,293.198792,287.067047,-0.072532,-2.30003,17.660494,-0.005104,0.061769,0.032332,0.0,1.0,2486.374756, set /instrumentation/turn-indicator/serviceable false, fly_strait
67.298119,-95.745697,-94.552246,3.080088,0.285623,3.080088,0.285623,-89.999855,-90.0,3.874871,32.831287,12.994265,292.242279,286.720367,-0.148414,-2.320602,18.270926,-0.004661,0.061715,0.085059,0.0,1.0,2491.30835, set /instrumentation/turn-indicator/serviceable false, fly_strait
68.212135,-95.688057,-94.494614,3.077451,0.212071,3.077451,0.212071,-89.999855,-90.0,3.940425,33.534302,13.243475,291.051788,286.204742,-0.254762,-2.345639,23.753481,-0.00408,0.061602,0.132884,0.0,1.0,2498.220459, set /instrumentation/turn-indicator/serviceable false, fly_strait
68.817917,-95.648636,-94.455193,3.081477,0.165835,3.081477,0.165835,-89.999855,-90.0,3.98488,34.004517,13.43092,290.52356,285.834778,-0.313206,-2.360358,15.603917,-0.003445,0.061549,0.171471,0.0,1.0,2502.858643, set /instrumentation/turn-indicator/serviceable false, fly_strait
69.419876,-95.608376,-94.414932,3.088487,0.123428,3.088487,0.123428,-89.999855,-90.0,4.030702,34.475899,14.269058,290.277588,285.443573,-0.353125,-2.373672,21.866058,-0.002369,0.06163,0.21882,0.0,1.0,2507.502197, set /instrumentation/turn-indicator/serviceable false, fly_strait
70.328827,-95.545845,-94.352402,3.052515,-0.004961,3.052515,-0.004961,-89.999855,-90.0,4.10557,35.185139,15.329075,290.547028,284.822937,-0.36563,-2.391303,24.033157,-0.001763,0.06177,0.231119,0.0,1.0,2514.488281, set /instrumentation/turn-indicator/serviceable false, fly_strait
70.897141,-95.504204,-94.310753,3.022167,-0.073743,3.022167,-0.073743,-89.999855,-90.0,4.154994,35.639687,15.380424,291.083344,284.413239,-0.33602,-2.401256,16.297506,7.1E-5,0.06105,0.217647,0.0,1.0,2518.955322, set /instrumentation/turn-indicator/serviceable false, fly_strait
71.753654,-95.435143,-94.241699,3.038213,-0.033753,3.038213,-0.033753,-89.999855,-90.0,4.232072,36.372932,15.363408,292.284027,283.75412,-0.2387,-2.415391,16.538412,0.001053,0.060443,0.190831,0.0,1.0,2526.008545, set /instrumentation/turn-indicator/serviceable false, fly_strait
72.504944,-95.367378,-94.173935,2.992634,0.34125,2.992634,0.34125,-89.999855,-90.0,4.315144,37.068211,18.564125,293.446411,283.156555,-0.108852,-2.426894,20.321793,4.82E-4,0.060764,0.130797,0.0,1.0,2532.395264, set /instrumentation/turn-indicator/serviceable false, fly_strait
72.993637,-95.320313,-94.126869,2.879217,0.812379,2.879217,0.812379,-89.999855,-90.0,4.375491,37.525684,18.852325,294.017212,282.790497,-0.035819,-2.433589,25.182549,-0.004875,0.059853,0.072678,0.0,1.0,2536.452148, set /instrumentation/turn-indicator/serviceable false, fly_strait
73.846298,-95.237419,-94.043976,2.638114,1.648694,2.638114,1.648694,-89.999855,-90.0,4.483199,38.285145,20.822765,294.331238,282.24881,0.083233,-2.443332,25.368269,-0.011605,0.057584,0.044138,0.0,1.0,2543.085693, set /instrumentation/turn-indicator/serviceable false, fly_strait
74.397438,-95.184013,-93.99057,2.502752,1.98835,2.502752,1.98835,-89.999855,-90.0,4.545408,38.745663,17.998209,294.124573,281.963715,0.125425,-2.448521,25.485533,-0.023553,0.052762,0.028436,0.0,1.0,2547.175781, set /instrumentation/turn-indicator/serviceable false, fly_strait
75.293503,-95.100082,-93.906639,2.494497,2.075801,2.494497,2.075801,-89.999855,-90.0,4.623768,39.467686,13.775863,293.35495,281.582153,0.146118,-2.455706,18.810688,-0.028405,0.050055,0.038769,0.0,1.0,2553.781982, set /instrumentation/turn-indicator/serviceable false, fly_strait
75.895714,-95.046173,-93.85273,2.592921,1.847287,2.592921,1.847287,-89.999855,-90.0,4.669583,39.950127,15.188928,292.693054,281.367157,0.139076,-2.459929,18.020496,-0.029654,0.04989,0.077251,0.0,1.0,2558.305664, set /instrumentation/turn-indicator/serviceable false, fly_strait
76.787498,-94.964432,-93.770981,2.727586,1.057139,2.727586,1.057139,-89.999855,-90.0,4.782633,40.675678,31.49766,291.838562,281.092438,0.097307,-2.465522,20.920053,-0.02639,0.051858,0.110345,0.0,1.0,2565.197998, set /instrumentation/turn-indicator/serviceable false, fly_strait
77.37072,-94.900612,-93.707161,2.789119,0.328097,2.789119,0.328097,-89.999855,-90.0,4.91288,41.160572,46.375912,291.528442,280.936218,0.064531,-2.468809,21.532478,-0.015102,0.054552,0.15307,0.0,1.0,2569.830811, set /instrumentation/turn-indicator/serviceable false, fly_strait
78.219009,-94.773018,-93.579575,2.894369,-0.7216,2.894369,-0.7216,-89.999855,-90.0,5.207125,41.88924,71.082138,291.627167,280.739746,0.028448,-2.473162,30.762045,-0.004687,0.055782,0.168576,0.0,1.0,2576.784668, set /instrumentation/turn-indicator/serviceable false, fly_strait
78.729324,-94.662529,-93.469086,3.019432,-1.192365,3.019432,-1.192365,-89.999855,-90.0,5.463789,42.355194,89.346741,292.015839,280.63974,0.023965,-2.47562,38.795231,0.010309,0.057887,0.16364,0.0,1.0,2581.179932, set /instrumentation/turn-indicator/serviceable false, fly_strait
79.469879,-94.420013,-93.22657,3.292048,-1.32958,3.292048,-1.32958,-89.999855,-90.0,6.015072,43.104366,125.598396,292.913116,280.526398,0.051441,-2.47911,55.477444,0.017034,0.060389,0.144206,0.0,1.0,2588.018066, set /instrumentation/turn-indicator/serviceable false, fly_strait
79.895172,-94.208954,-93.015511,3.484364,-1.016395,3.484364,-1.016395,-89.999855,-90.0,6.480755,43.589291,153.220322,293.484985,280.486725,0.085833,-2.481102,68.965515,0.018994,0.065841,0.099342,0.0,1.0,2592.187988, set /instrumentation/turn-indicator/serviceable false, fly_strait
80.491379,-93.791977,-92.598534,3.677323,-0.133232,3.677323,-0.133232,-89.999855,-90.0,7.356004,44.3139,194.956421,293.982361,280.477417,0.145297,-2.483739,93.098511,0.01452,0.069687,0.070749,0.0,1.0,2597.278564, set /instrumentation/turn-indicator/serviceable false, fly_strait
80.886032,-93.437569,-92.244125,3.755919,0.526731,3.755919,0.526731,-89.999855,-90.0,8.048205,44.794598,218.969498,293.980408,280.501831,0.175583,-2.48529,110.958824,0.001903,0.073546,0.04588,0.0,1.0,2600.023438, set /instrumentation/turn-indicator/serviceable false, fly_strait
81.506477,-92.763229,-91.569786,3.823434,1.230233,3.823434,1.230233,-89.999855,-90.0,9.257772,45.531494,249.355713,293.477509,280.577087,0.192676,-2.487395,139.838715,-0.007525,0.075118,0.045978,0.0,1.0,2603.619629, set /instrumentation/turn-indicator/serviceable false, fly_strait
81.911179,-92.243813,-91.050369,3.87583,1.361079,3.87583,1.361079,-89.999855,-90.0,10.11619,46.006763,264.741974,292.95575,280.642456,0.180183,-2.488597,158.2509,-0.017575,0.076469,0.071123,0.0,1.0,2605.681396, set /instrumentation/turn-indicator/serviceable false, fly_strait
82.476234,-91.402664,-90.209221,3.959576,1.028638,3.959576,1.028638,-89.999855,-90.0,11.414276,46.676476,284.125214,292.269531,280.74469,0.140394,-2.490106,183.199692,-0.019444,0.077517,0.097211,0.0,1.0,2608.360596, set /instrumentation/turn-indicator/serviceable false, fly_strait
82.897583,-90.681007,-89.487564,4.029401,0.4978,4.029401,0.4978,-89.999855,-90.0,12.466704,47.185753,298.265656,291.967163,280.823303,0.09942,-2.491124,201.448669,-0.014695,0.079192,0.131522,0.0,1.0,2610.270264, set /instrumentation/turn-indicator/serviceable false, fly_strait
83.46125,-89.576134,-88.382683,4.12905,-0.283202,4.12905,-0.283202,-89.999855,-90.0,14.008843,47.886436,318.335571,292.049774,280.926483,0.058473,-2.492363,225.321548,-0.007111,0.080588,0.14664,0.0,1.0,2612.765625, set /instrumentation/turn-indicator/serviceable false, fly_strait
83.809776,-88.774223,-87.58078,4.219698,-0.626474,4.219698,-0.626474,-89.999855,-90.0,15.097545,48.350266,334.73053,292.406219,280.991455,0.050466,-2.493091,240.657822,1.2E-5,0.081766,0.14774,0.0,1.0,2614.343506, set /instrumentation/turn-indicator/serviceable false, fly_strait
84.256927,-87.510544,-86.317101,4.410747,-0.681099,4.410747,-0.681099,-89.999855,-90.0,16.798346,49.021053,365.594666,293.142273,281.084106,0.071811,-2.49403,262.963196,0.00895,0.084394,0.124687,0.0,1.0,2616.509766, set /instrumentation/turn-indicator/serviceable true, fly_strait
84.520882,-86.573997,-85.380554,4.561183,-0.391362,4.561183,-0.391362,-89.999855,-90.0,18.060434,49.476536,390.801239,293.617432,281.148285,0.102223,-2.440717,279.191467,0.00973,0.088215,0.087885,0.0,1.0,2617.891357, set /instrumentation/turn-indicator/serviceable true, fly_strait
84.888588,-85.05513,-83.861687,4.720444,0.358307,4.720444,0.358307,-79.999855,-80.0,20.105766,50.152027,425.117493,293.987091,281.246216,0.154051,-2.243465,304.888733,0.005591,0.091224,0.064127,0.0,1.0,2619.81665, set /instrumentation/turn-indicator/serviceable true, fly_strait
85.138634,-83.962479,-82.769035,4.775353,0.8798,4.775353,0.8798,-79.999855,-80.0,21.554379,50.596958,442.720428,293.935211,281.310699,0.178262,-2.095122,322.840485,-0.005119,0.094409,0.045644,0.0,1.0,2621.03125, set /instrumentation/turn-indicator/serviceable true, fly_strait
85.545799,-82.155884,-80.96244,4.794249,1.343277,4.794249,1.343277,-79.999855,-80.0,23.88744,51.274532,463.269257,293.450348,281.4021,0.18613,-1.901916,350.45874,-0.012569,0.095507,0.048238,0.0,1.0,2622.853271, set /instrumentation/turn-indicator/serviceable true, fly_strait
85.818306,-80.910385,-79.716934,4.81161,1.325675,4.81161,1.325675,-79.999855,-80.0,25.448698,51.708874,472.777222,293.015656,281.451111,0.169661,-1.79833,367.582367,-0.017632,0.095809,0.061145,0.0,1.0,2624.022705, set /instrumentation/turn-indicator/serviceable true, fly_strait
86.224968,-79.001343,-77.807899,4.86459,0.892167,4.86459,0.892167,-79.999855,-80.0,27.77883,52.335426,485.667267,292.483704,281.500244,0.124091,-1.646941,390.731049,-0.018938,0.096232,0.094215,0.0,1.0,2625.716797, set /instrumentation/turn-indicator/serviceable true, fly_strait
86.503685,-77.574165,-76.380714,4.913857,0.399766,4.913857,0.399766,-79.999855,-80.0,29.483238,52.778065,495.927795,292.331512,281.515594,0.091795,-1.516637,406.300079,-0.012745,0.097292,0.120813,0.0,1.0,2626.916504, set /instrumentation/turn-indicator/serviceable true, fly_strait
86.888428,-75.498009,-74.304565,4.995955,-0.227048,4.995955,-0.227048,-69.999855,-70.0,31.934883,53.390728,512.730225,292.539978,281.508301,0.060571,-1.287564,426.28717,-0.005711,0.098277,0.128423,0.0,1.0,2628.572998, set /instrumentation/turn-indicator/serviceable true, fly_strait
87.122231,-74.020523,-72.82708,5.07841,-0.461514,5.07841,-0.461514,-69.999855,-70.0,33.66679,53.805828,526.219666,292.911163,281.486115,0.060279,-1.109239,439.55188,0.003244,0.099919,0.117999,0.0,1.0,2629.678223, set /instrumentation/turn-indicator/serviceable true, fly_strait
87.434746,-71.659988,-70.466545,5.222763,-0.333676,5.222763,-0.333676,-69.999855,-70.0,36.434029,54.437096,550.781677,293.577362,281.431213,0.088423,-0.843985,459.394897,0.006593,0.101568,0.09944,0.0,1.0,2631.297852, set /instrumentation/turn-indicator/serviceable true, fly_strait
87.612411,-70.071205,-68.877762,5.314138,0.008849,5.314138,0.008849,-69.999855,-70.0,38.300823,54.840553,568.858704,293.911316,281.385742,0.117818,-0.703801,472.518219,0.004767,0.104455,0.06613,0.0,1.0,2632.282715, set /instrumentation/turn-indicator/serviceable true, fly_strait
87.863953,-67.739922,-66.546478,5.393978,0.631299,5.393978,0.631299,-69.999855,-70.0,41.050167,55.403667,594.347168,294.045319,281.310913,0.155687,-0.579487,491.516357,-1.26E-4,0.106283,0.049432,0.0,1.0,2633.605225, set /instrumentation/turn-indicator/serviceable true, fly_strait
88.064468,-65.890495,-64.697052,5.436749,1.02687,5.436749,1.02687,-69.999855,-70.0,43.228611,55.827629,611.179626,293.860413,281.244995,0.172142,-0.542519,506.586609,-0.009019,0.10788,0.042732,0.0,1.0,2634.585449, set /instrumentation/turn-indicator/serviceable true, fly_strait
88.362648,-63.231461,-62.038017,5.486048,1.185544,5.486048,1.185544,-59.999859,-60.0,46.336182,56.40554,630.626709,293.343292,281.137146,0.162343,-0.545351,527.976379,-0.01467,0.108735,0.051978,0.0,1.0,2635.93335, set /instrumentation/turn-indicator/serviceable true, fly_strait
88.564949,-61.400204,-60.20676,5.522961,1.012067,5.522961,1.012067,-59.999859,-60.0,48.457993,56.785248,641.898132,292.978851,281.051422,0.13876,-0.554766,542.006287,-0.016936,0.109721,0.077834,0.0,1.0,2636.834961, set /instrumentation/turn-indicator/serviceable true, fly_strait
88.865173,-58.646763,-57.45332,5.578661,0.469711,5.578661,0.469711,-59.999859,-60.0,51.617714,57.331352,657.621399,292.684174,280.90271,0.093506,-0.53417,562.15094,-0.014458,0.110459,0.096056,0.0,1.0,2638.153809, set /instrumentation/turn-indicator/serviceable true, fly_strait
89.057747,-56.704105,-55.510662,5.630093,0.052102,5.630093,0.052102,-59.999859,-60.0,53.829048,57.700642,668.896362,292.716156,280.784332,0.070315,-0.485315,575.625427,-0.00671,0.111573,0.110789,0.0,1.0,2639.056396, set /instrumentation/turn-indicator/serviceable true, fly_strait
89.335388,-53.625702,-52.432259,5.735563,-0.353909,5.735563,-0.353909,-49.999859,-50.0,57.316998,58.261429,688.575684,293.110626,280.579681,0.058833,-0.360386,595.795837,-7.44E-4,0.112602,0.10919,0.0,1.0,2640.423584, set /instrumentation/turn-indicator/serviceable true, fly_strait
89.486023,-51.576767,-50.383324,5.825313,-0.378173,5.825313,-0.378173,-49.999859,-50.0,59.637508,58.619347,703.486877,293.485046,280.436646,0.070132,-0.266313,608.505554,0.005056,0.114711,0.089467,0.0,1.0,2641.275879, set /instrumentation/turn-indicator/serviceable true, fly_strait
89.679459,-48.42041,-47.226963,5.943102,-0.034364,5.943102,-0.034364,-49.999859,-50.0,63.217892,59.147053,728.152222,293.948364,280.214111,0.105863,-0.151011,627.748657,0.005402,0.116506,0.070746,0.0,1.0,2642.477783, set /instrumentation/turn-indicator/serviceable true, fly_strait
89.7901,-46.442913,-45.249466,6.002262,0.300192,6.002262,0.300192,-49.999859,-50.0,65.466988,59.463943,743.307678,294.074402,280.076111,0.1266,-0.111551,639.539795,4.91E-4,0.118862,0.04758,0.0,1.0,2643.169434, set /instrumentation/turn-indicator/serviceable true, fly_strait
89.986084,-43.027412,-41.833969,6.062176,0.79537,6.062176,0.79537,-39.999859,-40.0,69.349083,59.987312,766.116211,293.929657,279.842621,0.15331,-0.110498,659.943115,-0.004288,0.120045,0.041278,0.0,1.0,2644.287109, set /instrumentation/turn-indicator/serviceable true, fly_strait
90.121819,-40.749702,-39.556259,6.095657,0.949862,6.095657,0.949862,-39.999859,-40.0,71.924461,60.32058,778.368347,293.652161,279.689484,0.15089,-0.141733,673.591248,-0.011362,0.121244,0.048515,0.0,1.0,2645.000732, set /instrumentation/turn-indicator/serviceable true, fly_strait
90.343117,-37.152721,-35.959274,6.14,0.790986,6.14,0.790986,-39.999859,-40.0,75.967735,60.825333,794.247742,293.174072,279.447418,0.123686,-0.198721,694.172058,-0.013569,0.121913,0.06239,0.0,1.0,2646.103027, set /instrumentation/turn-indicator/serviceable true, fly_strait
90.483673,-34.864605,-33.671158,6.170224,0.504871,6.170224,0.504871,-29.999857,-30.0,78.5196,61.133823,803.035156,292.968781,279.291748,0.097666,-0.218449,706.796082,-0.0113,0.1228,0.086295,0.0,1.0,2646.791992, set /instrumentation/turn-indicator/serviceable true, fly_strait
90.70771,-31.107426,-29.91398,6.225908,-0.033322,6.225908,-0.033322,-29.999857,-30.0,82.683212,61.621803,817.096497,292.961609,279.032806,0.063521,-0.196511,726.302551,-0.007212,0.123404,0.096559,0.0,1.0,2647.902588, set /instrumentation/turn-indicator/serviceable true, fly_strait
90.839577,-28.624454,-27.431009,6.280517,-0.294949,6.280517,-0.294949,-29.999857,-30.0,85.423996,61.9328,827.198669,293.165314,278.861176,0.054842,-0.149544,738.286194,4.76E-4,0.124518,0.096918,0.0,1.0,2648.614746, set /instrumentation/turn-indicator/serviceable true, fly_strait
90.995331,-25.043243,-23.849798,6.371029,-0.359314,6.371029,-0.359314,-29.999857,-30.0,89.369347,62.365608,843.66449,293.599091,278.618591,0.063863,-0.062345,754.850342,0.004214,0.12561,0.086732,0.0,1.0,2649.588135, set /instrumentation/turn-indicator/serviceable true, fly_strait
91.094559,-22.255028,-21.061583,6.44621,-0.172892,6.44621,-0.172892,-19.999857,-20.0,92.441902,62.690155,857.78418,293.913422,278.437683,0.086171,-0.00234,767.219604,0.005133,0.127421,0.065044,0.0,1.0,2650.289551, set /instrumentation/turn-indicator/serviceable true, fly_strait
91.21711,-18.318521,-17.125076,6.517366,0.285922,6.517366,0.285922,-19.999857,-20.0,96.782692,63.130035,877.659424,294.106201,278.199127,0.120734,0.035447,784.443726,0.00247,0.128924,0.049327,0.0,1.0,2651.197021, set /instrumentation/turn-indicator/serviceable true, fly_strait
91.303459,-15.648348,-14.454904,6.54929,0.582329,6.54929,0.582329,-19.999857,-20.0,99.72892,63.417191,889.397705,294.032227,278.049072,0.135278,0.025361,795.749023,-0.004085,0.130347,0.039688,0.0,1.0,2651.774658, set /instrumentation/turn-indicator/serviceable true, fly_strait
91.444405,-11.567966,-10.374522,6.57817,0.77991,6.57817,0.77991,-9.999858,-10.0,104.21434,63.839134,903.661682,293.687103,277.836426,0.135348,-0.029181,812.955872,-0.008319,0.130986,0.043387,0.0,1.0,2652.623535, set /instrumentation/turn-indicator/serviceable true, fly_strait
91.553528,-8.916843,-7.723399,6.596122,0.713926,6.596122,0.713926,-9.999858,-10.0,107.113319,64.103477,910.906921,293.415131,277.706818,0.120143,-0.071322,823.850464,-0.011142,0.131563,0.060643,0.0,1.0,2653.154297, set /instrumentation/turn-indicator/serviceable true, fly_strait
91.715126,-4.58695,-3.393506,6.624862,0.333306,6.624862,0.333306,1.42E-4,0.0,111.82177,64.520645,921.106995,293.124298,277.50528,0.08548,-0.112414,840.780396,-0.010199,0.131922,0.074242,0.0,1.0,2653.999512, set /instrumentation/turn-indicator/serviceable true, fly_strait
91.825859,-1.859384,-0.66594,6.650012,0.031515,6.650012,0.031515,1.42E-4,0.0,114.774483,64.775078,927.352356,293.106384,277.383789,0.065289,-0.110137,850.734619,-0.004762,0.132497,0.088783,0.0,1.0,2654.522217, set /instrumentation/turn-indicator/serviceable true, fly_strait
91.97039,2.774342,3.967787,6.707947,-0.306804,6.707947,-0.306804,1.42E-4,0.0,119.568771,65.176476,938.54303,293.35788,277.196136,0.051527,-0.059985,866.283081,-4.5E-4,0.133,0.089679,0.0,1.0,2655.3479, set /instrumentation/turn-indicator/serviceable true, fly_strait
92.051918,5.839473,7.032917,6.762316,-0.354041,6.762316,-0.354041,10.000142,10.0,122.711937,65.431473,947.250488,293.633759,277.082001,0.058091,-0.010692,875.947021,0.004383,0.134159,0.077104,0.0,1.0,2655.861328, set /instrumentation/turn-indicator/serviceable true, fly_strait
92.153923,10.356917,11.550362,6.836206,-0.132078,6.836206,-0.132078,10.000142,10.0,127.352432,65.795418,961.757202,293.993408,276.930786,0.085112,0.050905,889.215576,0.005058,0.135246,0.06331,0.0,1.0,2656.560059, set /instrumentation/turn-indicator/serviceable true, fly_strait
92.206482,13.623475,14.81692,6.879601,0.152153,6.879601,0.152153,10.000142,10.0,130.710724,66.049492,972.185913,294.117767,276.835907,0.105454,0.070717,898.601563,0.001887,0.136724,0.045328,0.0,1.0,2657.022217, set /instrumentation/turn-indicator/serviceable true, fly_strait
92.3022,18.251509,19.444954,6.913541,0.519903,6.913541,0.519903,20.000143,20.0,135.469849,66.397026,984.970642,294.026031,276.722137,0.125819,0.052535,911.611084,-0.002174,0.137592,0.03911,0.0,1.0,2657.634766, set /instrumentation/turn-indicator/serviceable true, fly_strait
92.357803,21.331379,22.524824,6.928007,0.648889,6.928007,0.648889,20.000143,20.0,138.627563,66.620407,991.577332,293.829285,276.658356,0.126382,0.018397,920.323303,-0.007427,0.138271,0.043697,0.0,1.0,2658.02832, set /instrumentation/turn-indicator/serviceable true, fly_strait
92.485443,26.474499,27.667942,6.942622,0.546617,6.942622,0.546617,30.000143,30.0,143.884689,66.981293,999.880859,293.448212,276.567841,0.105317,-0.045334,934.174561,-0.00927,0.13856,0.053534,0.0,1.0,2658.682861, set /instrumentation/turn-indicator/serviceable true, fly_strait
92.567375,29.757145,30.95059,6.952233,0.32155,6.952233,0.32155,30.000143,30.0,147.22522,67.204269,1004.234985,293.278107,276.517792,0.084731,-0.072099,942.62616,-0.007809,0.138852,0.072588,0.0,1.0,2659.102783, set /instrumentation/turn-indicator/serviceable true, fly_strait
92.683121,34.44754,35.640984,6.972023,-0.060901,6.972023,-0.060901,30.000143,30.0,151.982315,67.513802,1010.421143,293.260895,276.454254,0.059281,-0.071089,954.01355,-0.004594,0.139045,0.081093,0.0,1.0,2659.705322, set /instrumentation/turn-indicator/serviceable true, fly_strait
92.765915,38.064732,39.258175,7.002453,-0.282203,7.002453,-0.282203,40.000141,40.0,155.641052,67.745468,1015.931335,293.425964,276.411743,0.049817,-0.041022,962.287842,8.7E-4,0.13944,0.081953,0.0,1.0,2660.164063, set /instrumentation/turn-indicator/serviceable true, fly_strait
92.855354,43.115215,44.308659,7.061841,-0.320316,7.061841,-0.320316,40.000141,40.0,160.74472,68.058815,1025.674072,293.784912,276.364044,0.059392,0.020605,973.212036,0.004031,0.140049,0.0737,0.0,1.0,2660.775391, set /instrumentation/turn-indicator/serviceable true, fly_strait
92.901649,46.505169,47.698612,7.104775,-0.173896,7.104775,-0.173896,50.000141,50.0,164.176895,68.262749,1033.473755,294.00531,276.341248,0.076049,0.056632,980.017212,0.004576,0.141237,0.055753,0.0,1.0,2661.156494, set /instrumentation/turn-indicator/serviceable true, fly_strait
92.965538,51.488106,52.681549,7.143825,0.177934,7.143825,0.177934,50.000141,50.0,169.22995,68.552864,1044.953979,294.13623,276.322632,0.104068,0.07508,989.796692,0.002484,0.142096,0.044733,0.0,1.0,2661.671875, set /instrumentation/turn-indicator/serviceable true, fly_strait
93.001572,54.934971,56.128414,7.159654,0.40592,7.159654,0.40592,50.000141,50.0,172.725098,68.746872,1051.717896,294.067535,276.31958,0.115158,0.060895,996.594299,-0.002542,0.142877,0.038187,0.0,1.0,2662.006592, set /instrumentation/turn-indicator/serviceable true, fly_strait
93.078781,60.294823,61.48827,7.168794,0.543142,7.168794,0.543142,60.000141,60.0,178.15213,69.038467,1059.646606,293.777863,276.327271,0.113744,0.009021,1007.095886,-0.005799,0.143193,0.041621,0.0,1.0,2662.514893, set /instrumentation/turn-indicator/serviceable true, fly_strait
93.140221,63.7967,64.990143,7.172833,0.467513,7.172833,0.467513,60.000141,60.0,181.690842,69.22303,1063.296753,293.558502,276.337616,0.100638,-0.028233,1013.651184,-0.007759,0.143376,0.056105,0.0,1.0,2662.848633, set /instrumentation/turn-indicator/serviceable true, fly_strait
93.233322,69.090759,70.284203,7.181674,0.159468,7.181674,0.159468,70.000145,70.0,187.019135,69.493492,1067.802246,293.364746,276.35675,0.07256,-0.059265,1023.436218,-0.006679,0.143457,0.067073,0.0,1.0,2663.36084, set /instrumentation/turn-indicator/serviceable false, fly_strait
93.291451,72.344055,73.537506,7.193811,-0.062425,7.193811,-0.062425,70.000145,70.0,190.286316,69.655121,1070.640259,293.371552,276.369324,0.059687,-0.273477,1029.04187,-0.002278,0.143633,0.076761,0.0,1.0,2663.679443, set /instrumentation/turn-indicator/serviceable false, fly_strait
93.378654,77.991653,79.185097,7.231665,-0.302272,7.231665,-0.302272,80.000145,80.0,195.95282,69.927719,1076.838379,293.598663,276.392456,0.049543,-0.600146,1038.02124,8.92E-4,0.143876,0.076421,0.0,1.0,2664.226807, set /instrumentation/turn-indicator/serviceable false, fly_strait
93.420181,81.579391,82.772835,7.267027,-0.308716,7.267027,-0.308716,80.000145,80.0,199.55101,70.095474,1082.052979,293.817413,276.408966,0.056902,-0.7813,1043.46814,0.004318,0.144633,0.065065,0.0,1.0,2664.559082, set /instrumentation/turn-indicator/serviceable false, fly_strait
93.472885,86.836922,88.030365,7.311852,-0.098728,7.311852,-0.098728,90.000145,90.0,204.832932,70.333755,1090.935059,294.074371,276.437836,0.080315,-1.014977,1050.981567,0.00441,0.145341,0.054127,0.0,1.0,2665.010254, set /instrumentation/turn-indicator/serviceable false, fly_strait
93.498688,90.464577,91.65802,7.334763,0.122633,7.334763,0.122633,90.000145,90.0,208.479965,70.492737,1097.030884,294.139221,276.461456,0.096114,-1.156577,1056.19165,0.00141,0.146237,0.04128,0.0,1.0,2665.296631, set /instrumentation/turn-indicator/serviceable false, fly_strait
93.535492,95.940506,97.133949,7.347415,0.395362,7.347415,0.395362,100.000145,100.0,213.985825,70.724594,1104.64917,294.022614,276.501923,0.109521,-1.344067,1064.093628,-0.001752,0.146695,0.038037,0.0,1.0,2665.705322, set /instrumentation/turn-indicator/serviceable false, fly_strait
93.576538,99.765114,100.958565,7.349372,0.465538,7.349372,0.465538,100.000145,100.0,217.828339,70.881172,1108.296997,293.833832,276.531738,0.106618,-1.458644,1069.4823,-0.005648,0.146948,0.043867,0.0,1.0,2665.986084, set /instrumentation/turn-indicator/serviceable false, fly_strait
93.64447,105.30555,106.498993,7.34909,0.328973,7.34909,0.328973,100.000145,100.0,223.379532,71.10067,1111.8125,293.560852,276.57309,0.087375,-1.603978,1077.210327,-0.006651,0.146987,0.053307,0.0,1.0,2666.398682, set /instrumentation/turn-indicator/serviceable false, fly_strait
93.699371,108.855736,110.049179,7.35132,0.14137,7.35132,0.14137,110.000145,110.0,226.934052,71.237419,1113.536377,293.461365,276.596619,0.070867,-1.686023,1081.610962,-0.0047,0.146982,0.066956,0.0,1.0,2666.67041, set /instrumentation/turn-indicator/serviceable false, fly_strait
93.759911,114.288963,115.482407,7.365926,-0.153483,7.365926,-0.153483,110.000145,110.0,232.354095,71.440437,1116.504395,293.500885,276.626587,0.053239,-1.796693,1088.47937,-0.00202,0.147026,0.07193,0.0,1.0,2667.091797, set /instrumentation/turn-indicator/serviceable false, fly_strait
93.80407,118.337868,119.531319,7.388891,-0.288735,7.388891,-0.288735,120.000145,120.0,236.391571,71.587257,1119.686035,293.659882,276.644592,0.049411,-1.869045,1093.119873,0.002193,0.147319,0.069954,0.0,1.0,2667.40332, set /instrumentation/turn-indicator/serviceable false, fly_strait
93.848984,123.964752,125.158195,7.428927,-0.252123,7.428927,-0.252123,120.000145,120.0,242.004929,71.784706,1125.772461,293.940735,276.665619,0.06149,-1.957102,1099.15625,0.004125,0.147778,0.062004,0.0,1.0,2667.815186, set /instrumentation/turn-indicator/serviceable false, fly_strait
93.867691,127.72879,128.922226,7.454862,-0.105111,7.454862,-0.105111,130.000137,130.0,245.765762,71.912468,1130.614746,294.085266,276.678467,0.075885,-2.008868,1102.981445,0.003602,0.148579,0.047961,0.0,1.0,2668.070068, set /instrumentation/turn-indicator/serviceable false, fly_strait
93.890121,133.086121,134.279572,7.473523,0.165394,7.473523,0.165394,130.000137,130.0,251.121246,72.08812,1137.17041,294.127533,276.696136,0.094685,-2.073868,1108.574341,0.001502,0.149097,0.040735,0.0,1.0,2668.406006, set /instrumentation/turn-indicator/serviceable false, fly_strait
93.914375,137.199036,138.392487,7.478415,0.327785,7.478415,0.327785,140.000137,140.0,255.235245,72.218323,1141.033691,294.026093,276.708862,0.102192,-2.117706,1112.752686,-0.002363,0.14947,0.038622,0.0,1.0,2668.6521, set /instrumentation/turn-indicator/serviceable false, fly_strait
93.958328,142.918335,144.111771,7.476182,0.361371,7.476182,0.361371,140.000137,140.0,260.950226,72.393066,1144.504028,293.779816,276.723053,0.095643,-2.17106,1118.511841,-0.004683,0.149568,0.043694,0.0,1.0,2668.993164, set /instrumentation/turn-indicator/serviceable false, fly_strait
93.995697,146.742676,147.936127,7.473666,0.25782,7.473666,0.25782,150.000137,150.0,264.767731,72.506218,1145.848022,293.623596,276.728577,0.083076,-2.202425,1122.115601,-0.005162,0.149524,0.056007,0.0,1.0,2669.227295, set /instrumentation/turn-indicator/serviceable false, fly_strait
94.051308,152.505234,153.698685,7.476089,-0.008672,7.476089,-0.008672,150.000137,150.0,270.501099,72.671204,1147.476563,293.529419,276.728821,0.061154,-2.243955,1127.704102,-0.003683,0.149473,0.063818,0.0,1.0,2669.590332, set /instrumentation/turn-indicator/serviceable false, fly_strait
94.083549,156.034637,157.228088,7.484429,-0.168183,7.484429,-0.168183,160.000137,160.0,274.009308,72.769279,1148.81189,293.575439,276.723999,0.053007,-2.266427,1130.807861,1.24E-4,0.149522,0.068527,0.0,1.0,2669.816895, set /instrumentation/turn-indicator/serviceable false, fly_strait
94.140007,161.979843,163.173294,7.511754,-0.290115,7.511754,-0.290115,160.000137,160.0,279.921448,72.929451,1152.353882,293.788879,276.708801,0.051285,-2.299862,1135.439209,0.002403,0.149689,0.066226,0.0,1.0,2670.194092, set /instrumentation/turn-indicator/serviceable false, fly_strait
94.150475,165.848618,167.042068,7.535432,-0.248165,7.535432,-0.248165,170.000137,170.0,283.768188,73.030037,1155.69812,293.956696,276.695679,0.060077,-2.318945,1138.432739,0.004145,0.150235,0.055554,0.0,1.0,2670.427002, set /instrumentation/turn-indicator/serviceable false, fly_strait
94.167908,171.835388,173.028839,7.562648,-0.027157,7.562648,-0.027157,170.000137,170.0,289.722717,73.179855,1161.588013,294.118256,276.673126,0.079947,-2.344863,1143.202393,0.003545,0.150709,0.047163,0.0,1.0,2670.759277, set /instrumentation/turn-indicator/serviceable false, fly_strait
94.181541,175.726563,176.920013,7.572997,0.145806,7.572997,0.145806,180.000137,180.0,293.600952,73.273621,1165.14502,294.118835,276.657776,0.090771,-2.359655,1146.040527,3.88E-4,0.151253,0.039085,0.0,1.0,2670.960449, set /instrumentation/turn-indicator/serviceable false, fly_strait
94.204109,181.583908,182.777359,7.57322,0.305446,7.57322,0.305446,180.000137,180.0,299.437592,73.409447,1169.022095,293.967743,276.633423,0.096236,-2.379242,1150.456909,-0.002083,0.15146,0.039056,0.0,1.0,2671.25293, set /instrumentation/turn-indicator/serviceable false, fly_strait
94.23629,185.33548,186.528931,7.569226,0.307756,7.569226,0.307756,180.000137,180.0,303.174377,73.49337,1170.369385,293.819763,276.61618,0.090431,-2.3903,1153.164551,-0.004364,0.151464,0.046611,0.0,1.0,2671.44165, set /instrumentation/turn-indicator/serviceable false, fly_strait
94.267319,191.062592,192.256042,7.564244,0.151431,7.564244,0.151431,190.000137,190.0,308.866547,73.617111,1171.401367,293.63623,276.585541,0.074521,-2.405215,1157.38916,-0.004397,0.151385,0.05401,0.0,1.0,2671.739014, set /instrumentation/turn-indicator/serviceable false, fly_strait
94.298813,194.994965,196.188416,7.564476,-0.015733,7.564476,-0.015733,190.000137,190.0,312.772186,73.699326,1171.964844,293.590057,276.560791,0.06206,-2.414253,1159.966309,-0.002163,0.151285,0.063187,0.0,1.0,2671.950928, set /instrumentation/turn-indicator/serviceable false, fly_strait
94.34523,201.23204,202.425491,7.577647,-0.236749,7.577647,-0.236749,200.000137,200.0,318.961395,73.825188,1173.602783,293.687073,276.515808,0.049222,-2.426833,1163.725342,2.25E-4,0.15129,0.065495,0.0,1.0,2672.293457, set /instrumentation/turn-indicator/serviceable false, fly_strait
94.372765,205.00975,206.203201,7.593585,-0.28861,7.593585,-0.28861,200.000137,200.0,322.713287,73.898735,1175.45874,293.819672,276.486145,0.050869,-2.433533,1165.658936,0.003382,0.151553,0.060644,0.0,1.0,2672.498291, set /instrumentation/turn-indicator/serviceable false, fly_strait
94.381874,211.104324,212.29776,7.620872,-0.191314,7.620872,-0.191314,210.000137,210.0,328.764374,74.012741,1179.635742,294.031494,276.437469,0.064253,-2.443047,1169.005615,0.004123,0.151872,0.054015,0.0,1.0,2672.80957, set /instrumentation/turn-indicator/serviceable false, fly_strait
94.388603,215.06543,216.258881,7.636248,-0.050134,7.636248,-0.050134,210.000137,210.0,332.701874,74.083778,1182.763916,294.111023,276.406647,0.075965,-2.448478,1171.132935,0.002733,0.152417,0.043423,0.0,1.0,2672.996826, set /instrumentation/turn-indicator/serviceable false, fly_strait
94.407578,220.853058,222.046509,7.643724,0.159648,7.643724,0.159648,220.000137,220.0,338.462036,74.183289,1186.791016,294.085083,276.363892,0.089496,-2.455483,1174.164673,7.16E-4,0.152725,0.039447,0.0,1.0,2673.254395, set /instrumentation/turn-indicator/serviceable false, fly_strait
94.408646,224.998856,226.192291,7.641895,0.247598,7.641895,0.247598,220.000137,220.0,342.586395,74.251534,1188.636719,293.97644,276.334717,0.090968,-2.459895,1176.48645,-0.002281,0.152874,0.040744,0.0,1.0,2673.433838, set /instrumentation/turn-indicator/serviceable false, fly_strait
94.440445,230.981339,232.174774,7.634896,0.210641,7.634896,0.210641,230.000137,230.0,348.533356,74.345963,1189.885254,293.778839,276.293274,0.081514,-2.465492,1179.776978,-0.003537,0.152838,0.046176,0.0,1.0,2673.697998, set /instrumentation/turn-indicator/serviceable false, fly_strait
94.461037,234.979279,236.172729,7.63094,0.098284,7.63094,0.098284,230.000137,230.0,352.500183,74.406555,1190.152344,293.679047,276.265076,0.070486,-2.468783,1182.015381,-0.003009,0.152698,0.056056,0.0,1.0,2673.880859, set /instrumentation/turn-indicator/serviceable false, fly_strait
94.501404,240.977356,242.170792,7.633037,-0.115758,7.633037,-0.115758,240.000137,240.0,358.451965,74.494072,1190.642456,293.658875,276.221222,0.054771,-2.47314,1184.770752,-0.001404,0.152619,0.061046,0.0,1.0,2674.166504, set /instrumentation/turn-indicator/serviceable false, fly_strait
94.52211,244.981125,246.174576,7.641441,-0.225788,7.641441,-0.225788,240.000137,240.0,362.422119,74.550186,1191.504272,293.734589,276.191315,0.050204,-2.475701,1186.498535,0.001654,0.152661,0.062054,0.0,1.0,2674.359863, set /instrumentation/turn-indicator/serviceable false, turn_+45
94.543114,250.831528,252.024963,7.66261,-0.273337,7.66261,-0.273337,250.000137,250.0,368.219543,74.628677,1193.872681,293.958801,276.148438,0.045144,-2.479005,1189.085815,0.001075,0.152829,0.1,0.0,1.0,2674.634766, set /instrumentation/turn-indicator/serviceable false, turn_+45
94.533897,254.986755,256.180206,7.685486,-0.210139,7.685486,-0.210139,250.000137,250.0,372.369385,74.682159,1196.484497,294.235626,276.120178,0.052142,-2.481086,1189.397949,0.001302,0.153252,0.1,0.0,1.0,2674.81665, set /instrumentation/turn-indicator/serviceable false, turn_+45
94.505852,261.033325,262.226746,7.721564,0.099581,7.721564,0.099581,260.000153,260.0,378.364288,74.755058,1201.591919,294.676849,276.087219,0.079116,-2.483725,1192.797119,0.001001,0.15371,0.1,0.0,1.0,2675.032471, set /instrumentation/turn-indicator/serviceable false, turn_+45
94.475006,265.069183,266.262634,7.74225,0.432448,7.74225,0.432448,260.000153,260.0,382.376556,74.800812,1205.666626,294.923187,276.072784,0.102421,-2.485277,1194.861206,-4.74E-4,0.154431,0.1,0.0,1.0,2675.142334, set /instrumentation/turn-indicator/serviceable false, turn_+45
94.424126,271.135345,272.328796,7.752441,1.017961,7.752441,1.017961,270.000153,270.0,388.420074,74.865028,1211.304443,295.148071,276.065125,0.135151,-2.487332,1197.958984,-0.002059,0.154845,0.1,0.0,1.0,2675.263184, set /instrumentation/turn-indicator/serviceable false, turn_+45
94.394051,275.189117,276.382568,7.751125,1.405165,7.751125,1.405165,270.000153,270.0,392.462585,74.904984,1213.938965,295.197113,276.069946,0.150665,-2.48854,1200.092773,-0.004847,0.155049,0.1,0.0,1.0,2675.324951, set /instrumentation/turn-indicator/serviceable false, turn_+45
94.360077,281.284576,282.477997,7.743609,1.875337,7.743609,1.875337,280.000153,280.0,398.538574,74.960922,1216.009033,295.165039,276.091522,0.160883,-2.490139,1203.385376,-0.006691,0.155023,0.1,0.0,1.0,2675.409424, set /instrumentation/turn-indicator/serviceable false, turn_+45
94.344902,285.357086,286.550507,7.737462,2.095084,7.737462,2.095084,280.000153,280.0,402.592529,74.995789,1216.220581,295.117126,276.114441,0.159457,-2.49108,1205.582886,-0.00893,0.154872,0.1,0.0,1.0,2675.468994, set /instrumentation/turn-indicator/serviceable false, turn_+45
94.330711,291.476196,292.669647,7.729072,2.277428,7.729072,2.277428,290.000153,290.0,408.671936,75.044861,1215.38855,295.080414,276.159729,0.149388,-2.492324,1208.740479,-0.009977,0.154749,0.1,0.0,1.0,2675.570557, set /instrumentation/turn-indicator/serviceable false, turn_+45
94.324593,295.559235,296.752686,7.722955,2.330697,7.722955,2.330697,290.000153,290.0,412.721619,75.075615,1214.417603,295.110352,276.19635,0.140859,-2.493056,1210.615601,-0.010845,0.154581,0.1,0.0,1.0,2675.647705, set /instrumentation/turn-indicator/serviceable false, turn_+45
94.31649,301.689941,302.883392,7.71583,2.366775,7.71583,2.366775,300.000153,300.0,418.789764,75.119034,1212.922363,295.256104,276.260498,0.130703,-2.494025,1213.185547,-0.011099,0.154459,0.1,0.0,1.0,2675.773193, set /instrumentation/turn-indicator/serviceable true, turn_+45
94.309227,305.778168,306.971619,7.712453,2.397611,7.712453,2.397611,310.000153,310.0,422.831512,75.146225,1212.197388,295.412506,276.309784,0.127674,-2.449575,1214.626465,-0.01127,0.154317,0.1,0.0,1.0,2675.860107, set /instrumentation/turn-indicator/serviceable true, turn_+45
94.291779,311.73465,312.928101,7.711036,2.489517,7.711036,2.489517,310.000153,310.0,428.722778,75.183411,1211.783691,295.691742,276.392242,0.129522,-2.266713,1216.100586,-0.011417,0.154249,0.1,0.0,1.0,2675.984375, set /instrumentation/turn-indicator/serviceable true, turn_+45
94.277718,315.994385,317.187836,7.711112,2.597543,7.711112,2.597543,320.000153,320.0,432.930603,75.208145,1211.9552,295.901886,276.459747,0.134099,-2.085303,1217.205811,-0.011855,0.154221,0.1,0.0,1.0,2676.067139, set /instrumentation/turn-indicator/serviceable true, turn_+45
94.252228,322.126648,323.320099,7.710886,2.800486,7.710886,2.800486,320.000153,320.0,438.991852,75.241112,1212.559082,296.18335,276.570923,0.143226,-1.798385,1218.43335,-0.012369,0.154222,0.1,0.0,1.0,2676.175537, set /instrumentation/turn-indicator/serviceable true, turn_+45
94.234657,326.214661,327.408112,7.709813,2.951749,7.709813,2.951749,330.000153,330.0,443.034454,75.26136,1212.960327,296.345123,276.654663,0.148995,-1.610611,1219.103638,-0.013336,0.154218,0.1,0.0,1.0,2676.241699, set /instrumentation/turn-indicator/serviceable true, turn_+45
94.210228,332.346832,333.540283,7.706503,3.165639,7.706503,3.165639,330.000153,330.0,449.100159,75.289246,1213.223389,296.547607,276.7948,0.154945,-1.354144,1219.952637,-0.014056,0.154196,0.1,0.0,1.0,2676.335693, set /instrumentation/turn-indicator/serviceable true, turn_+45
94.196182,336.435059,337.62851,7.703137,3.287511,7.703137,3.287511,340.000153,340.0,453.144043,75.306274,1213.056396,296.663879,276.897644,0.156482,-1.203821,1220.433594,-0.015074,0.15413,0.1,0.0,1.0,2676.397949, set /instrumentation/turn-indicator/serviceable true, turn_+45
94.178833,342.567047,343.760498,7.697285,3.422198,7.697285,3.422198,340.000153,340.0,459.207642,75.329636,1212.306152,296.831696,277.065155,0.155485,-1.006484,1221.030518,-0.015655,0.154063,0.1,0.0,1.0,2676.494629, set /instrumentation/turn-indicator/serviceable true, turn_+45
94.169205,346.653107,347.846558,7.692485,3.483608,7.692485,3.483608,350.000153,350.0,463.247406,75.343872,1211.541748,296.951599,277.18512,0.153364,-0.889746,1221.284668,-0.016296,0.153946,0.1,0.0,1.0,2676.562744, set /instrumentation/turn-indicator/serviceable true, turn_+45
94.166801,352.608673,353.802124,7.685738,3.54212,7.685738,3.54212,350.000153,350.0,469.133667,75.362846,1210.259644,297.151764,277.371063,0.149671,-0.735813,1221.447632,-0.016589,0.15385,0.1,0.0,1.0,2676.66748, set /instrumentation/turn-indicator/serviceable true, turn_+45
