airspeed_indicator_indicated_speed_kt,altimeter_indicated_altitude_ft,altimeter_pressure_alt_ft,attitude_indicator_indicated_pitch_deg,attitude_indicator_indicated_roll_deg,attitude_indicator_internal_pitch_deg,attitude_indicator_internal_roll_deg,encoder_indicated_altitude_ft,encoder_pressure_alt_ft,gps_indicated_altitude_ft,gps_indicated_ground_speed_kt,gps_indicated_vertical_speed,indicated_heading_deg,magnetic_compass_indicated_heading_deg,slip_skid_ball_indicated_slip_skid,turn_indicator_indicated_turn_rate,vertical_speed_indicator_indicated_speed_fpm,flight_aileron,flight_elevator,flight_rudder,flight_flaps,engine_throttle,engine_rpm,Command_fault,Command
4.092862,-97.111435,-95.917992,2.978945,1.399423,2.595002,0.119616,-99.999855,-100.0,2.286699,0.0,0.006699,297.865326,288.152649,0.008372,-0.032424,-11.240983,-0.0,0.0,0.0,0.0,0.0,599.334656,, takeoff
4.146527,-97.119263,-95.925819,2.936116,1.257874,2.594873,0.120397,-99.999855,-100.0,2.286731,0.0,0.003618,297.864136,291.072998,0.008145,-0.027996,-12.272809,-0.019992,0.0519,0.0,0.0,1.0,607.800842,, takeoff
4.18679,-97.123291,-95.929848,2.786108,0.779756,2.588346,0.12055,-99.999855,-100.0,2.286721,2.6E-5,-0.009781,297.863312,292.87735,0.007952,-0.025442,-18.513672,-0.01797,0.051897,5.9E-5,0.0,1.0,668.483032,, takeoff
4.263681,-97.128471,-95.935028,2.582076,0.221272,2.551217,0.118409,-99.999855,-100.0,2.286596,2.27E-4,-0.033865,297.861725,295.630646,0.007532,-0.021814,-18.628084,-0.011139,0.051767,1.01E-4,0.0,1.0,859.676147,, takeoff
4.341225,-97.13092,-95.937477,2.52622,0.114928,2.52622,0.114928,-99.999855,-100.0,2.286532,7.76E-4,-0.003383,297.860565,297.146881,0.007682,-0.019975,-18.229361,-0.003161,0.051024,1.8E-4,0.0,1.0,1007.132507,, takeoff
4.546109,-97.133904,-95.94046,2.523669,0.105834,2.523669,0.105834,-99.999855,-100.0,2.286682,0.004071,0.059456,297.858093,299.275818,0.00736,-0.017583,-7.042807,-0.001642,0.050524,2.38E-4,0.0,1.0,1251.842407,, takeoff
4.759889,-97.135468,-95.942024,2.541256,0.097369,2.541256,0.097369,-99.999855,-100.0,2.286973,0.009586,0.104441,297.855591,300.570862,0.009076,-0.016326,-16.103088,-0.001512,0.050473,3.62E-4,0.0,1.0,1415.998779,, takeoff
4.759889,-97.135468,-95.942024,2.541256,0.097369,2.541256,0.097369,-99.999855,-100.0,2.286973,0.009586,0.104441,297.855591,300.570862,0.009076,-0.016326,-16.103088,-0.001512,0.050473,3.62E-4,0.0,1.0,1415.998779,, takeoff
5.505527,-97.137924,-95.944481,2.604638,0.075397,2.604638,0.075397,-99.999855,-100.0,2.288185,0.039894,0.194344,297.839996,302.972778,0.023135,-0.015459,-15.710307,-0.001391,0.050825,4.87E-4,0.0,1.0,1737.978516,, takeoff
6.159544,-97.138573,-95.945129,2.645984,0.061555,2.645984,0.061555,-99.999855,-100.0,2.289336,0.078437,0.252929,297.815247,304.081818,0.032569,-0.01727,-18.264288,-0.001077,0.052093,0.001266,0.0,1.0,1894.307251,, takeoff
6.635791,-97.13871,-95.945267,2.667444,0.054623,2.667444,0.054623,-99.999855,-100.0,2.290215,0.11227,0.281903,297.790924,304.593109,0.041021,-0.019604,-18.752159,-8.79E-4,0.05292,0.002504,0.0,1.0,1971.762329,, takeoff
7.397726,-97.138565,-95.945122,2.691097,0.047477,2.691097,0.047477,-99.999855,-100.0,2.29172,0.176348,0.33764,297.74353,305.080688,0.035323,-0.024422,-18.229753,-7.8E-4,0.053349,0.00372,0.0,1.0,2059.391602,, takeoff
7.981845,-97.138229,-95.944786,2.703522,0.044578,2.703522,0.044578,-99.999855,-100.0,2.292974,0.233549,0.382726,297.699829,305.246124,0.032313,-0.028957,-16.964878,-6.78E-4,0.053822,0.00609,0.0,1.0,2106.616211,, takeoff
8.866131,-97.137436,-95.943985,2.71524,0.043647,2.71524,0.043647,-99.999855,-100.0,2.295065,0.333471,0.452733,297.624176,305.227295,0.028118,-0.036615,-13.436319,-6.37E-4,0.05407,0.008275,0.0,1.0,2156.948975,, takeoff
9.763118,-97.136299,-95.942856,2.721842,0.046066,2.721842,0.046066,-99.999855,-100.0,2.297449,0.451004,0.525855,297.535583,304.933105,0.024206,-0.045283,-5.332323,-6.24E-4,0.054305,0.012057,0.0,1.0,2190.571289,, takeoff
10.393013,-97.135315,-95.941872,2.724397,0.049419,2.724397,0.049419,-99.999855,-100.0,2.299296,0.543345,0.578946,297.467285,304.584137,0.021605,-0.051675,10.151087,-6.58E-4,0.054437,0.016487,0.0,1.0,2207.069092,, takeoff
11.05898,-97.134125,-95.940681,2.72582,0.054101,2.72582,0.054101,-99.999855,-100.0,2.301412,0.649692,0.638167,297.392548,304.101776,0.019287,-0.058179,16.232349,-7.06E-4,0.054488,0.019902,0.0,1.0,2219.893799,, takeoff
12.000625,-97.132141,-95.938698,2.726666,0.062607,2.726666,0.062607,-99.999855,-100.0,2.304715,0.815869,0.71906,297.285065,303.238953,0.01554,-0.066611,13.639627,-7.73E-4,0.054516,0.023639,0.0,1.0,2232.119873,, takeoff
12.67869,-97.130501,-95.937057,2.726851,0.069811,2.726851,0.069811,-99.999855,-100.0,2.307323,0.946761,0.779119,297.204926,302.50116,0.012797,-0.072438,8.050217,-8.94E-4,0.054533,0.029013,0.0,1.0,2237.748535,, takeoff
13.658802,-97.1278,-95.934357,2.726782,0.08149,2.726782,0.08149,-99.999855,-100.0,2.311448,1.152755,0.866878,297.090637,301.282776,0.009067,-0.079552,9.179822,-9.97E-4,0.054537,0.03302,0.0,1.0,2242.538574,, takeoff
14.613116,-97.124794,-95.931343,2.726728,0.094321,2.726728,0.094321,-99.999855,-100.0,2.315881,1.372383,0.953097,296.980438,299.947601,0.005457,-0.085347,11.968798,-0.001164,0.054536,0.038734,0.0,1.0,2245.506592,, takeoff
15.267201,-97.122505,-95.929054,2.726827,0.10391,2.726827,0.10391,-99.999855,-100.0,2.319164,1.53373,1.012787,296.908264,298.961151,0.003217,-0.088276,10.479708,-0.001287,0.054535,0.042542,0.0,1.0,2247.790039,, takeoff
15.921443,-97.120026,-95.926582,2.727193,0.114178,2.727193,0.114178,-99.999855,-100.0,2.322647,1.703622,1.072678,296.836182,297.927826,6.47E-4,-0.090938,9.768704,-0.001484,0.054537,0.047853,0.0,1.0,2250.151611,, takeoff
16.93,-97.115845,-95.922401,2.728229,0.130619,2.728229,0.130619,-99.999855,-100.0,2.328407,1.981894,1.165328,296.728271,296.264587,-0.003054,-0.094003,17.740509,-0.001631,0.054544,0.051457,0.0,1.0,2253.780518,, takeoff
17.557037,-97.113022,-95.919579,2.729375,0.140144,2.729375,0.140144,-99.999855,-100.0,2.33223,2.164639,1.225521,296.661865,295.200714,-0.005996,-0.095594,18.733431,-0.001866,0.054565,0.056853,0.0,1.0,2255.976074,, takeoff
18.562166,-97.108101,-95.914658,2.73214,0.152123,2.73214,0.152123,-99.999855,-100.0,2.338766,2.473886,1.316262,296.56601,293.464569,-0.00958,-0.096115,17.837111,-0.002002,0.054587,0.060173,0.0,1.0,2259.369385,, takeoff
19.4834,-97.10318,-95.909737,2.735557,0.161101,2.735557,0.161101,-99.999855,-100.0,2.345193,2.774191,1.401174,296.492401,291.866333,-0.011464,-0.094299,16.839716,-0.002173,0.054643,0.064966,0.0,1.0,2262.328613,, takeoff
20.185705,-97.099152,-95.905708,2.738568,0.167404,2.738568,0.167404,-99.999855,-100.0,2.350378,3.013958,1.466022,296.446686,290.657623,-0.011756,-0.091439,11.500921,-0.002301,0.054711,0.068646,0.0,1.0,2264.495117,, takeoff
20.805286,-97.095406,-95.901955,2.741369,0.172583,2.741369,0.172583,-99.999855,-100.0,2.355159,3.233186,1.522698,296.414154,289.607147,-0.011392,-0.087892,17.020994,-0.002391,0.054771,0.070932,0.0,1.0,2266.348633,, takeoff
21.799032,-97.088997,-95.895554,2.74618,0.180944,2.74618,0.180944,-99.999855,-100.0,2.363232,3.599523,1.615247,296.375397,287.971405,-0.010231,-0.080788,10.03455,-0.002465,0.054827,0.072559,0.0,1.0,2269.223145,, takeoff
22.735649,-97.082512,-95.889069,2.751015,0.189166,2.751015,0.189166,-99.999855,-100.0,2.3713,3.961113,1.699993,296.345978,286.505432,-0.008636,-0.073963,16.694178,-0.002585,0.054924,0.074496,0.0,1.0,2271.841553,, takeoff
23.376785,-97.077827,-95.884384,2.754406,0.195258,2.754406,0.195258,-99.999855,-100.0,2.377073,4.217263,1.75918,296.325867,285.556091,-0.007966,-0.069848,14.479097,-0.002702,0.05502,0.075967,0.0,1.0,2273.591309,, takeoff
24.336662,-97.070435,-95.876991,2.759976,0.205033,2.759976,0.205033,-99.999855,-100.0,2.386132,4.613623,1.883384,296.291138,284.230682,-0.007828,-0.06514,12.712092,-0.002789,0.055088,0.076973,0.0,1.0,2276.161133,, takeoff
25.002106,-97.06501,-95.871559,2.767703,0.216883,2.767703,0.216883,-99.999855,-100.0,2.393092,4.8972,2.039944,296.260468,283.387054,-0.008213,-0.063197,14.207856,-0.002929,0.0552,0.078709,0.0,1.0,2277.914551,, takeoff
25.613443,-97.059746,-95.866302,2.772775,0.225927,2.772775,0.225927,-99.999855,-100.0,2.399967,5.163948,2.186757,296.226379,282.670685,-0.010487,-0.062579,14.52128,-0.003098,0.055354,0.080243,0.0,1.0,2279.51001,, takeoff
26.542812,-97.051208,-95.857765,2.777445,0.237563,2.777445,0.237563,-99.999855,-100.0,2.410827,5.580342,2.276895,296.164032,281.696594,-0.0152,-0.063416,17.880796,-0.003228,0.055455,0.081947,0.0,1.0,2281.912354,, takeoff
27.497408,-97.041817,-95.848373,2.782536,0.249616,2.782536,0.249616,-99.999855,-100.0,2.422469,6.021401,2.374168,296.086365,280.846893,-0.021111,-0.06625,13.236406,-0.003394,0.055549,0.085065,0.0,1.0,2284.359131,, takeoff
28.186312,-97.034676,-95.841232,2.786581,0.25836,2.786581,0.25836,-99.999855,-100.0,2.431181,6.347731,2.449166,296.023285,280.331757,-0.025726,-0.069119,8.639778,-0.003566,0.055651,0.088948,0.0,1.0,2286.11499,, takeoff
28.79339,-97.028099,-95.834656,2.790225,0.265558,2.790225,0.265558,-99.999855,-100.0,2.439101,6.64169,2.507583,295.966125,279.945496,-0.030034,-0.071578,16.097296,-0.003691,0.055732,0.092102,0.0,1.0,2287.661865,, takeoff
29.741619,-97.017372,-95.823929,2.796278,0.276361,2.796278,0.276361,-99.999855,-100.0,2.4519,7.111459,2.606363,295.880615,279.471405,-0.036089,-0.074345,16.845047,-0.003794,0.055804,0.09496,0.0,1.0,2290.073242,, takeoff
30.659531,-97.006424,-95.812981,2.802585,0.28584,2.802585,0.28584,-99.999855,-100.0,2.464816,7.579108,2.700922,295.80304,279.160645,-0.040419,-0.075806,19.024246,-0.003948,0.055926,0.099236,0.0,1.0,2292.407227, set /systems/vacuum/serviceable false, takeoff
31.313356,-96.998306,-95.804863,2.807247,0.292187,2.807247,0.292187,-99.999855,-100.0,2.474324,7.919512,2.773675,295.752563,279.026794,-0.042483,-0.075957,8.400454,-0.004083,0.056052,0.103114,0.0,1.0,2294.069092, set /systems/vacuum/serviceable false, takeoff
31.911701,-96.990616,-95.797173,2.811477,0.297358,2.811477,0.297358,-99.999855,-100.0,2.483277,8.237232,2.830552,295.711304,278.966217,-0.043318,-0.075242,19.90554,-0.004174,0.056145,0.105638,0.0,1.0,2295.593994, set /systems/vacuum/serviceable false, takeoff
32.871002,-96.977798,-95.784355,2.824479,0.305316,2.824479,0.305316,-99.999855,-100.0,2.498729,8.757205,3.2795,295.656616,278.988892,-0.043247,-0.072429,18.81394,-0.004248,0.05623,0.107701,0.0,1.0,2298.040039, set /systems/vacuum/serviceable false, takeoff
33.772274,-96.964859,-95.771408,2.832248,0.312618,2.832248,0.312618,-99.999855,-100.0,2.514874,9.258763,3.363005,295.612366,279.138123,-0.041724,-0.06905,18.279697,-0.004362,0.05649,0.110436,0.0,1.0,2300.345215, set /systems/vacuum/serviceable false, takeoff
34.388515,-96.955528,-95.762077,2.836435,0.317899,2.836435,0.317899,-99.999855,-100.0,2.526205,9.607938,3.432744,295.583557,279.306732,-0.040596,-0.066782,12.315836,-0.004466,0.056645,0.112648,0.0,1.0,2301.921875, set /systems/vacuum/serviceable false, takeoff
35.361732,-96.940063,-95.74662,2.843069,0.32667,2.843069,0.32667,-99.999855,-100.0,2.544609,10.169212,3.540735,295.537109,279.673798,-0.039155,-0.063776,11.410067,-0.004541,0.056729,0.114088,0.0,1.0,2304.412598, set /systems/vacuum/serviceable false, takeoff
35.948578,-96.930313,-95.73687,2.847259,0.332466,2.847259,0.332466,-99.999855,-100.0,2.556031,10.513777,3.605517,295.506409,279.949738,-0.03889,-0.062597,19.272806,-0.004622,0.056815,0.115599,0.0,1.0,2305.917236, set /systems/vacuum/serviceable false, takeoff
36.865475,-96.914536,-95.721092,2.85398,0.342335,2.85398,0.342335,-99.999855,-100.0,2.57434,11.060156,3.710728,295.449829,280.452423,-0.040009,-0.062312,19.806341,-0.00475,0.056945,0.117946,0.0,1.0,2308.269531, set /systems/vacuum/serviceable false, takeoff
37.475338,-96.903656,-95.710213,2.858467,0.349397,2.858467,0.349397,-99.999855,-100.0,2.586838,11.429037,3.780567,295.405212,280.829041,-0.041927,-0.06323,20.320816,-0.004891,0.05708,0.120775,0.0,1.0,2309.835938, set /systems/vacuum/serviceable false, takeoff
38.388523,-96.886848,-95.693405,2.866755,0.360103,2.866755,0.360103,-99.999855,-100.0,2.606222,11.989029,4.320624,295.330109,281.44455,-0.046731,-0.065694,12.931017,-0.004991,0.057169,0.123006,0.0,1.0,2312.184082, set /systems/vacuum/serviceable false, takeoff
39.019012,-96.874657,-95.681213,2.873696,0.366877,2.873696,0.366877,-99.999855,-100.0,2.621278,12.382449,4.340555,295.272675,281.900238,-0.050381,-0.06802,19.593952,-0.005144,0.057335,0.126761,0.0,1.0,2313.812988, set /systems/vacuum/serviceable false, takeoff
39.92514,-96.856255,-95.662811,2.882353,0.379998,2.882353,0.379998,-99.999855,-100.0,2.643375,12.955234,4.486062,295.187592,282.584961,-0.056219,-0.071226,9.774157,-0.005241,0.057474,0.129633,0.0,1.0,2316.156738, set /systems/vacuum/serviceable false, takeoff
40.526691,-96.84346,-95.650017,2.887428,0.387513,2.887428,0.387513,-99.999855,-100.0,2.658476,13.341045,4.567122,295.130219,283.053162,-0.060222,-0.073233,19.965332,-0.005429,0.057647,0.133887,0.0,1.0,2317.717529, set /systems/vacuum/serviceable false, takeoff
41.425686,-96.823563,-95.630112,2.894303,0.396706,2.894303,0.396706,-99.999855,-100.0,2.68163,13.925447,4.688043,295.049591,283.761749,-0.06516,-0.075025,11.572019,-0.005536,0.057749,0.136755,0.0,1.0,2320.055176, set /systems/vacuum/serviceable false, takeoff
41.997139,-96.81041,-95.616966,2.898839,0.402048,2.898839,0.402048,-99.999855,-100.0,2.69673,14.302256,4.759925,295.001373,284.212524,-0.067679,-0.075544,10.991174,-0.005667,0.057886,0.140787,0.0,1.0,2321.546143, set /systems/vacuum/serviceable false, takeoff
42.887238,-96.789192,-95.595749,2.910488,0.410108,2.910488,0.410108,-99.999855,-100.0,2.721431,14.897193,5.349523,294.934723,284.905212,-0.069315,-0.074832,10.32914,-0.005744,0.057977,0.143198,0.0,1.0,2323.874512, set /systems/vacuum/serviceable false, takeoff
43.45245,-96.775055,-95.581612,2.917617,0.415139,2.917617,0.415139,-99.999855,-100.0,2.738743,15.280452,5.455572,294.896362,285.334473,-0.069439,-0.073817,14.290873,-0.005859,0.05821,0.14653,0.0,1.0,2325.564209, set /systems/vacuum/serviceable false, takeoff
44.382324,-96.750618,-95.557167,2.924302,0.421309,2.924302,0.421309,-99.999855,-100.0,2.767865,15.918807,5.576694,294.839417,286.011505,-0.067733,-0.071365,19.497553,-0.005931,0.058352,0.148448,0.0,1.0,2329.710449, set /systems/vacuum/serviceable false, takeoff
44.967781,-96.73455,-95.541107,2.928622,0.425429,2.928622,0.425429,-99.999855,-100.0,2.786595,16.325155,5.661673,294.805084,286.413818,-0.066109,-0.069777,20.067932,-0.006019,0.058486,0.151295,0.0,1.0,2332.905518, set /systems/vacuum/serviceable false, takeoff
45.818279,-96.710327,-95.516884,2.935023,0.431327,2.935023,0.431327,-99.999855,-100.0,2.814393,16.921976,5.773985,294.755981,286.958923,-0.063435,-0.06759,18.471584,-0.006078,0.058572,0.153012,0.0,1.0,2338.034668, set /systems/vacuum/serviceable false, takeoff
46.400883,-96.693222,-95.499779,2.939659,0.435768,2.939659,0.435768,-99.999855,-100.0,2.833793,17.334028,5.856955,294.720245,287.300873,-0.06197,-0.06662,18.95985,-0.006162,0.0587,0.155467,0.0,1.0,2341.756592, set /systems/vacuum/serviceable false, takeoff
47.273106,-96.666832,-95.473389,2.953729,0.44953,2.953729,0.44953,-99.999855,-100.0,2.864433,17.956223,6.560506,294.662476,287.760223,-0.060499,-0.065777,16.384686,-0.006225,0.058793,0.157254,0.0,1.0,2347.526611, set /systems/vacuum/serviceable false, takeoff
47.877113,-96.647667,-95.454224,2.962537,0.457494,2.962537,0.457494,-99.999855,-100.0,2.88824,18.391098,6.89664,294.617096,288.038788,-0.061025,-0.066214,18.463459,-0.006422,0.059075,0.160142,0.0,1.0,2351.615967, set /systems/vacuum/serviceable false, takeoff
48.72253,-96.619499,-95.426056,2.967873,0.464601,2.967873,0.464601,-99.999855,-100.0,2.922054,19.003628,7.012201,294.547394,288.36972,-0.0624,-0.067739,11.645868,-0.006536,0.059251,0.162411,0.0,1.0,2357.408936, set /systems/vacuum/serviceable false, takeoff
49.325859,-96.598541,-95.405098,2.9719,0.469884,2.9719,0.469884,-99.999855,-100.0,2.946582,19.443705,7.10666,294.493317,288.562531,-0.06429,-0.069377,20.559834,-0.006637,0.059357,0.165897,0.0,1.0,2361.577637, set /systems/vacuum/serviceable false, takeoff
50.169338,-96.568199,-95.374756,2.977931,0.476467,2.977931,0.476467,-99.999855,-100.0,2.98148,20.063255,7.242855,294.416046,288.77002,-0.067452,-0.071595,16.377729,-0.006713,0.059438,0.1686,0.0,1.0,2367.441406, set /systems/vacuum/serviceable false, takeoff
50.746712,-96.546761,-95.35331,2.982419,0.480885,2.982419,0.480885,-99.999855,-100.0,3.005795,20.490334,7.336979,294.362732,288.869843,-0.069603,-0.073002,16.848902,-0.006807,0.059559,0.172464,0.0,1.0,2371.473145, set /systems/vacuum/serviceable false, takeoff
51.63496,-96.51284,-95.319397,2.989193,0.486432,2.989193,0.486432,-99.999855,-100.0,3.043894,21.152184,7.481782,294.284485,288.95639,-0.072075,-0.074266,20.709995,-0.00687,0.059648,0.17513,0.0,1.0,2377.699951, set /systems/vacuum/serviceable false, takeoff
52.209576,-96.49028,-95.296837,2.993748,0.489696,2.993748,0.489696,-99.999855,-100.0,3.069005,21.583643,7.575036,294.236206,288.969513,-0.073042,-0.074616,21.127405,-0.006949,0.059784,0.179042,0.0,1.0,2381.741699, set /systems/vacuum/serviceable false, takeoff
53.069237,-96.455696,-95.262253,3.00027,0.493298,3.00027,0.493298,-99.999855,-100.0,3.107255,22.233879,7.714748,294.17099,288.927734,-0.07269,-0.073946,21.667751,-0.006996,0.059875,0.181456,0.0,1.0,2387.805908, set /systems/vacuum/serviceable false, takeoff
53.640827,-96.432167,-95.238724,3.004779,0.49548,3.004779,0.49548,-99.999855,-100.0,3.133145,22.669327,7.808537,294.131134,288.860565,-0.07144,-0.07301,22.010588,-0.007047,0.060005,0.184717,0.0,1.0,2391.8479, set /systems/vacuum/serviceable false, takeoff
54.472137,-96.397232,-95.203789,3.011031,0.497705,3.011031,0.497705,-99.999855,-100.0,3.171453,23.307051,7.942588,294.078613,288.709534,-0.067761,-0.070939,14.454755,-0.007078,0.060096,0.18671,0.0,1.0,2397.740967, set /systems/vacuum/serviceable false, takeoff
55.040878,-96.372833,-95.17939,3.015444,0.499177,3.015444,0.499177,-99.999855,-100.0,3.198102,23.74613,8.035138,294.04425,288.571869,-0.064549,-0.069465,21.659025,-0.00711,0.060221,0.189336,0.0,1.0,2401.780029, set /systems/vacuum/serviceable false, takeoff
55.916576,-96.334625,-95.141182,3.020776,0.502033,3.020776,0.502033,-99.999855,-100.0,3.239429,24.425764,8.07952,293.991852,288.31015,-0.058907,-0.067367,19.057936,-0.007131,0.060309,0.191054,0.0,1.0,2408.006104, set /systems/vacuum/serviceable false, takeoff
56.482857,-96.309502,-95.116058,3.024979,0.503214,3.024979,0.503214,-99.999855,-100.0,3.266508,24.868307,8.164801,293.955627,288.111267,-0.055165,-0.06657,19.316511,-0.007172,0.060416,0.193674,0.0,1.0,2412.044922, set /systems/vacuum/serviceable false, takeoff
57.331562,-96.271233,-95.077789,3.032902,0.503481,3.032902,0.503481,-99.999855,-100.0,3.307917,25.534521,8.558715,293.897614,287.775421,-0.049801,-0.066124,17.525969,-0.007189,0.0605,0.195485,0.0,1.0,2418.102783, set /systems/vacuum/serviceable false, takeoff
57.872601,-96.246323,-95.052879,3.039505,0.503073,3.039505,0.503073,-99.999855,-100.0,3.335995,25.961601,8.831071,293.857483,287.540161,-0.046481,-0.066356,19.163061,-0.007193,0.060658,0.198386,0.0,1.0,2421.974854, set /systems/vacuum/serviceable false, takeoff
58.717369,-96.206207,-95.012764,3.053474,0.502928,3.053474,0.502928,-99.999855,-100.0,3.382844,26.632225,9.834044,293.792114,287.144989,-0.042241,-0.067061,13.855474,-0.007187,0.06079,0.200392,0.0,1.0,2428.036377, set /systems/vacuum/serviceable false, takeoff
59.279057,-96.178375,-94.984932,3.058271,0.502888,3.058271,0.502888,-89.999855,-90.0,3.415784,27.0807,9.925958,293.745819,286.866364,-0.03914,-0.06792,13.293787,-0.007185,0.061069,0.203661,0.0,1.0,2432.078369, set /systems/vacuum/serviceable false, takeoff
60.144669,-96.133858,-94.940414,3.063079,0.501546,3.063079,0.501546,-89.999855,-90.0,3.467142,27.774179,10.06165,293.673645,286.419006,-0.034336,-0.069179,13.564828,-0.007184,0.061165,0.205975,0.0,1.0,2438.311768, set /systems/vacuum/serviceable false, takeoff
60.704983,-96.10408,-94.910637,3.066671,0.500385,3.066671,0.500385,-89.999855,-90.0,3.500867,28.225302,10.162574,293.627045,286.120605,-0.031018,-0.069869,21.139874,-0.007165,0.061262,0.209584,0.0,1.0,2442.375, set /systems/vacuum/serviceable false, takeoff
61.542622,-96.05809,-94.864639,3.077747,0.502847,3.077747,0.502847,-89.999855,-90.0,3.554091,28.903801,10.885419,293.563049,285.666412,-0.025167,-0.069707,19.388094,-0.007148,0.061333,0.211914,0.0,1.0,2448.551514, set /systems/vacuum/serviceable false, takeoff
62.076569,-96.027718,-94.834274,3.08172,0.500314,3.08172,0.500314,-89.999855,-90.0,3.589028,29.338383,10.9777,293.525543,285.374939,-0.020097,-0.06919,14.677545,-0.007184,0.061555,0.215114,0.0,1.0,2452.530029, set /systems/vacuum/serviceable false, takeoff
62.910309,-95.978813,-94.78537,3.086619,0.494948,3.086619,0.494948,-89.999855,-90.0,3.644318,30.020237,11.128633,293.474365,284.921722,-0.010578,-0.067307,15.368456,-0.007147,0.061634,0.216989,0.0,1.0,2458.786621, set /systems/vacuum/serviceable false, takeoff
63.465054,-95.945374,-94.75193,3.090274,0.490928,3.090274,0.490928,-89.999855,-90.0,3.681609,30.475876,11.234817,293.44397,284.624542,-0.002995,-0.065649,15.754963,-0.007071,0.061732,0.219548,0.0,1.0,2462.969482, set /systems/vacuum/serviceable false, takeoff
64.31881,-95.892685,-94.699234,3.095813,0.483301,3.095813,0.483301,-89.999855,-90.0,3.739789,31.179928,11.406216,293.402588,284.17923,0.010444,-0.062577,21.379065,-0.007013,0.061805,0.221068,0.0,1.0,2469.428955, set /systems/vacuum/serviceable false, fly_strait
64.875847,-95.857765,-94.664322,3.106996,0.492101,3.106996,0.492101,-89.999855,-90.0,3.779362,31.637629,12.733732,293.335297,283.901367,0.016025,-0.06965,21.862597,-0.006904,0.061916,0.0,0.0,1.0,2473.626221, set /systems/vacuum/serviceable false, fly_strait
65.759064,-95.804855,-94.611404,3.096954,0.529196,3.096954,0.529196,-89.999855,-90.0,3.842546,32.306679,12.960233,292.523743,283.513214,-0.008869,-0.194211,17.907276,-0.00703,0.06214,0.003365,0.0,1.0,2479.893799, set /systems/vacuum/serviceable false, fly_strait
66.399673,-95.76725,-94.573799,3.086968,0.497986,3.086968,0.497986,-89.999855,-90.0,3.884796,32.766556,12.228912,291.523621,283.255005,-0.060196,-0.343125,18.456146,-0.00756,0.061939,0.043942,0.0,1.0,2484.381104, set /systems/vacuum/serviceable false, fly_strait
67.386848,-95.707962,-94.514519,3.08659,0.39086,3.08659,0.39086,-89.999855,-90.0,3.950992,33.477295,13.077402,289.659576,282.854706,-0.184276,-0.596136,18.87125,-0.007114,0.061739,0.093948,0.0,1.0,2491.553711, set /systems/vacuum/serviceable false, fly_strait
67.987083,-95.670219,-94.476776,3.083214,0.318282,3.083214,0.318282,-89.999855,-90.0,3.99304,33.920238,13.243911,288.509247,282.594849,-0.281086,-0.730961,15.549674,-0.005584,0.061732,0.187151,0.0,1.0,2496.087402, set /systems/vacuum/serviceable false, fly_strait
68.908058,-95.609856,-94.416412,3.085507,0.198516,3.085507,0.198516,-89.999855,-90.0,4.060063,34.61541,13.565004,287.158173,282.15625,-0.412323,-0.835983,19.296621,-0.004547,0.061664,0.244667,0.0,1.0,2503.198486, set /systems/vacuum/serviceable false, fly_strait
69.536995,-95.566826,-94.373383,3.096692,0.133852,3.096692,0.133852,-89.999855,-90.0,4.110299,35.099403,15.311188,286.737213,281.823517,-0.475154,-0.815086,18.008684,-0.002836,0.06171,0.312221,0.0,1.0,2508.112549, set /systems/vacuum/serviceable false, fly_strait
70.427353,-95.503677,-94.310234,3.058372,-0.023201,3.058372,-0.023201,-89.999855,-90.0,4.1884,35.778625,16.317007,287.068573,281.320709,-0.506556,-0.64571,22.854418,-0.001912,0.061934,0.333269,0.0,1.0,2514.980957, set /systems/vacuum/serviceable false, fly_strait
71.046715,-95.456375,-94.262932,3.026532,-0.093932,3.026532,-0.093932,-89.999855,-90.0,4.243496,36.265236,15.239506,287.911652,280.944244,-0.472926,-0.443622,19.470587,3.31E-4,0.061167,0.316701,0.0,1.0,2519.883301, set /systems/vacuum/serviceable false, fly_strait
71.817642,-95.388763,-94.19532,3.064688,0.068949,3.064688,0.068949,-89.999855,-90.0,4.316469,36.948406,15.996015,289.542328,280.416199,-0.344622,-0.113045,23.63006,0.001342,0.060531,0.274547,0.0,1.0,2526.528564, set /systems/vacuum/serviceable false, fly_strait
72.280472,-95.341202,-94.147758,3.040798,0.509685,3.040798,0.509685,-89.999855,-90.0,4.374939,37.418457,18.91791,290.751678,280.069214,-0.228398,0.107137,24.393002,-9.85E-4,0.061294,0.193013,0.0,1.0,2530.801758, set /systems/vacuum/serviceable false, fly_strait
72.970337,-95.260727,-94.067284,2.737548,1.661711,2.737548,1.661711,-89.999855,-90.0,4.500789,38.146366,27.287573,292.24292,279.587006,-0.05569,0.346858,22.525648,-0.007281,0.060816,0.132546,0.0,1.0,2536.939209, set /systems/vacuum/serviceable false, fly_strait
73.454887,-95.200691,-94.007248,2.497053,2.503591,2.497053,2.503591,-89.999855,-90.0,4.591347,38.61895,26.677408,292.741638,279.322205,0.049902,0.407259,19.368805,-0.023739,0.054751,0.057983,0.0,1.0,2540.790039, set /systems/vacuum/serviceable false, fly_strait
74.263115,-95.104904,-93.911461,2.386727,3.477683,2.386727,3.477683,-89.999855,-90.0,4.714852,39.308979,24.028841,292.603058,279.014984,0.163436,0.342785,21.016748,-0.035766,0.049941,0.033048,0.0,1.0,2546.565186, set /systems/vacuum/serviceable false, fly_strait
74.897079,-95.033279,-93.839836,2.479517,3.874872,2.479517,3.874872,-89.999855,-90.0,4.794441,39.802765,21.536499,291.959473,278.850525,0.204426,0.211108,21.482985,-0.049681,0.047735,0.039976,0.0,1.0,2550.95166, set /systems/vacuum/serviceable false, fly_strait
75.827545,-94.928383,-93.73494,2.701503,3.749822,2.701503,3.749822,-89.999855,-90.0,4.915833,40.515762,29.79472,290.606232,278.678406,0.208103,-0.034778,22.239527,-0.055355,0.04959,0.072156,0.0,1.0,2557.641113, set /systems/vacuum/serviceable false, fly_strait
76.431381,-94.853096,-93.659653,2.790893,3.117733,2.790893,3.117733,-89.999855,-90.0,5.033895,40.992588,40.87291,289.710541,278.594604,0.17296,-0.187616,24.422783,-0.053569,0.05403,0.139818,0.0,1.0,2562.248047, set /systems/vacuum/serviceable false, fly_strait
77.31192,-94.719002,-93.525558,2.805989,1.581332,2.805989,1.581332,-89.999855,-90.0,5.278937,41.710045,56.186306,288.918335,278.500275,0.098294,-0.312225,30.610188,-0.044539,0.055818,0.184602,0.0,1.0,2569.231201, set /systems/vacuum/serviceable false, fly_strait
77.865494,-94.614616,-93.421173,2.821805,0.501928,2.821805,0.501928,-89.999855,-90.0,5.473598,42.169628,65.468033,288.90744,278.456512,0.056763,-0.305325,35.697769,-0.02259,0.05612,0.224213,0.0,1.0,2573.706055, set /systems/vacuum/serviceable false, fly_strait
78.709045,-94.408195,-93.214752,2.978826,-0.740028,2.978826,-0.740028,-89.999855,-90.0,5.860729,42.91013,86.460152,289.701416,278.415985,0.030127,-0.157803,45.686264,-0.00717,0.056436,0.224757,0.0,1.0,2580.844727, set /systems/vacuum/serviceable false, fly_strait
79.188133,-94.242149,-93.048706,3.178469,-1.041476,3.178469,-1.041476,-89.999855,-90.0,6.183495,43.390522,107.469925,290.575806,278.414246,0.044204,-0.007772,54.17952,0.010572,0.059577,0.185059,0.0,1.0,2585.314209, set /systems/vacuum/serviceable false, fly_strait
79.794998,-93.92672,-92.733269,3.492785,-0.573483,3.492785,-0.573483,-89.999855,-90.0,6.824533,44.109768,149.324799,291.893585,278.456512,0.108806,0.207832,71.325981,0.014878,0.063569,0.141339,0.0,1.0,2591.550049, set /systems/vacuum/serviceable false, fly_strait
80.157677,-93.657669,-92.464226,3.657163,0.197445,3.657163,0.197445,-89.999855,-90.0,7.375897,44.587563,180.428986,292.509674,278.517303,0.164511,0.300842,86.078598,0.008193,0.069856,0.07545,0.0,1.0,2595.275879, set /systems/vacuum/serviceable false, fly_strait
80.723083,-93.143631,-91.950188,3.753917,1.554545,3.753917,1.554545,-89.999855,-90.0,8.389504,45.300747,222.116516,292.690735,278.655182,0.238266,0.309485,112.104965,-0.002821,0.073143,0.044646,0.0,1.0,2599.74585, set /systems/vacuum/serviceable false, fly_strait
81.129761,-92.718323,-91.524879,3.783682,2.28831,3.783682,2.28831,-89.999855,-90.0,9.168289,45.773682,243.439301,292.315796,278.772888,0.261366,0.232911,131.309875,-0.022208,0.075078,0.035593,0.0,1.0,2602.218994, set /systems/vacuum/serviceable false, fly_strait
81.757782,-91.955643,-90.762199,3.85435,2.65849,3.85435,2.65849,-89.999855,-90.0,10.448318,46.479469,266.464294,291.291046,278.972748,0.247372,0.045519,159.72493,-0.03269,0.075674,0.05434,0.0,1.0,2605.480469, set /systems/vacuum/serviceable false, fly_strait
82.168961,-91.368019,-90.174576,3.922737,2.365574,3.922737,2.365574,-89.999855,-90.0,11.357868,46.947777,278.60144,290.554382,279.110931,0.207363,-0.082484,177.803604,-0.037978,0.077087,0.105577,0.0,1.0,2607.451172, set /systems/vacuum/serviceable false, fly_strait
82.756386,-90.40757,-89.214119,4.000379,1.319542,4.000379,1.319542,-89.999855,-90.0,12.753129,47.627609,294.764374,289.874939,279.30423,0.12761,-0.195536,202.292908,-0.033794,0.078455,0.14241,0.0,1.0,2610.119629, set /systems/vacuum/serviceable false, fly_strait
83.167847,-89.651932,-88.458488,4.048961,0.414331,4.048961,0.414331,-89.999855,-90.0,13.796654,48.110752,305.974365,289.840271,279.430573,0.08198,-0.197824,218.577133,-0.018851,0.080008,0.176382,0.0,1.0,2611.914795, set /systems/vacuum/serviceable false, fly_strait
83.723564,-88.470024,-87.276581,4.162071,-0.540969,4.162071,-0.540969,-89.999855,-90.0,15.377431,48.802113,327.068451,290.471832,279.594482,0.049,-0.086538,240.533218,-0.005919,0.080979,0.178116,0.0,1.0,2614.368408, set /systems/vacuum/serviceable false, fly_strait
84.028481,-87.657104,-86.463661,4.297251,-0.763628,4.297251,-0.763628,-89.999855,-90.0,16.452015,49.24052,345.772217,291.152344,279.691071,0.05965,0.026977,254.320023,0.007728,0.083241,0.146538,0.0,1.0,2615.843018, set /systems/vacuum/serviceable false, fly_strait
84.426704,-86.248085,-85.054634,4.555463,-0.335232,4.555463,-0.335232,-89.999855,-90.0,18.32954,49.939117,384.944458,292.218933,279.840576,0.114301,0.197122,277.589172,0.010909,0.085945,0.112512,0.0,1.0,2618.018799, set /systems/vacuum/serviceable false, fly_strait
84.641792,-85.301926,-84.108482,4.698997,0.279817,4.698997,0.279817,-79.999855,-80.0,19.601149,50.36861,410.114777,292.65213,279.932037,0.159597,0.259842,293.384216,0.004789,0.091109,0.059183,0.0,1.0,2619.248535, set /systems/vacuum/serviceable false, fly_strait
84.999283,-83.702339,-82.508896,4.782402,1.354575,4.782402,1.354575,-79.999855,-80.0,21.740452,51.032982,442.45578,292.701263,280.071869,0.218968,0.24849,320.065613,-0.003997,0.09398,0.037523,0.0,1.0,2621.047852, set /systems/vacuum/serviceable false, fly_strait
85.265762,-82.553741,-81.360298,4.785532,1.888979,4.785532,1.888979,-79.999855,-80.0,23.242432,51.47065,457.38446,292.326324,280.159332,0.233198,0.173965,338.497101,-0.019351,0.095648,0.035066,0.0,1.0,2622.215088, set /systems/vacuum/serviceable false, fly_strait
85.700943,-80.669708,-79.476265,4.797569,2.028917,4.797569,2.028917,-79.999855,-80.0,25.635431,52.137798,472.236481,291.415955,280.274658,0.209417,0.008454,365.068878,-0.026985,0.095711,0.053813,0.0,1.0,2624.017822, set /systems/vacuum/serviceable false, fly_strait
85.971031,-79.426727,-78.233276,4.824356,1.696213,4.824356,1.696213,-79.999855,-80.0,27.15572,52.548229,479.266479,290.867462,280.328094,0.168893,-0.086582,381.715271,-0.028985,0.095951,0.099332,0.0,1.0,2625.141602, set /systems/vacuum/serviceable false, fly_strait
86.413811,-77.335831,-76.142387,4.873259,0.706358,4.873259,0.706358,-79.999855,-80.0,29.649698,53.201866,491.407654,290.440216,280.37558,0.097477,-0.15703,405.450806,-0.024232,0.096487,0.126756,0.0,1.0,2626.947998, set /systems/vacuum/serviceable false, fly_strait
86.692261,-75.923538,-74.730095,4.91762,0.019039,4.91762,0.019039,-79.999855,-80.0,31.30393,53.62138,501.039856,290.558014,280.379425,0.062762,-0.135275,419.472595,-0.010091,0.097465,0.148119,0.0,1.0,2628.114502, set /systems/vacuum/serviceable false, fly_strait
87.074493,-73.729767,-72.536324,5.032456,-0.596308,5.032456,-0.596308,-69.999855,-70.0,33.853828,54.243484,519.282654,291.239807,280.34967,0.048057,-0.019102,438.837006,-2.72E-4,0.098352,0.142229,0.0,1.0,2629.828369, set /systems/vacuum/serviceable false, fly_strait
87.27401,-72.280502,-71.087059,5.144128,-0.619652,5.144128,-0.619652,-69.999855,-70.0,35.536964,54.635998,534.425171,291.831146,280.31311,0.067449,0.077493,450.751099,0.008519,0.100649,0.108139,0.0,1.0,2630.871582, set /systems/vacuum/serviceable false, fly_strait
87.540993,-69.866188,-68.672745,5.308409,-0.038082,5.308409,-0.038082,-69.999855,-70.0,38.359623,55.258514,564.096863,292.597595,280.235046,0.123762,0.195808,470.119293,0.008852,0.102883,0.078572,0.0,1.0,2632.423828, set /systems/vacuum/serviceable false, fly_strait
87.698051,-68.309174,-67.11573,5.384758,0.537013,5.384758,0.537013,-69.999855,-70.0,40.194279,55.639645,583.794617,292.800629,280.177856,0.162267,0.220766,482.738739,5.44E-4,0.106168,0.04025,0.0,1.0,2633.318604, set /systems/vacuum/serviceable false, fly_strait
87.972252,-65.777031,-64.583588,5.436563,1.334582,5.436563,1.334582,-69.999855,-70.0,43.185978,56.227196,610.776917,292.565613,280.075897,0.200255,0.165507,503.778931,-0.007672,0.107695,0.030098,0.0,1.0,2634.666748, set /systems/vacuum/serviceable false, fly_strait
88.173012,-64.023064,-62.829617,5.461006,1.604356,5.461006,1.604356,-59.999859,-60.0,45.246082,56.613087,624.289551,292.116638,279.997284,0.198475,0.082202,518.412231,-0.019065,0.108731,0.041849,0.0,1.0,2635.562988, set /systems/vacuum/serviceable false, fly_strait
88.496788,-61.229877,-60.036434,5.504823,1.386576,5.504823,1.386576,-59.999859,-60.0,48.499424,57.199612,640.786682,291.329224,279.852264,0.158794,-0.056664,539.994263,-0.022919,0.10922,0.064297,0.0,1.0,2636.964355, set /systems/vacuum/serviceable false, fly_strait
88.697487,-59.428795,-58.235352,5.536241,0.937189,5.536241,0.937189,-59.999859,-60.0,50.561691,57.559372,649.996155,290.975983,279.744019,0.1176,-0.116298,554.226746,-0.019808,0.110096,0.103668,0.0,1.0,2637.844727, set /systems/vacuum/serviceable false, fly_strait
89.025307,-56.447681,-55.254238,5.591952,0.043158,5.591952,0.043158,-59.999859,-60.0,53.941849,58.130455,665.337402,290.916748,279.538361,0.060692,-0.122933,575.763428,-0.013388,0.110725,0.12133,0.0,1.0,2639.271729, set /systems/vacuum/serviceable false, fly_strait
89.214737,-54.545219,-53.351776,5.652608,-0.409786,5.652608,-0.409786,-49.999859,-50.0,56.084942,58.480541,676.259583,291.201019,279.392914,0.043431,-0.073788,588.420898,-6.17E-4,0.111839,0.124292,0.0,1.0,2640.155029, set /systems/vacuum/serviceable false, fly_strait
89.463165,-51.493404,-50.299961,5.791638,-0.615748,5.791638,-0.615748,-49.999859,-50.0,59.518417,59.020332,697.475464,291.927551,279.146271,0.054917,0.047556,607.443787,0.005854,0.113052,0.110078,0.0,1.0,2641.489502, set /systems/vacuum/serviceable false, fly_strait
89.588959,-49.406475,-48.213028,5.902066,-0.397166,5.902066,-0.397166,-49.999859,-50.0,61.872883,59.374237,714.978821,292.415833,278.974731,0.084585,0.125438,620.001038,0.008796,0.115833,0.073752,0.0,1.0,2642.31958, set /systems/vacuum/serviceable false, fly_strait
89.760551,-46.102238,-44.908791,6.018545,0.328032,6.018545,0.328032,-49.999859,-50.0,65.623909,59.909927,743.877625,292.804474,278.707733,0.140181,0.179824,639.659241,0.005674,0.118041,0.049338,0.0,1.0,2643.49585, set /systems/vacuum/serviceable false, fly_strait
89.878029,-43.896626,-42.703182,6.06553,0.837647,6.06553,0.837647,-39.999859,-40.0,68.133438,60.250923,760.889404,292.736481,278.535339,0.166406,0.160658,653.05719,-0.004686,0.120371,0.029906,0.0,1.0,2644.214844, set /systems/vacuum/serviceable false, fly_strait
90.081734,-40.494991,-39.301548,6.100035,1.26354,6.100035,1.26354,-39.999859,-40.0,71.992935,60.753273,781.077026,292.228394,278.27713,0.175255,0.064964,673.782227,-0.011966,0.121311,0.033305,0.0,1.0,2645.27832, set /systems/vacuum/serviceable false, fly_strait
90.224388,-38.265003,-37.071556,6.120376,1.235571,6.120376,1.235571,-39.999859,-40.0,74.50425,61.068855,790.529602,291.786194,278.110199,0.157317,-0.012764,687.109192,-0.018051,0.122001,0.05871,0.0,1.0,2645.964111, set /systems/vacuum/serviceable false, fly_strait
90.461266,-34.592026,-33.398582,6.153248,0.704684,6.153248,0.704684,-29.999857,-30.0,78.600723,61.568348,803.091553,291.249023,277.833679,0.105415,-0.103514,708.075439,-0.017651,0.122408,0.08082,0.0,1.0,2647.085205, set /systems/vacuum/serviceable false, fly_strait
90.617699,-32.157368,-30.963923,6.180629,0.198551,6.180629,0.198551,-29.999857,-30.0,81.291168,61.887127,810.92511,291.154449,277.647797,0.070623,-0.11756,721.135315,-0.010067,0.123065,0.107678,0.0,1.0,2647.822266, set /systems/vacuum/serviceable false, fly_strait
90.837708,-28.434801,-27.241356,6.247635,-0.422281,6.247635,-0.422281,-29.999857,-30.0,85.37867,62.357464,824.1427,291.464691,277.361877,0.040046,-0.061921,739.76123,-0.002836,0.123613,0.112407,0.0,1.0,2648.928467, set /systems/vacuum/serviceable false, fly_strait
90.953812,-26.0144,-24.820955,6.319699,-0.592476,6.319699,-0.592476,-29.999857,-30.0,88.028244,62.652794,834.640808,291.863129,277.178436,0.042949,0.005125,751.090332,0.006033,0.124953,0.096895,0.0,1.0,2649.616699, set /systems/vacuum/serviceable false, fly_strait
91.087975,-22.161325,-20.96788,6.442003,-0.361416,6.442003,-0.361416,-19.999857,-20.0,92.251884,63.1064,854.846375,292.490204,276.898682,0.079409,0.106789,768.190369,0.008464,0.126394,0.076973,0.0,1.0,2650.624023, set /systems/vacuum/serviceable false, fly_strait
91.158455,-19.544815,-18.35137,6.515134,0.034818,6.515134,0.034818,-19.999857,-20.0,95.127113,63.402672,869.862854,292.75119,276.721466,0.111904,0.145583,779.578796,0.005163,0.12884,0.045619,0.0,1.0,2651.23999, set /systems/vacuum/serviceable false, fly_strait
91.281593,-15.434888,-14.241444,6.570218,0.707155,6.570218,0.707155,-19.999857,-20.0,99.655792,63.849735,891.20282,292.713257,276.46701,0.151369,0.12928,797.211121,-4.97E-4,0.130303,0.03257,0.0,1.0,2652.127686, set /systems/vacuum/serviceable false, fly_strait
91.375381,-12.717197,-11.523753,6.586883,0.999121,6.586883,0.999121,-9.999858,-10.0,102.645462,64.133675,901.764648,292.429016,276.313904,0.158324,0.076297,808.847168,-0.010102,0.131404,0.034467,0.0,1.0,2652.688965, set /systems/vacuum/serviceable false, fly_strait
91.528885,-8.68261,-7.489165,6.600255,0.992344,6.600255,0.992344,-9.999858,-10.0,107.058327,64.539856,912.708923,291.866364,276.103821,0.137212,-0.022863,825.875488,-0.014273,0.131738,0.048679,0.0,1.0,2653.495361, set /systems/vacuum/serviceable false, fly_strait
91.646103,-5.75408,-4.560636,6.610837,0.701821,6.610837,0.701821,-9.999858,-10.0,110.238091,64.824631,918.473267,291.526642,275.960419,0.10862,-0.080141,837.717896,-0.014176,0.132005,0.076811,0.0,1.0,2654.070801, set /systems/vacuum/serviceable false, fly_strait
91.81942,-1.595645,-0.402201,6.632699,0.08814,6.632699,0.08814,1.42E-4,0.0,114.721733,65.216148,926.06781,291.382202,275.766022,0.061271,-0.101514,853.524658,-0.010026,0.132217,0.093797,0.0,1.0,2654.881592, set /systems/vacuum/serviceable false, fly_strait
91.936493,1.539851,2.733295,6.666363,-0.311698,6.666363,-0.311698,1.42E-4,0.0,117.948143,65.490654,932.282227,291.554749,275.63208,0.042959,-0.070457,864.112976,-0.001259,0.132654,0.101019,0.0,1.0,2655.460449, set /systems/vacuum/serviceable false, fly_strait
92.067131,6.009594,7.203039,6.747206,-0.529635,6.747206,-0.529635,10.000142,10.0,122.507103,65.867447,943.716248,292.056549,275.455658,0.045904,0.015028,878.148376,0.004453,0.133327,0.092392,0.0,1.0,2656.244385, set /systems/vacuum/serviceable false, fly_strait
92.128975,9.10799,10.301435,6.818452,-0.409071,6.818452,-0.409071,10.000142,10.0,125.670074,66.120453,954.016174,292.433868,275.345612,0.066855,0.076563,887.276855,0.007566,0.134944,0.067302,0.0,1.0,2656.743652, set /systems/vacuum/serviceable false, fly_strait
92.202156,13.810381,15.003825,6.898123,0.09456,6.898123,0.09456,10.000142,10.0,130.484543,66.491425,971.300476,292.767761,275.202423,0.11029,0.126428,900.683594,0.005844,0.136369,0.048436,0.0,1.0,2657.420654, set /systems/vacuum/serviceable false, fly_strait
92.26075,17.11544,18.308884,6.930373,0.506532,6.930373,0.506532,20.000143,20.0,133.877335,66.742981,982.308289,292.74884,275.119812,0.13353,0.117997,909.886536,-0.001351,0.137962,0.031741,0.0,1.0,2657.852783, set /systems/vacuum/serviceable false, fly_strait
92.353333,21.804335,22.99778,6.942601,0.864067,6.942601,0.864067,20.000143,20.0,138.68335,67.087196,993.766113,292.398804,275.025635,0.144348,0.05236,923.108032,-0.007236,0.138607,0.032687,0.0,1.0,2658.439941, set /systems/vacuum/serviceable false, fly_strait
92.434738,25.19367,26.387115,6.944594,0.869284,6.944594,0.869284,20.000143,20.0,142.143677,67.327774,998.872986,292.034302,274.970795,0.131266,-0.01128,932.491211,-0.012344,0.138852,0.050189,0.0,1.0,2658.864258, set /systems/vacuum/serviceable false, fly_strait
92.56179,29.98786,31.181305,6.947712,0.512079,6.947712,0.512079,30.000143,30.0,147.012177,67.657722,1003.767395,291.635071,274.905884,0.091128,-0.078187,945.14563,-0.012418,0.138892,0.068414,0.0,1.0,2659.476563, set /systems/vacuum/serviceable false, fly_strait
92.658134,33.443577,34.63702,6.955626,0.119232,6.955626,0.119232,30.000143,30.0,150.503189,67.888718,1006.999695,291.547882,274.865417,0.064512,-0.091101,953.710144,-0.007315,0.138954,0.088376,0.0,1.0,2659.926514, set /systems/vacuum/serviceable false, fly_strait
92.786011,38.459866,39.653309,6.989428,-0.35269,6.989428,-0.35269,40.000141,40.0,155.552872,68.214455,1013.112,291.775879,274.81488,0.040183,-0.049586,965.216919,-0.001703,0.139113,0.092735,0.0,1.0,2660.581787, set /systems/vacuum/serviceable false, fly_strait
92.849075,41.687969,42.881413,7.031842,-0.481903,7.031842,-0.481903,40.000141,40.0,158.798157,68.418144,1018.756287,292.077148,274.788727,0.042481,0.00147,972.099976,0.005038,0.139789,0.081335,0.0,1.0,2660.990234, set /systems/vacuum/serviceable false, fly_strait
92.914047,46.777626,47.971073,7.108676,-0.303196,7.108676,-0.303196,50.000141,50.0,163.921112,68.729675,1030.616699,292.551178,274.761261,0.071166,0.078884,982.394226,0.006884,0.140637,0.066272,0.0,1.0,2661.58374, set /systems/vacuum/serviceable false, fly_strait
92.951149,50.339172,51.532619,7.156109,0.017743,7.156109,0.017743,50.000141,50.0,167.516602,68.94059,1040.137207,292.747681,274.753876,0.09646,0.108298,989.306152,0.004331,0.142174,0.042571,0.0,1.0,2661.955566, set /systems/vacuum/serviceable false, fly_strait
93.00206,55.512962,56.706406,7.184497,0.517745,7.184497,0.517745,60.000141,60.0,172.750626,69.236526,1052.492554,292.693848,274.760681,0.128008,0.092531,999.359985,-2.53E-4,0.143122,0.032745,0.0,1.0,2662.449707, set /systems/vacuum/serviceable false, fly_strait
93.049721,58.846291,60.039734,7.187553,0.72679,7.187553,0.72679,60.000141,60.0,176.122421,69.42099,1058.030151,292.472656,274.774292,0.132905,0.052015,1005.828735,-0.007396,0.14369,0.035437,0.0,1.0,2662.756836, set /systems/vacuum/serviceable false, fly_strait
93.137886,64.104706,65.298149,7.183,0.703825,7.183,0.703825,60.000141,60.0,181.427582,69.703072,1063.270264,292.019958,274.804962,0.114754,-0.026858,1015.863708,-0.010383,0.143751,0.046497,0.0,1.0,2663.24707, set /systems/vacuum/serviceable false, fly_strait
93.200768,67.637848,68.831291,7.179767,0.475981,7.179767,0.475981,70.000145,70.0,184.975571,69.886932,1065.353149,291.774658,274.828278,0.090465,-0.06766,1022.485168,-0.010055,0.14366,0.069132,0.0,1.0,2663.585693, set /systems/vacuum/serviceable false, fly_strait
93.286201,73.119194,74.312637,7.184699,-0.03001,7.184699,-0.03001,70.000145,70.0,190.457886,70.164085,1068.288452,291.693146,274.864227,0.053404,-0.078375,1032.145264,-0.0068,0.143595,0.081396,0.0,1.0,2664.115234, set /systems/vacuum/serviceable false, fly_strait
93.328362,76.542549,77.735992,7.201941,-0.305237,7.201941,-0.305237,80.000145,80.0,193.874344,70.332527,1070.748291,291.841339,274.885895,0.040758,-0.051898,1037.619385,4.29E-4,0.143694,0.085472,0.0,1.0,2664.431396, set /systems/vacuum/serviceable false, fly_strait
93.369591,81.928848,83.122292,7.254123,-0.447405,7.254123,-0.447405,80.000145,80.0,199.242569,70.590034,1076.917725,292.260925,274.920563,0.046088,0.019476,1045.765991,0.004361,0.144039,0.078062,0.0,1.0,2664.891602, set /systems/vacuum/serviceable false, fly_strait
93.382927,85.536522,86.729965,7.298252,-0.326785,7.298252,-0.326785,90.000145,90.0,202.842255,70.757339,1082.905884,292.550262,274.946106,0.064783,0.066448,1050.853516,0.006392,0.145082,0.057083,0.0,1.0,2665.163574, set /systems/vacuum/serviceable false, fly_strait
93.384094,90.976036,92.169479,7.341374,0.088445,7.341374,0.088445,90.000145,90.0,208.282608,71.001549,1092.855347,292.773682,274.990784,0.100344,0.098931,1058.257202,0.004668,0.145965,0.042616,0.0,1.0,2665.514893, set /systems/vacuum/serviceable false, fly_strait
93.388092,94.775734,95.969177,7.353227,0.404553,7.353227,0.404553,90.000145,90.0,212.088089,71.166435,1098.686523,292.723083,275.02652,0.117288,0.086472,1063.412598,-0.001263,0.146827,0.031445,0.0,1.0,2665.731689, set /systems/vacuum/serviceable false, fly_strait
93.416306,100.278687,101.47213,7.345717,0.645132,7.345717,0.645132,100.000145,100.0,217.596588,71.397507,1103.815674,292.402039,275.082062,0.121814,0.027537,1070.816162,-0.005779,0.147065,0.033975,0.0,1.0,2666.034424, set /systems/vacuum/serviceable false, fly_strait
93.447197,103.965607,105.15905,7.334494,0.605079,7.334494,0.605079,100.000145,100.0,221.278351,71.547714,1104.963623,292.124817,275.11908,0.108539,-0.020417,1075.606812,-0.009216,0.146914,0.050027,0.0,1.0,2666.24292, set /systems/vacuum/serviceable false, fly_strait
93.497322,109.368362,110.561806,7.321497,0.277471,7.321497,0.277471,110.000145,110.0,226.650391,71.761703,1105.10022,291.845825,275.168335,0.074931,-0.066728,1082.434082,-0.008644,0.14669,0.063889,0.0,1.0,2666.56665, set /systems/vacuum/serviceable false, fly_strait
93.540253,113.23951,114.432953,7.319012,-0.042771,7.319012,-0.042771,110.000145,110.0,230.487564,71.911026,1105.160156,291.81897,275.198242,0.054364,-0.069837,1086.859253,-0.003964,0.14643,0.077838,0.0,1.0,2666.811768, set /systems/vacuum/serviceable false, fly_strait
93.596153,118.827866,120.021309,7.338842,-0.388695,7.338842,-0.388695,120.000145,120.0,236.016327,72.120865,1106.736084,292.051941,275.233307,0.038888,-0.028555,1092.544312,6.11E-4,0.14638,0.079181,0.0,1.0,2667.173584, set /systems/vacuum/serviceable false, fly_strait
93.61599,122.56398,123.757423,7.368436,-0.455135,7.368436,-0.455135,120.000145,120.0,239.709869,72.25721,1109.520752,292.315796,275.252869,0.043938,0.015691,1096.058716,0.005553,0.146777,0.067532,0.0,1.0,2667.406738, set /systems/vacuum/serviceable false, fly_strait
93.621361,128.18306,129.376495,7.415097,-0.251732,7.415097,-0.251732,130.000137,130.0,245.27327,72.456131,1115.979492,292.662567,275.279938,0.070949,0.071449,1100.972778,0.006502,0.147369,0.05434,0.0,1.0,2667.722656, set /systems/vacuum/serviceable false, fly_strait
93.625587,133.662323,134.855759,7.443422,0.134887,7.443422,0.134887,130.000137,130.0,250.715866,72.642937,1122.974854,292.766968,275.306396,0.10023,0.084478,1105.397461,0.003596,0.148302,0.037001,0.0,1.0,2667.98877, set /systems/vacuum/serviceable false, fly_strait
93.632805,137.5905,138.783936,7.443272,0.376545,7.443272,0.376545,140.000137,140.0,254.622345,72.772514,1126.697632,292.656097,275.3255,0.112222,0.062285,1108.626343,-1.33E-4,0.148764,0.031769,0.0,1.0,2668.165527, set /systems/vacuum/serviceable false, fly_strait
93.643936,141.215134,142.408569,7.435194,0.499944,7.435194,0.499944,140.000137,140.0,258.224915,72.889061,1128.523682,292.453278,275.342194,0.112046,0.025992,1111.648926,-0.005379,0.148865,0.037325,0.0,1.0,2668.328857, set /systems/vacuum/serviceable false, fly_strait
93.685249,146.906082,148.099518,7.417614,0.409016,7.417614,0.409016,150.000137,150.0,263.86969,73.066788,1128.971924,292.100464,275.363464,0.092302,-0.034603,1116.293457,-0.007142,0.148704,0.047465,0.0,1.0,2668.599854, set /systems/vacuum/serviceable false, fly_strait
93.731667,152.614349,153.8078,7.403394,0.062729,7.403394,0.062729,150.000137,150.0,269.51236,73.23925,1128.072021,291.907471,275.374695,0.061476,-0.065509,1120.654419,-0.005843,0.148352,0.065106,0.0,1.0,2668.89624, set /systems/vacuum/serviceable false, fly_strait
93.769081,156.427261,157.620712,7.40437,-0.196604,7.40437,-0.196604,160.000137,160.0,273.271942,73.351402,1127.817749,291.945404,275.375519,0.044786,-0.057321,1123.322388,-0.002775,0.148132,0.073077,0.0,1.0,2669.106445, set /systems/vacuum/serviceable false, fly_strait
93.797928,160.243912,161.437347,7.416776,-0.394062,7.416776,-0.394062,160.000137,160.0,277.032257,73.46125,1128.523926,292.104797,275.371582,0.038261,-0.029414,1125.725342,0.002809,0.148087,0.072859,0.0,1.0,2669.319824, set /systems/vacuum/serviceable false, fly_strait
93.818634,166.132141,167.325577,7.455287,-0.431108,7.455287,-0.431108,170.000137,170.0,282.8396,73.625854,1132.048462,292.459839,275.359009,0.048836,0.03035,1128.890625,0.005629,0.148336,0.06489,0.0,1.0,2669.634766, set /systems/vacuum/serviceable false, fly_strait
93.820251,169.800568,170.994019,7.482904,-0.293022,7.482904,-0.293022,170.000137,170.0,286.461639,73.725143,1135.662476,292.652618,275.349304,0.066177,0.061238,1130.869263,0.006159,0.149106,0.047137,0.0,1.0,2669.812012, set /systems/vacuum/serviceable false, fly_strait
93.818954,175.711685,176.905136,7.505545,0.071662,7.505545,0.071662,180.000137,180.0,292.314209,73.879868,1141.74292,292.750977,275.333435,0.093898,0.073712,1133.908325,0.004186,0.149658,0.037499,0.0,1.0,2670.065186, set /systems/vacuum/serviceable false, fly_strait
93.827316,181.318924,182.51236,7.50354,0.359872,7.50354,0.359872,180.000137,180.0,297.874786,74.020782,1145.500977,292.57782,275.318542,0.106086,0.041024,1136.873047,-0.001024,0.150111,0.032581,0.0,1.0,2670.287842, set /systems/vacuum/serviceable false, fly_strait
93.839531,185.336136,186.529587,7.492037,0.411427,7.492037,0.411427,180.000137,180.0,301.854279,74.118462,1146.403564,292.358887,275.306702,0.101136,0.002579,1139.167114,-0.004167,0.150129,0.037346,0.0,1.0,2670.450439, set /systems/vacuum/serviceable false, fly_strait
93.874603,190.971954,192.16539,7.473227,0.252012,7.473227,0.252012,190.000137,190.0,307.425964,74.251457,1145.720459,292.070709,275.285614,0.078917,-0.045696,1142.309448,-0.005878,0.149841,0.052185,0.0,1.0,2670.695313, set /systems/vacuum/serviceable false, fly_strait
93.903587,194.841766,196.035217,7.465462,0.030203,7.465462,0.030203,190.000137,190.0,311.2435,74.340294,1144.880737,291.982269,275.266846,0.059638,-0.059208,1144.2948,-0.004789,0.149582,0.062392,0.0,1.0,2670.876465, set /systems/vacuum/serviceable false, fly_strait
93.945213,200.652252,201.845688,7.468455,-0.30507,7.468455,-0.30507,200.000137,200.0,316.966003,74.470009,1144.352295,292.06958,275.231689,0.040945,-0.042261,1146.967163,-4.31E-4,0.149309,0.071016,0.0,1.0,2671.164063, set /systems/vacuum/serviceable false, fly_strait
93.968002,204.690475,205.883926,7.485976,-0.425221,7.485976,-0.425221,200.000137,200.0,320.940643,74.55751,1145.22998,292.255829,275.203613,0.039942,-0.009849,1148.601807,0.003085,0.149296,0.069354,0.0,1.0,2671.36499, set /systems/vacuum/serviceable false, fly_strait
93.979477,210.508713,211.702164,7.523456,-0.365545,7.523456,-0.365545,210.000137,210.0,326.67511,74.679543,1148.853516,292.565277,275.161346,0.055889,0.041484,1150.641357,0.006075,0.14972,0.057338,0.0,1.0,2671.635254, set /systems/vacuum/serviceable false, fly_strait
93.975502,214.393051,215.586502,7.543301,-0.188591,7.543296,-0.188606,210.000137,210.0,330.510315,74.758186,1152.144287,292.697693,275.133911,0.072971,0.062014,1152.01709,0.00597,0.150223,0.046657,0.0,1.0,2671.796631, set /systems/vacuum/serviceable false, fly_strait
93.973495,218.281998,219.475433,7.555016,0.033125,7.554974,0.032987,220.000137,220.0,334.356445,74.834648,1155.371704,292.727081,275.108093,0.088482,0.064759,1153.409302,0.002694,0.150866,0.035245,0.0,1.0,2671.944824, set /systems/vacuum/serviceable false, fly_strait
93.976952,223.96376,225.157196,7.550281,0.285441,7.550118,0.2849,220.000137,220.0,339.981812,74.942406,1158.533203,292.57373,275.073395,0.100064,0.035736,1155.567749,-4.73E-4,0.151099,0.033775,0.0,1.0,2672.149658, set /systems/vacuum/serviceable false, fly_strait
93.997688,229.982224,231.175659,7.531826,0.320215,7.53145,0.318959,230.000137,230.0,345.937561,75.051949,1158.95166,292.277893,275.038391,0.090467,-0.015302,1157.915161,-0.004078,0.151002,0.041443,0.0,1.0,2672.373779, set /systems/vacuum/serviceable false, fly_strait
94.019424,233.893082,235.086533,7.520365,0.193473,7.519801,0.191593,230.000137,230.0,349.799591,75.120857,1158.22998,292.118591,275.014984,0.075359,-0.041618,1159.478271,-0.004884,0.150756,0.05136,0.0,1.0,2672.530518, set /systems/vacuum/serviceable false, fly_strait
94.055244,239.600586,240.794037,7.510515,-0.101877,7.509611,-0.104889,240.000137,240.0,355.426666,75.218513,1156.998413,292.040649,274.97818,0.052035,-0.052815,1161.524658,-0.002764,0.150396,0.0642,0.0,1.0,2672.776855, set /systems/vacuum/serviceable false, fly_strait
94.078453,243.67981,244.873245,7.515247,-0.294174,7.514051,-0.298158,240.000137,240.0,359.44339,75.286217,1156.794189,292.125488,274.950043,0.042138,-0.03693,1162.824829,-5.9E-5,0.150227,0.06806,0.0,1.0,2672.961426, set /systems/vacuum/serviceable false, turn_+45
94.091972,249.39415,250.587585,7.538877,-0.431021,7.537206,-0.436593,250.000137,250.0,365.069672,75.377953,1158.342041,292.413849,274.910095,0.03711,0.012581,1164.474731,0.001401,0.150281,0.1,0.0,1.0,2673.216309, set /systems/vacuum/serviceable false, turn_+45
94.086021,253.478043,254.671494,7.566082,-0.391887,7.564021,-0.398756,250.000137,250.0,369.095856,75.441086,1160.827393,292.739624,274.883423,0.045635,0.065446,1165.542114,0.001939,0.150561,0.1,0.0,1.0,2673.381592, set /systems/vacuum/serviceable false, turn_+45
94.049942,259.362061,260.555481,7.612117,-0.075246,7.609425,-0.084222,260.000153,260.0,374.913635,75.528122,1166.489136,293.229218,274.852722,0.076672,0.140143,1166.958008,0.001866,0.15128,0.1,0.0,1.0,2673.570557, set /systems/vacuum/serviceable false, turn_+45
94.011749,263.292206,264.485657,7.633476,0.279823,7.630316,0.269287,260.000153,260.0,378.809662,75.58345,1170.901367,293.487061,274.840027,0.102971,0.175687,1168.093506,0.001018,0.151908,0.1,0.0,1.0,2673.658691, set /systems/vacuum/serviceable false, turn_+45
93.969139,267.065765,268.259216,7.645748,0.683537,7.642104,0.671388,270.000153,270.0,382.556732,75.634407,1174.891602,293.647919,274.835114,0.128111,0.193924,1169.380981,-0.001332,0.152606,0.1,0.0,1.0,2673.71875, set /systems/vacuum/serviceable false, turn_+45
93.916458,273.148254,274.341675,7.64445,1.332157,7.639955,1.317173,270.000153,270.0,388.60791,75.712296,1179.52356,293.724945,274.843262,0.155495,0.191165,1171.661621,-0.003255,0.152842,0.1,0.0,1.0,2673.784668, set /systems/vacuum/serviceable false, turn_+45
93.878624,279.088654,280.282074,7.63303,1.838326,7.627622,1.820298,280.000153,280.0,394.51059,75.783676,1181.06958,293.651245,274.869476,0.165159,0.163521,1174.424194,-0.006344,0.152799,0.1,0.0,1.0,2673.839844, set /systems/vacuum/serviceable false, turn_+45
93.859375,282.89267,284.086121,7.625579,2.054471,7.619543,2.034352,280.000153,280.0,398.283234,75.827293,1180.8302,293.581512,274.894531,0.162487,0.142312,1176.281982,-0.00799,0.152644,0.1,0.0,1.0,2673.881104, set /systems/vacuum/serviceable false, turn_+45
93.847832,289.020477,290.213928,7.61307,2.240574,7.605952,2.216848,290.000153,290.0,404.347382,75.894653,1179.10498,293.518616,274.946136,0.149934,0.116992,1179.086792,-0.009783,0.152391,0.1,0.0,1.0,2673.964111, set /systems/vacuum/serviceable false, turn_+45
93.840057,292.834503,294.027954,7.606228,2.278878,7.598393,2.252761,290.000153,290.0,408.111572,75.934975,1177.645386,293.541565,274.984436,0.139796,0.111458,1180.726563,-0.010477,0.152204,0.1,0.0,1.0,2674.026367, set /systems/vacuum/serviceable false, turn_+45
93.833839,296.981201,298.174622,7.5992,2.289548,7.590546,2.260701,300.000153,300.0,412.197723,75.977554,1176.062134,293.630981,275.031158,0.131215,0.115684,1182.279785,-0.010852,0.151968,0.1,0.0,1.0,2674.101318, set /systems/vacuum/serviceable false, turn_+45
93.819519,302.952271,304.145721,7.593502,2.309721,7.583597,2.276705,300.000153,300.0,418.073151,76.036674,1174.310059,293.863098,275.108307,0.124685,0.137225,1184.080811,-0.010903,0.151811,0.1,0.0,1.0,2674.215576, set /systems/vacuum/serviceable false, turn_+45
93.800232,308.754944,309.948364,7.592605,2.390768,7.581404,2.35343,310.000153,310.0,423.779419,76.091682,1173.598145,294.158386,275.196106,0.126964,0.167082,1185.332397,-0.010999,0.151672,0.1,0.0,1.0,2674.32373, set /systems/vacuum/serviceable false, turn_+45
93.782112,312.898468,314.091919,7.594093,2.497885,7.581917,2.457296,310.000153,310.0,427.854401,76.129463,1173.67041,294.377136,275.2677,0.132284,0.187942,1186.010986,-0.011222,0.151632,0.1,0.0,1.0,2674.394531, set /systems/vacuum/serviceable false, turn_+45
93.756042,318.861755,320.055206,7.595993,2.711079,7.582341,2.665571,320.000153,320.0,433.724121,76.181633,1174.248657,294.662842,275.385223,0.142696,0.210786,1186.656006,-0.011895,0.151638,0.1,0.0,1.0,2674.484619, set /systems/vacuum/serviceable false, turn_+45
93.736748,322.670837,323.864288,7.595947,2.864283,7.581308,2.815485,320.000153,320.0,437.47583,76.213608,1174.613403,294.815796,275.469666,0.149209,0.219249,1186.965698,-0.012516,0.151648,0.1,0.0,1.0,2674.535889, set /systems/vacuum/serviceable false, turn_+45
93.709366,328.798645,329.992096,7.593525,3.103263,7.577226,3.048932,330.000153,330.0,443.512726,76.262955,1174.758301,295.013855,275.62085,0.155778,0.223561,1187.403198,-0.013639,0.151626,0.1,0.0,1.0,2674.613525, set /systems/vacuum/serviceable false, turn_+45
93.692802,332.608368,333.801819,7.590835,3.227764,7.573459,3.169844,330.000153,330.0,447.265045,76.292412,1174.470947,295.116699,275.72406,0.157354,0.222225,1187.666992,-0.014427,0.151577,0.1,0.0,1.0,2674.661621, set /systems/vacuum/serviceable false, turn_+45
93.670258,338.56958,339.763031,7.584911,3.373654,7.565781,3.309886,340.000153,340.0,453.134949,76.336838,1173.413696,295.271027,275.898743,0.15598,0.218434,1187.948242,-0.01537,0.151469,0.1,0.0,1.0,2674.741455, set /systems/vacuum/serviceable false, turn_+45
93.662849,342.541931,343.735382,7.580165,3.437882,7.559818,3.370059,340.000153,340.0,457.044617,76.365417,1172.390869,295.383392,276.023499,0.153424,0.217081,1188.029663,-0.016065,0.151316,0.1,0.0,1.0,2674.798828, set /systems/vacuum/serviceable false, turn_+45
93.647217,348.495331,349.688782,7.573527,3.496651,7.551285,3.42251,350.000153,350.0,462.902161,76.406883,1170.673218,295.582428,276.222076,0.149034,0.21934,1187.907349,-0.016371,0.151196,0.1,0.0,1.0,2674.891846, set /systems/vacuum/serviceable false, turn_+45
93.640923,352.627655,353.821106,7.569394,3.524513,7.545786,3.44582,350.000153,350.0,466.964905,76.434761,1169.534424,295.745239,276.367584,0.146755,0.224336,1187.772461,-0.016575,0.15108,0.1,0.0,1.0,2674.960205, set /systems/vacuum/serviceable false, turn_+45
93.625725,358.574799,359.76825,7.56377,3.567186,7.538124,3.481699,360.000153,360.0,472.808777,76.47364,1168.099976,296.009125,276.587646,0.145347,0.235296,1187.481812,-0.016783,0.150916,0.1,0.0,1.0,2675.061523, set /systems/vacuum/serviceable false, turn_+45
93.616699,362.535339,363.72879,7.561429,3.604834,7.534377,3.514661,360.000153,360.0,476.70108,76.498764,1167.345215,296.196899,276.741119,0.145831,0.243751,1187.142456,-0.016907,0.150813,0.1,0.0,1.0,2675.129395, set /systems/vacuum/serviceable false, turn_+45
93.599258,368.306061,369.499512,7.558841,3.677652,7.529672,3.580423,370.000153,370.0,482.373566,76.534294,1166.540405,296.474121,276.974274,0.148154,0.255464,1186.533325,-0.017166,0.150688,0.1,0.0,1.0,2675.226807, set /systems/vacuum/serviceable false, turn_+45
