airspeed_indicator_indicated_speed_kt,altimeter_indicated_altitude_ft,altimeter_pressure_alt_ft,attitude_indicator_indicated_pitch_deg,attitude_indicator_indicated_roll_deg,attitude_indicator_internal_pitch_deg,attitude_indicator_internal_roll_deg,encoder_indicated_altitude_ft,encoder_pressure_alt_ft,gps_indicated_altitude_ft,gps_indicated_ground_speed_kt,gps_indicated_vertical_speed,indicated_heading_deg,magnetic_compass_indicated_heading_deg,slip_skid_ball_indicated_slip_skid,turn_indicator_indicated_turn_rate,vertical_speed_indicator_indicated_speed_fpm,flight_aileron,flight_elevator,flight_rudder,flight_flaps,engine_throttle,engine_rpm,Command_fault,Command
5.328827,-96.932182,-95.738739,2.976914,1.388507,2.592402,0.106801,-99.999855,-100.0,2.286275,0.0,0.00613,297.871429,268.982239,0.010353,-0.07149,-17.366421,-0.0,0.0,0.0,0.0,0.0,599.371338,, takeoff
5.307765,-96.962685,-95.769241,2.974972,1.381516,2.592668,0.107167,-99.999855,-100.0,2.286292,0.0,0.00546,297.870636,271.104584,0.010289,-0.064933,-16.398262,-0.0,0.0,0.0,0.0,0.0,599.412476,, takeoff
5.303274,-97.001831,-95.80838,2.765536,0.712153,2.584112,0.107408,-99.999855,-100.0,2.286278,3.8E-5,-0.012996,297.869293,274.696533,0.010065,-0.055417,-17.043259,-0.019736,0.051853,4.0E-5,0.0,1.0,679.811768,, takeoff
5.313252,-97.019417,-95.825974,2.640335,0.357442,2.565034,0.106441,-99.999855,-100.0,2.286211,1.34E-4,-0.031486,297.868408,276.799286,0.009872,-0.050605,-10.945932,-0.010174,0.051682,1.07E-4,0.0,1.0,783.995483,, takeoff
5.381875,-97.043152,-95.849709,2.515249,0.101141,2.515249,0.101141,-99.999855,-100.0,2.286052,8.29E-4,-0.009714,297.866577,280.422241,0.010008,-0.0434,-20.191923,-0.005106,0.051301,1.51E-4,0.0,1.0,1018.098755,, takeoff
5.474355,-97.053825,-95.860382,2.504501,0.095808,2.504501,0.095808,-99.999855,-100.0,2.286083,0.00238,0.028338,297.865265,282.492371,0.010647,-0.039811,-20.233114,-0.001445,0.050305,2.43E-4,0.0,1.0,1166.87146,, takeoff
5.736459,-97.067841,-95.874397,2.515944,0.083849,2.515944,0.083849,-99.999855,-100.0,2.286402,0.009221,0.09265,297.862061,285.888275,0.014678,-0.034701,-12.956127,-0.001369,0.05009,3.08E-4,0.0,1.0,1411.33374,, takeoff
5.994936,-97.075066,-95.881622,2.53459,0.07447,2.53459,0.07447,-99.999855,-100.0,2.28679,0.018482,0.127587,297.858154,288.098755,0.019492,-0.031988,-9.502269,-0.001198,0.050319,4.68E-4,0.0,1.0,1561.306396,, takeoff
6.451182,-97.082626,-95.889175,2.564233,0.061483,2.564233,0.061483,-99.999855,-100.0,2.287529,0.039543,0.176457,297.848267,290.964874,0.026481,-0.029483,-8.347946,-0.001064,0.050692,6.64E-4,0.0,1.0,1736.908691,, takeoff
6.875508,-97.086967,-95.893524,2.586856,0.052275,2.586856,0.052275,-99.999855,-100.0,2.288257,0.063808,0.219667,297.835144,293.028168,0.030619,-0.028673,-17.393034,-8.78E-4,0.051285,0.001158,0.0,1.0,1847.51123,, takeoff
7.556272,-97.091377,-95.897934,2.614045,0.041861,2.614045,0.041861,-99.999855,-100.0,2.2895,0.111262,0.276008,297.805298,295.673553,0.032703,-0.02948,-14.437505,-7.47E-4,0.051737,0.001814,0.0,1.0,1968.608887,, takeoff
8.06043,-97.09346,-95.900017,2.629078,0.036935,2.629078,0.036935,-99.999855,-100.0,2.290493,0.15285,0.318213,297.777069,297.286804,0.030748,-0.031221,-12.137494,-5.98E-4,0.052281,0.003307,0.0,1.0,2031.110474,, takeoff
8.850963,-97.095512,-95.902061,2.645767,0.032184,2.645767,0.032184,-99.999855,-100.0,2.292193,0.228959,0.380314,297.724579,299.405426,0.027983,-0.035182,-9.036413,-5.28E-4,0.052582,0.004718,0.0,1.0,2100.730957,, takeoff
9.42383,-97.096329,-95.902885,2.654655,0.029886,2.654655,0.029886,-99.999855,-100.0,2.293545,0.29224,0.427577,297.680634,300.688843,0.026456,-0.038806,-13.85256,-4.6E-4,0.052915,0.007343,0.0,1.0,2136.428223,, takeoff
10.31758,-97.096825,-95.903381,2.664358,0.028147,2.664358,0.028147,-99.999855,-100.0,2.295876,0.404604,0.50425,297.606781,302.343781,0.024093,-0.044763,-16.06671,-4.27E-4,0.053093,0.00954,0.0,1.0,2175.789551,, takeoff
10.929285,-97.096718,-95.903275,2.669317,0.028097,2.669317,0.028097,-99.999855,-100.0,2.297645,0.491296,0.555063,297.55246,303.262268,0.022778,-0.04904,-15.615248,-4.02E-4,0.053287,0.013232,0.0,1.0,2194.63623,, takeoff
11.891006,-97.095955,-95.902512,2.67498,0.029449,2.67498,0.029449,-99.999855,-100.0,2.300721,0.643461,0.638837,297.467499,304.384125,0.020503,-0.054927,-11.898059,-4.01E-4,0.053386,0.015948,0.0,1.0,2215.081787,, takeoff
12.523419,-97.095108,-95.901665,2.678009,0.031018,2.678009,0.031018,-99.999855,-100.0,2.30295,0.754103,0.696618,297.41214,304.920776,0.019181,-0.058299,-5.278551,-4.21E-4,0.0535,0.020196,0.0,1.0,2224.076172,, takeoff
13.477655,-97.093361,-95.899918,2.681807,0.034132,2.681807,0.034132,-99.999855,-100.0,2.306646,0.93744,0.780458,297.335785,305.447144,0.017322,-0.061649,14.387904,-4.43E-4,0.05356,0.022964,0.0,1.0,2232.967773,, takeoff
13.477655,-97.093361,-95.899918,2.681807,0.034132,2.681807,0.034132,-99.999855,-100.0,2.306646,0.93744,0.780458,297.335785,305.447144,0.017322,-0.061649,14.387904,-4.43E-4,0.05356,0.022964,0.0,1.0,2232.967773,, takeoff
15.076241,-97.090134,-95.89669,2.687959,0.041716,2.687959,0.041716,-99.999855,-100.0,2.313786,1.28818,0.921276,297.228638,305.607117,0.014958,-0.063182,17.2715,-4.88E-4,0.053636,0.026782,0.0,1.0,2242.161133,, takeoff
15.688972,-97.088043,-95.8946,2.690205,0.044484,2.690205,0.044484,-99.999855,-100.0,2.316823,1.43717,0.977147,297.190338,305.443298,0.014634,-0.063268,15.280128,-5.96E-4,0.053759,0.03214,0.0,1.0,2245.317383,, takeoff
16.677048,-97.084328,-95.890884,2.693768,0.049152,2.693768,0.049152,-99.999855,-100.0,2.322092,1.693237,1.069496,297.141937,304.937317,0.014282,-0.061224,6.896231,-6.35E-4,0.053804,0.034055,0.0,1.0,2250.001221,, takeoff
17.291069,-97.081795,-95.888351,2.696354,0.05223,2.696354,0.05223,-99.999855,-100.0,2.325605,1.862377,1.126339,297.119232,304.482056,0.014459,-0.058964,6.344065,-7.02E-4,0.053875,0.036475,0.0,1.0,2252.674316,, takeoff
18.252258,-97.077484,-95.884041,2.700677,0.056962,2.700677,0.056962,-99.999855,-100.0,2.331467,2.142056,1.216745,297.094177,303.572754,0.01509,-0.054208,16.490591,-7.46E-4,0.053927,0.03761,0.0,1.0,2256.529785,, takeoff
18.891975,-97.074379,-95.880936,2.703787,0.060288,2.703787,0.060288,-99.999855,-100.0,2.33562,2.338405,1.273621,297.082062,302.845764,0.015651,-0.05072,18.455698,-8.14E-4,0.054014,0.038863,0.0,1.0,2258.905273,, takeoff
19.851379,-97.069374,-95.875931,2.708524,0.065588,2.708524,0.065588,-99.999855,-100.0,2.342216,2.647371,1.360644,297.06723,301.597382,0.016418,-0.045609,18.101494,-8.61E-4,0.054076,0.039468,0.0,1.0,2262.22583,, takeoff
20.463846,-97.065941,-95.872498,2.711691,0.069292,2.711691,0.069292,-99.999855,-100.0,2.34666,2.853626,1.41685,297.05722,300.713715,0.01666,-0.042827,10.051632,-9.37E-4,0.05417,0.04021,0.0,1.0,2264.219971,, takeoff
21.475235,-97.059898,-95.866455,2.716919,0.075938,2.716919,0.075938,-99.999855,-100.0,2.354394,3.2091,1.509567,297.036285,299.133545,0.016313,-0.039487,14.847791,-9.9E-4,0.054234,0.04071,0.0,1.0,2267.341553,, takeoff
22.060312,-97.056183,-95.86274,2.720073,0.080123,2.720073,0.080123,-99.999855,-100.0,2.359095,3.423071,1.562893,297.019897,298.163422,0.015522,-0.038462,19.23675,-0.001085,0.054338,0.041757,0.0,1.0,2269.068604,, takeoff
23.070377,-97.049385,-95.855942,2.72552,0.087771,2.72552,0.087771,-99.999855,-100.0,2.367602,3.806354,1.65695,296.983673,296.419006,0.013382,-0.038123,15.58469,-0.001145,0.054401,0.042577,0.0,1.0,2271.944824,, takeoff
23.70793,-97.044853,-95.851402,2.729162,0.092856,2.729162,0.092856,-99.999855,-100.0,2.373227,4.057139,1.717276,296.954895,295.287079,0.011463,-0.038862,12.524658,-0.001254,0.05451,0.044388,0.0,1.0,2273.705811,, takeoff
24.662678,-97.037689,-95.844246,2.73465,0.100485,2.73465,0.100485,-99.999855,-100.0,2.382031,4.445581,1.80584,296.905975,293.569366,0.00795,-0.040703,8.985206,-0.001327,0.054583,0.045827,0.0,1.0,2276.285645,, takeoff
25.271299,-97.03289,-95.839447,2.740001,0.105942,2.740001,0.105942,-99.999855,-100.0,2.388022,4.701259,1.981292,296.871765,292.471802,0.005672,-0.042182,19.611269,-0.001435,0.054693,0.048273,0.0,1.0,2277.903076,, takeoff
26.248653,-97.024681,-95.831238,2.750761,0.119137,2.750761,0.119137,-99.999855,-100.0,2.398674,5.124467,2.169741,296.816315,290.727905,0.001818,-0.044216,9.192091,-0.001513,0.0548,0.049983,0.0,1.0,2280.467041,, takeoff
26.828897,-97.01947,-95.826027,2.754675,0.123815,2.754675,0.123815,-99.999855,-100.0,2.405393,5.382878,2.227757,296.783386,289.713989,-7.19E-4,-0.045349,9.536219,-0.001702,0.055015,0.052756,0.0,1.0,2281.973389,, takeoff
27.775591,-97.010437,-95.816994,2.760339,0.130295,2.760339,0.130295,-99.999855,-100.0,2.416763,5.816296,2.320273,296.733978,288.109741,-0.003587,-0.046271,16.19626,-0.001769,0.055094,0.054402,0.0,1.0,2284.41626,, takeoff
28.405281,-97.004074,-95.810631,2.764539,0.134494,2.764539,0.134494,-99.999855,-100.0,2.42461,6.112334,2.383614,296.70401,287.08786,-0.004859,-0.046356,8.307213,-0.001861,0.055207,0.056873,0.0,1.0,2286.032715,, takeoff
29.374599,-96.993782,-95.800339,2.771259,0.140429,2.771259,0.140429,-99.999855,-100.0,2.437129,6.579488,2.487418,296.664246,285.603363,-0.005814,-0.045463,7.775732,-0.001921,0.055291,0.058371,0.0,1.0,2288.51001,, takeoff
30.026913,-96.986496,-95.793053,2.776057,0.144493,2.776057,0.144493,-99.999855,-100.0,2.445879,6.902315,2.551999,296.640594,284.671509,-0.005969,-0.044445,18.53343,-0.002006,0.055425,0.060359,0.0,1.0,2290.175293,, takeoff
30.96479,-96.975548,-95.782104,2.782849,0.150195,2.782849,0.150195,-99.999855,-100.0,2.458887,7.377028,2.650879,296.610657,283.442596,-0.005723,-0.042514,7.944991,-0.002064,0.055521,0.061542,0.0,1.0,2292.564697,, takeoff
31.535849,-96.968605,-95.775162,2.787129,0.15391,2.787129,0.15391,-99.999855,-100.0,2.467073,7.672689,2.705745,296.593262,282.762146,-0.005487,-0.04135,16.892563,-0.002146,0.055657,0.063039,0.0,1.0,2294.020752,, takeoff
32.495346,-96.956497,-95.763054,2.794174,0.160358,2.794174,0.160358,-99.999855,-100.0,2.481247,8.17914,2.808411,296.563599,281.746216,-0.005385,-0.039687,12.869827,-0.002199,0.055743,0.063908,0.0,1.0,2296.463867,, takeoff
33.115921,-96.948364,-95.754921,2.800533,0.164883,2.800533,0.164883,-99.999855,-100.0,2.490787,8.513642,2.93372,296.541931,281.176636,-0.005657,-0.039136,14.208317,-0.002291,0.055883,0.065392,0.0,1.0,2298.045654,, takeoff
34.069111,-96.935219,-95.741776,2.813303,0.17228,2.813303,0.17228,-99.999855,-100.0,2.507318,9.038248,3.309077,296.50351,280.440216,-0.0071,-0.03917,14.800621,-0.002355,0.056011,0.066475,0.0,1.0,2300.480469,, takeoff
34.686169,-96.926186,-95.732742,2.817686,0.17742,2.817686,0.17742,-99.999855,-100.0,2.51846,9.384136,3.373088,296.47403,280.055267,-0.008675,-0.039912,19.694845,-0.002461,0.056266,0.068396,0.0,1.0,2302.057861,, takeoff
35.609982,-96.911995,-95.718552,2.823716,0.185223,2.823716,0.185223,-99.999855,-100.0,2.535586,9.910951,3.475251,296.424744,279.614349,-0.011917,-0.041655,12.451741,-0.002535,0.056354,0.06987,0.0,1.0,2304.421875,, takeoff
36.198944,-96.90255,-95.709106,2.827951,0.190296,2.827951,0.190296,-99.999855,-100.0,2.546801,10.252389,3.545358,296.390289,279.417206,-0.014554,-0.043095,19.018171,-0.002646,0.056474,0.072334,0.0,1.0,2305.931152,, takeoff
37.091938,-96.887619,-95.694176,2.834603,0.197723,2.834603,0.197723,-99.999855,-100.0,2.564278,10.77899,3.643234,296.336853,279.240082,-0.018617,-0.045182,16.089947,-0.002719,0.056559,0.074057,0.0,1.0,2308.22583,, takeoff
37.703026,-96.877037,-95.683586,2.839426,0.202764,2.839426,0.202764,-99.999855,-100.0,2.576554,11.144836,3.714614,296.299316,279.201385,-0.021237,-0.04659,16.534798,-0.002825,0.056692,0.076729,0.0,1.0,2309.79834,, takeoff
38.642891,-96.860191,-95.66674,2.846566,0.209751,2.846566,0.209751,-99.999855,-100.0,2.59592,11.716142,3.742884,296.243591,279.266541,-0.024522,-0.048138,18.961315,-0.002897,0.056789,0.078606,0.0,1.0,2312.220703,, takeoff
39.274693,-96.848442,-95.654999,2.855952,0.216422,2.855952,0.216422,-99.999855,-100.0,2.609614,12.107002,4.257886,296.207886,279.391144,-0.026061,-0.0487,12.980927,-0.002996,0.056931,0.081392,0.0,1.0,2313.855957,, takeoff
40.155529,-96.831215,-95.637772,2.866652,0.224282,2.866652,0.224282,-99.999855,-100.0,2.630874,12.660505,4.430257,296.162964,279.665894,-0.027802,-0.048631,19.017214,-0.003092,0.057119,0.083177,0.0,1.0,2316.14209, set /instrumentation/magnetic-compass/serviceable false, takeoff
40.758087,-96.818848,-95.625404,2.871004,0.228171,2.871004,0.228171,-99.999855,-100.0,2.645773,13.044154,4.504049,296.134796,279.785065,-0.028302,-0.048219,17.440489,-0.003204,0.057333,0.085423,0.0,1.0,2317.708008, set /instrumentation/magnetic-compass/serviceable false, takeoff
41.68317,-96.798973,-95.60553,2.87751,0.233602,2.87751,0.233602,-99.999855,-100.0,2.66922,13.641902,4.617132,296.095886,279.785065,-0.028106,-0.046967,10.917718,-0.00326,0.05742,0.086832,0.0,1.0,2320.118652, set /instrumentation/magnetic-compass/serviceable false, takeoff
42.256557,-96.786179,-95.592735,2.881997,0.237065,2.881997,0.237065,-99.999855,-100.0,2.684097,14.017189,4.69166,296.072754,279.785065,-0.027639,-0.046134,18.908064,-0.003337,0.05755,0.088777,0.0,1.0,2321.615234, set /instrumentation/magnetic-compass/serviceable false, takeoff
43.15115,-96.765518,-95.572075,2.889022,0.242417,2.889022,0.242417,-99.999855,-100.0,2.70785,14.610082,4.809466,296.037048,279.785065,-0.026779,-0.044915,16.086779,-0.003387,0.05764,0.089934,0.0,1.0,2324.001221, set /instrumentation/magnetic-compass/serviceable false, takeoff
43.744251,-96.751274,-95.557831,2.899764,0.247107,2.899764,0.247107,-99.999855,-100.0,2.724987,15.008926,5.367343,296.011749,279.785065,-0.026523,-0.044429,19.415543,-0.003463,0.05778,0.091719,0.0,1.0,2326.235596, set /instrumentation/magnetic-compass/serviceable false, takeoff
44.657021,-96.728241,-95.534798,2.908347,0.25448,2.908347,0.25448,-99.999855,-100.0,2.752962,15.629185,5.509534,295.968964,279.785065,-0.026709,-0.044367,16.620153,-0.00353,0.057995,0.092984,0.0,1.0,2330.784668, set /instrumentation/magnetic-compass/serviceable false, takeoff
45.247356,-96.712624,-95.51918,2.912623,0.259023,2.912623,0.259023,-99.999855,-100.0,2.771451,16.034882,5.5848,295.937408,279.785065,-0.027459,-0.044946,17.142179,-0.003635,0.058167,0.095123,0.0,1.0,2334.189697, set /instrumentation/magnetic-compass/serviceable false, takeoff
46.107792,-96.689041,-95.495598,2.918828,0.26556,2.918828,0.26556,-99.999855,-100.0,2.798898,16.631104,5.703912,295.887543,279.785065,-0.029485,-0.046275,15.199711,-0.0037,0.058252,0.096701,0.0,1.0,2339.53833, set /instrumentation/magnetic-compass/serviceable false, takeoff
46.697548,-96.672371,-95.47892,2.923453,0.270228,2.923453,0.270228,-99.999855,-100.0,2.81806,17.042988,5.792978,295.850464,279.785065,-0.031375,-0.047534,15.690327,-0.003794,0.058377,0.099194,0.0,1.0,2343.374512, set /instrumentation/magnetic-compass/serviceable false, takeoff
47.580086,-96.646599,-95.453148,2.930339,0.276732,2.930339,0.276732,-99.999855,-100.0,2.847327,17.665306,5.912793,295.793396,279.785065,-0.034538,-0.049408,18.720762,-0.00386,0.058469,0.101048,0.0,1.0,2349.281494, set /instrumentation/magnetic-compass/serviceable false, takeoff
48.16814,-96.628922,-95.435478,2.941777,0.288319,2.941777,0.288319,-99.999855,-100.0,2.868178,18.083088,7.011263,295.754913,279.785065,-0.036393,-0.050369,12.93108,-0.003953,0.058607,0.103902,0.0,1.0,2353.285156, set /instrumentation/magnetic-compass/serviceable false, takeoff
49.046436,-96.601082,-95.407639,2.952995,0.296973,2.952995,0.296973,-99.999855,-100.0,2.902592,18.713953,6.944774,295.69928,279.785065,-0.039568,-0.051554,16.88727,-0.004119,0.058836,0.105826,0.0,1.0,2359.34668, set /instrumentation/magnetic-compass/serviceable false, takeoff
49.656273,-96.580811,-95.387367,2.957346,0.300744,2.957346,0.300744,-99.999855,-100.0,2.926876,19.154924,7.037089,295.66217,279.785065,-0.041013,-0.052083,21.569799,-0.004242,0.05906,0.108607,0.0,1.0,2363.581787, set /instrumentation/magnetic-compass/serviceable false, takeoff
50.508492,-96.551315,-95.357872,2.963209,0.30508,2.963209,0.30508,-99.999855,-100.0,2.961413,19.7761,7.169666,295.615021,279.785065,-0.042024,-0.051969,11.748201,-0.004296,0.059147,0.110463,0.0,1.0,2369.531738, set /instrumentation/magnetic-compass/serviceable false, takeoff
51.091953,-96.530403,-95.33696,2.967749,0.307976,2.967749,0.307976,-99.999855,-100.0,2.985478,20.204548,7.264728,295.585327,279.785065,-0.041964,-0.05151,12.229273,-0.004358,0.059264,0.11282,0.0,1.0,2373.620605, set /instrumentation/magnetic-compass/serviceable false, takeoff
51.96629,-96.498146,-95.304703,2.974577,0.311708,2.974577,0.311708,-99.999855,-100.0,3.022166,20.850895,7.4099,295.544495,279.785065,-0.040747,-0.05033,12.914405,-0.0044,0.059355,0.114305,0.0,1.0,2379.763428, set /instrumentation/magnetic-compass/serviceable false, takeoff
52.571648,-96.475136,-95.281685,2.979457,0.314318,2.979457,0.314318,-99.999855,-100.0,3.048063,21.302265,7.504995,295.516876,279.785065,-0.039471,-0.049522,17.474911,-0.004453,0.059492,0.116347,0.0,1.0,2384.033203, set /instrumentation/magnetic-compass/serviceable false, takeoff
53.442989,-96.441208,-95.247765,2.98607,0.31774,2.98607,0.31774,-99.999855,-100.0,3.085954,21.955729,7.646382,295.477325,279.785065,-0.037141,-0.048468,18.040058,-0.00449,0.059589,0.117728,0.0,1.0,2390.187256, set /instrumentation/magnetic-compass/serviceable false, takeoff
53.998722,-96.41906,-95.225616,2.990397,0.320091,2.990397,0.320091,-99.999855,-100.0,3.110533,22.375311,7.735147,295.450623,279.785065,-0.035623,-0.048118,14.452385,-0.004539,0.059721,0.119705,0.0,1.0,2394.121826, set /instrumentation/magnetic-compass/serviceable false, takeoff
54.892021,-96.382706,-95.189262,2.997035,0.323703,2.997035,0.323703,-99.999855,-100.0,3.150677,23.053587,7.879649,295.404724,279.785065,-0.033662,-0.048081,18.932714,-0.004573,0.059808,0.12104,0.0,1.0,2400.456055, set /instrumentation/magnetic-compass/serviceable false, takeoff
55.736485,-96.347534,-95.154091,3.003255,0.327156,3.003255,0.327156,-99.999855,-100.0,3.189334,23.698801,8.006599,295.356293,279.785065,-0.032401,-0.048837,14.497576,-0.004624,0.059941,0.123335,0.0,1.0,2406.45459, set /instrumentation/magnetic-compass/serviceable false, takeoff
56.313992,-96.322983,-95.129539,3.006417,0.330563,3.006417,0.330563,-99.999855,-100.0,3.215948,24.143185,8.004288,295.321228,279.785065,-0.03183,-0.049554,22.250027,-0.004656,0.060021,0.124837,0.0,1.0,2410.570801, set /instrumentation/magnetic-compass/serviceable false, takeoff
56.915649,-96.297119,-95.103676,3.01077,0.332911,3.01077,0.332911,-99.999855,-100.0,3.243933,24.607718,8.104341,295.28241,279.785065,-0.031594,-0.050623,15.006137,-0.004722,0.060128,0.12751,0.0,1.0,2414.862305, set /instrumentation/magnetic-compass/serviceable false, takeoff
57.732651,-96.261452,-95.068008,3.016692,0.335422,3.016692,0.335422,-99.999855,-100.0,3.282542,25.242064,8.237153,295.229187,279.785065,-0.031309,-0.051952,13.024244,-0.004756,0.060215,0.129451,0.0,1.0,2420.70459, set /instrumentation/magnetic-compass/serviceable false, takeoff
58.356327,-96.233742,-95.040298,3.025537,0.335424,3.025537,0.335424,-99.999855,-100.0,3.313547,25.729088,8.791379,295.188751,279.785065,-0.031377,-0.052858,22.39925,-0.004792,0.060334,0.132112,0.0,1.0,2425.176025, set /instrumentation/magnetic-compass/serviceable false, takeoff
59.217251,-96.194321,-95.000877,3.03745,0.336629,3.03745,0.336629,-99.999855,-100.0,3.358578,26.406084,9.787552,295.136108,279.785065,-0.029893,-0.053356,15.25172,-0.004792,0.060511,0.134134,0.0,1.0,2431.370117, set /instrumentation/magnetic-compass/serviceable false, takeoff
59.765518,-96.168236,-94.974792,3.044869,0.337317,3.044869,0.337317,-89.999855,-90.0,3.390037,26.840157,9.8867,295.104828,279.785065,-0.02844,-0.053289,18.793072,-0.004809,0.060749,0.136766,0.0,1.0,2435.328369, set /instrumentation/magnetic-compass/serviceable false, takeoff
60.646088,-96.124542,-94.931099,3.050125,0.3371,3.050125,0.3371,-89.999855,-90.0,3.441219,27.540869,10.026613,295.059296,279.785065,-0.024703,-0.052451,14.70409,-0.004819,0.060897,0.13833,0.0,1.0,2441.720459, set /instrumentation/magnetic-compass/serviceable false, takeoff
61.193287,-96.096489,-94.903046,3.053576,0.336876,3.053576,0.336876,-89.999855,-90.0,3.473422,27.9779,10.133164,295.032959,279.785065,-0.021448,-0.051698,16.449049,-0.004816,0.061003,0.140607,0.0,1.0,2445.746338, set /instrumentation/magnetic-compass/serviceable false, takeoff
62.047054,-96.051353,-94.85791,3.059711,0.335847,3.059711,0.335847,-89.999855,-90.0,3.524551,28.664095,10.711809,294.994904,279.785065,-0.015354,-0.050171,13.714866,-0.004813,0.061072,0.141924,0.0,1.0,2452.103516, set /instrumentation/magnetic-compass/serviceable false, takeoff
62.614704,-96.020378,-94.826935,3.068451,0.340261,3.068451,0.340261,-89.999855,-90.0,3.560601,29.122957,10.954388,294.970367,279.785065,-0.010765,-0.049058,14.247954,-0.004798,0.061194,0.143826,0.0,1.0,2456.365967, set /instrumentation/magnetic-compass/serviceable false, takeoff
63.465664,-95.972389,-94.778946,3.074195,0.337933,3.074195,0.337933,-89.999855,-90.0,3.615769,29.813261,11.102909,294.933167,279.785065,-0.002813,-0.047839,15.008202,-0.004861,0.061369,0.145053,0.0,1.0,2462.782959, set /instrumentation/magnetic-compass/serviceable false, takeoff
64.032303,-95.939461,-94.746017,3.077611,0.335972,3.077611,0.335972,-89.999855,-90.0,3.652972,30.274757,11.207718,294.906952,279.785065,0.002882,-0.047377,15.465708,-0.004828,0.061484,0.146913,0.0,1.0,2467.071533, set /instrumentation/magnetic-compass/serviceable false, fly_strait
64.91581,-95.887459,-94.694008,3.081846,0.355855,3.081846,0.355855,-89.999855,-90.0,3.711015,30.988214,11.370007,294.727844,279.785065,0.001744,-0.07216,21.201778,-0.0048,0.061552,0.0,0.0,1.0,2473.707275, set /instrumentation/magnetic-compass/serviceable false, fly_strait
65.487267,-95.854431,-94.660988,3.0803,0.358809,3.0803,0.358809,-89.999855,-90.0,3.74753,31.432966,11.735013,294.285706,279.785065,-0.017943,-0.139173,16.412207,-0.005084,0.061637,0.008955,0.0,1.0,2477.891357, set /instrumentation/magnetic-compass/serviceable false, fly_strait
66.426941,-95.799774,-94.606331,3.084287,0.328611,3.084287,0.328611,-89.999855,-90.0,3.812107,32.150467,12.820654,293.153564,279.785065,-0.086598,-0.298605,22.452827,-0.005126,0.061606,0.031062,0.0,1.0,2484.776611, set /instrumentation/magnetic-compass/serviceable false, fly_strait
67.013939,-95.764481,-94.571037,3.080032,0.294582,3.080032,0.294582,-89.999855,-90.0,3.85325,32.59779,12.937355,292.315948,279.785065,-0.153226,-0.405667,17.991247,-0.004694,0.061686,0.087669,0.0,1.0,2489.139404, set /instrumentation/magnetic-compass/serviceable false, fly_strait
67.928131,-95.707481,-94.514038,3.076953,0.225787,3.076953,0.225787,-89.999855,-90.0,3.918525,33.300098,13.17732,291.132568,279.785065,-0.261085,-0.530958,18.876184,-0.004208,0.061601,0.12955,0.0,1.0,2496.045898, set /instrumentation/magnetic-compass/serviceable false, fly_strait
68.510353,-95.670059,-94.476616,3.079509,0.184171,3.079509,0.184171,-89.999855,-90.0,3.960912,33.750248,13.352103,290.589264,279.785065,-0.321891,-0.566695,23.787512,-0.003226,0.061539,0.188719,0.0,1.0,2500.487793, set /instrumentation/magnetic-compass/serviceable false, fly_strait
69.416214,-95.609978,-94.416534,3.09145,0.125671,3.09145,0.125671,-89.999855,-90.0,4.029047,34.457024,14.120101,290.292664,279.785065,-0.37395,-0.527739,18.647415,-0.002631,0.06159,0.215884,0.0,1.0,2507.458252, set /instrumentation/magnetic-compass/serviceable false, fly_strait
70.047653,-95.566948,-94.373505,3.081078,0.067885,3.081078,0.067885,-89.999855,-90.0,4.079552,34.949432,14.874767,290.515991,279.785065,-0.375336,-0.437042,15.98287,-0.001795,0.061829,0.230714,0.0,1.0,2512.3125, set /instrumentation/magnetic-compass/serviceable false, fly_strait
70.952042,-95.500793,-94.30735,3.051571,-0.006953,3.051571,-0.006953,-89.999855,-90.0,4.157226,35.680592,15.148732,291.40152,279.785065,-0.322217,-0.233721,18.981865,-9.7E-4,0.061622,0.219548,0.0,1.0,2519.476074, set /instrumentation/magnetic-compass/serviceable false, fly_strait
71.479507,-95.458298,-94.264854,3.057074,0.014325,3.057074,0.014325,-89.999855,-90.0,4.205464,36.136333,15.404408,292.16217,279.785065,-0.252386,-0.089333,16.293087,9.9E-5,0.061031,0.175272,0.0,1.0,2523.84082, set /instrumentation/magnetic-compass/serviceable false, fly_strait
72.258583,-95.389397,-94.195953,3.010174,0.35346,3.010174,0.35346,-89.999855,-90.0,4.28992,36.851059,18.243467,293.332123,279.785065,-0.123401,0.111295,17.49283,-2.05E-4,0.061141,0.137239,0.0,1.0,2530.433594, set /instrumentation/magnetic-compass/serviceable false, fly_strait
73.009773,-95.317741,-94.124298,2.843474,1.061855,2.843474,1.061855,-89.999855,-90.0,4.380885,37.54705,19.860891,294.114349,279.785065,0.002264,0.229507,24.187941,-0.005049,0.060203,0.078741,0.0,1.0,2536.602051, set /instrumentation/magnetic-compass/serviceable false, fly_strait
73.575142,-95.263069,-94.069626,2.644067,1.555494,2.644067,1.555494,-89.999855,-90.0,4.45368,38.046402,20.07041,294.29364,279.785065,0.068766,0.242529,19.604752,-0.015169,0.056869,0.03963,0.0,1.0,2540.9729, set /instrumentation/magnetic-compass/serviceable false, fly_strait
74.122528,-95.210472,-94.017029,2.499777,1.873492,2.499777,1.873492,-89.999855,-90.0,4.513508,38.506729,17.380375,294.148865,279.785065,0.114575,0.200867,22.55372,-0.022221,0.052881,0.030666,0.0,1.0,2545.052979, set /instrumentation/magnetic-compass/serviceable false, fly_strait
75.038948,-95.125824,-93.932381,2.490589,1.953554,2.490589,1.953554,-89.999855,-90.0,4.592313,39.248478,13.700998,293.425385,279.785065,0.1394,0.057161,22.101442,-0.026764,0.049996,0.037904,0.0,1.0,2551.817139, set /instrumentation/magnetic-compass/serviceable false, fly_strait
75.915665,-95.04924,-93.855797,2.636392,1.5827,2.636392,1.5827,-89.999855,-90.0,4.659811,39.952011,16.646643,292.488342,279.785065,0.12944,-0.105491,21.133366,-0.027908,0.049812,0.074078,0.0,1.0,2558.416016, set /instrumentation/magnetic-compass/serviceable false, fly_strait
76.558693,-94.991821,-93.798378,2.725951,1.01522,2.725951,1.01522,-89.999855,-90.0,4.740728,40.476002,28.671932,291.877228,279.785065,0.102822,-0.20282,25.676323,-0.02261,0.052728,0.120931,0.0,1.0,2563.39502, set /instrumentation/magnetic-compass/serviceable false, fly_strait
77.144791,-94.931442,-93.737999,2.768145,0.334234,2.768145,0.334234,-89.999855,-90.0,4.85981,40.960663,42.366734,291.540558,279.785065,0.069866,-0.249684,20.281984,-0.014503,0.054519,0.151486,0.0,1.0,2568.023926, set /instrumentation/magnetic-compass/serviceable false, fly_strait
77.998772,-94.812569,-93.619125,2.852622,-0.673502,2.852622,-0.673502,-89.999855,-90.0,5.127042,41.689064,64.389557,291.594513,279.785065,0.032071,-0.222954,28.554251,-0.004775,0.055363,0.16832,0.0,1.0,2574.980713, set /instrumentation/magnetic-compass/serviceable false, fly_strait
78.792892,-94.642303,-93.44886,3.058645,-1.281282,3.058645,-1.281282,-89.999855,-90.0,5.517704,42.418274,92.572578,292.233765,279.785065,0.028654,-0.101646,40.409969,0.009621,0.057052,0.165622,0.0,1.0,2581.838623, set /instrumentation/magnetic-compass/serviceable false, fly_strait
79.230843,-94.50309,-93.309647,3.226256,-1.309144,3.226256,-1.309144,-89.999855,-90.0,5.83461,42.863708,114.374168,292.770142,279.785065,0.04801,-0.006642,50.142982,0.016033,0.059301,0.148666,0.0,1.0,2585.894775, set /instrumentation/magnetic-compass/serviceable false, fly_strait
79.874207,-94.198868,-93.005424,3.503493,-0.817137,3.503493,-0.817137,-89.999855,-90.0,6.51128,43.591091,156.043503,293.58902,279.785065,0.099034,0.131259,70.013321,0.018702,0.064525,0.10684,0.0,1.0,2592.174316, set /instrumentation/magnetic-compass/serviceable false, fly_strait
80.291565,-93.919144,-92.7257,3.648706,-0.190713,3.648706,-0.190713,-89.999855,-90.0,7.106672,44.094368,185.647629,293.929352,279.785065,0.137744,0.184266,86.390152,0.011673,0.07007,0.065897,0.0,1.0,2595.842285, set /instrumentation/magnetic-compass/serviceable false, fly_strait
80.890366,-93.399376,-92.205933,3.746829,0.755618,3.746829,0.755618,-89.999855,-90.0,8.132363,44.815498,221.876755,293.896515,279.785065,0.183378,0.169392,113.243141,0.002724,0.072974,0.04888,0.0,1.0,2600.098633, set /instrumentation/magnetic-compass/serviceable false, fly_strait
81.29567,-92.971909,-91.778465,3.790631,1.218847,3.790631,1.218847,-89.999855,-90.0,8.905761,45.293674,240.861313,293.555634,279.785065,0.193414,0.107213,131.897858,-0.010795,0.074937,0.050522,0.0,1.0,2602.491699, set /instrumentation/magnetic-compass/serviceable false, fly_strait
81.924461,-92.187126,-90.993683,3.870447,1.373275,3.870447,1.373275,-89.999855,-90.0,10.208085,46.026794,264.437866,292.778229,279.785065,0.174572,-0.026707,160.143112,-0.017412,0.075813,0.067566,0.0,1.0,2605.745361, set /instrumentation/magnetic-compass/serviceable false, fly_strait
82.310638,-91.626427,-90.432983,3.928796,1.120297,3.928796,1.120297,-89.999855,-90.0,11.074589,46.480076,277.372223,292.326447,279.785065,0.143895,-0.101048,176.790222,-0.02005,0.076798,0.09222,0.0,1.0,2607.582764, set /instrumentation/magnetic-compass/serviceable true, fly_strait
82.91423,-90.614044,-89.420601,4.028307,0.36684,4.028307,0.36684,-89.999855,-90.0,12.553579,47.205265,297.712646,291.937012,280.054321,0.092023,-0.159361,202.410294,-0.016004,0.078576,0.129025,0.0,1.0,2610.332031, set /instrumentation/magnetic-compass/serviceable true, fly_strait
83.276466,-89.919594,-88.726143,4.091902,-0.134248,4.091902,-0.134248,-89.999855,-90.0,13.525718,47.653358,310.371918,292.002167,280.288971,0.06485,-0.142778,217.565262,-0.009103,0.079942,0.145331,0.0,1.0,2611.942139, set /instrumentation/magnetic-compass/serviceable true, fly_strait
83.784752,-88.770409,-87.576965,4.22673,-0.641431,4.22673,-0.641431,-89.999855,-90.0,15.090007,48.330616,333.824982,292.505096,280.637268,0.054096,-0.052421,240.045181,0.001918,0.081838,0.145239,0.0,1.0,2614.264893, set /instrumentation/magnetic-compass/serviceable true, fly_strait
84.094208,-87.918411,-86.724968,4.358374,-0.690343,4.358374,-0.690343,-89.999855,-90.0,16.237452,48.79126,354.541748,293.012207,280.870148,0.068836,0.033286,255.30336,0.009163,0.084535,0.120093,0.0,1.0,2615.762939, set /instrumentation/magnetic-compass/serviceable true, fly_strait
84.382103,-86.973076,-85.779633,4.505026,-0.445861,4.505026,-0.445861,-89.999855,-90.0,17.514006,49.267303,380.305298,293.51889,281.108063,0.09748,0.115489,271.529083,0.009862,0.087167,0.094737,0.0,1.0,2617.23291, set /instrumentation/magnetic-compass/serviceable true, fly_strait
84.768715,-85.455032,-84.261589,4.680854,0.286006,4.680854,0.286006,-79.999855,-80.0,19.566643,49.963856,416.432922,293.945404,281.449768,0.148202,0.177741,297.372284,0.006369,0.090101,0.069403,0.0,1.0,2619.248779, set /instrumentation/magnetic-compass/serviceable true, fly_strait
85.146782,-83.830841,-82.63739,4.769511,1.027364,4.769511,1.027364,-79.999855,-80.0,21.721289,50.631866,443.202942,293.839325,281.763397,0.182923,0.148728,324.433807,-0.004086,0.093617,0.048077,0.0,1.0,2621.082275, set /instrumentation/magnetic-compass/serviceable true, fly_strait
85.414139,-82.668526,-81.475075,4.78107,1.312378,4.78107,1.312378,-79.999855,-80.0,23.222961,51.071907,456.595245,293.514862,281.956329,0.187482,0.087546,342.601074,-0.01099,0.09498,0.04819,0.0,1.0,2622.270996, set /instrumentation/magnetic-compass/serviceable true, fly_strait
85.826988,-80.81736,-79.623917,4.807771,1.290117,4.807771,1.290117,-79.999855,-80.0,25.545385,51.724453,471.305084,292.876343,282.211395,0.162571,-0.024856,368.383911,-0.018748,0.095621,0.069605,0.0,1.0,2624.035889, set /instrumentation/magnetic-compass/serviceable true, fly_strait
86.103348,-79.517578,-78.324135,4.841178,0.972931,4.841178,0.972931,-79.999855,-80.0,27.131643,52.154709,480.092743,292.535461,282.352966,0.131119,-0.082501,384.381958,-0.019505,0.095913,0.090981,0.0,1.0,2625.203857, set /instrumentation/magnetic-compass/serviceable true, fly_strait
86.512527,-77.479691,-76.286247,4.910773,0.282641,4.910773,0.282641,-79.999855,-80.0,29.568653,52.793072,494.771484,292.362396,282.516327,0.084976,-0.109194,406.504181,-0.013899,0.096824,0.118575,0.0,1.0,2626.939209, set /instrumentation/magnetic-compass/serviceable true, fly_strait
86.773651,-76.066231,-74.872787,4.968542,-0.130764,4.968542,-0.130764,-79.999855,-80.0,31.237547,53.213844,506.301971,292.526886,282.591736,0.065224,-0.079367,420.222137,-0.007426,0.097723,0.127133,0.0,1.0,2628.078857, set /instrumentation/magnetic-compass/serviceable true, fly_strait
87.125412,-73.86805,-72.674606,5.092591,-0.427867,5.092591,-0.427867,-69.999855,-70.0,33.820293,53.837299,526.956543,293.07901,282.658112,0.065742,0.013559,439.690399,0.001868,0.099371,0.119003,0.0,1.0,2629.736816, set /instrumentation/magnetic-compass/serviceable true, fly_strait
87.320358,-72.412682,-71.219238,5.181047,-0.333104,5.181047,-0.333104,-69.999855,-70.0,35.528927,54.230427,542.332581,293.483734,282.6745,0.085112,0.079122,452.025635,0.005468,0.100891,0.102669,0.0,1.0,2630.745605, set /instrumentation/magnetic-compass/serviceable true, fly_strait
87.602577,-69.984749,-68.791306,5.313073,0.176046,5.313073,0.176046,-69.999855,-70.0,38.38744,54.853722,569.860107,293.957672,282.664124,0.127293,0.15024,472.099396,0.004759,0.103621,0.071161,0.0,1.0,2632.270752, set /instrumentation/magnetic-compass/serviceable true, fly_strait
87.781883,-68.348183,-67.154732,5.366672,0.602595,5.366672,0.602595,-69.999855,-70.0,40.318199,55.251801,587.566284,294.023163,282.63504,0.154129,0.153768,485.733398,5.73E-4,0.105473,0.053589,0.0,1.0,2633.20752, set /instrumentation/magnetic-compass/serviceable true, fly_strait
88.060753,-65.874519,-64.681076,5.427449,1.086143,5.427449,1.086143,-69.999855,-70.0,43.232502,55.823608,610.164063,293.766144,282.560852,0.171746,0.100429,505.988007,-0.008608,0.107333,0.044189,0.0,1.0,2634.537354, set /instrumentation/magnetic-compass/serviceable true, fly_strait
88.266113,-64.04187,-62.848427,5.465134,1.190795,5.465134,1.190795,-59.999859,-60.0,45.37616,56.225945,623.796631,293.410034,282.482849,0.164427,0.035303,520.857544,-0.015516,0.108549,0.05704,0.0,1.0,2635.480225, set /instrumentation/magnetic-compass/serviceable true, fly_strait
88.561783,-61.387272,-60.193829,5.51447,0.924952,5.51447,0.924952,-59.999859,-60.0,48.451031,56.781143,640.433838,292.921844,282.334686,0.129825,-0.050418,541.640259,-0.017011,0.109303,0.074846,0.0,1.0,2636.803223, set /instrumentation/magnetic-compass/serviceable true, fly_strait
88.766869,-59.511131,-58.317688,5.555789,0.552762,5.555789,0.552762,-59.999859,-60.0,50.604477,57.15662,651.248535,292.725952,282.205505,0.101089,-0.083527,555.472717,-0.013214,0.110289,0.099255,0.0,1.0,2637.712402, set /instrumentation/magnetic-compass/serviceable true, fly_strait
89.071136,-56.532314,-55.338871,5.634271,-0.05098,5.634271,-0.05098,-59.999859,-60.0,53.99715,57.727196,668.960876,292.794434,281.963806,0.066856,-0.070301,576.21814,-0.007897,0.111116,0.10905,0.0,1.0,2639.108643, set /instrumentation/magnetic-compass/serviceable true, fly_strait
89.244743,-54.632992,-53.439545,5.699589,-0.291234,5.699589,-0.291234,-49.999859,-50.0,56.154282,58.076675,681.233276,293.044342,281.790619,0.059793,-0.027716,588.40802,-0.001829,0.112117,0.109282,0.0,1.0,2639.962646, set /instrumentation/magnetic-compass/serviceable true, fly_strait
89.480156,-51.492233,-50.29879,5.832187,-0.31236,5.832187,-0.31236,-49.999859,-50.0,59.713783,58.62999,704.156189,293.593353,281.483704,0.075839,0.061888,608.210083,0.00416,0.113992,0.09313,0.0,1.0,2641.280029, set /instrumentation/magnetic-compass/serviceable true, fly_strait
89.61058,-49.400444,-48.207001,5.910191,-0.078864,5.910191,-0.078864,-49.999859,-50.0,62.089485,58.982716,720.604309,293.890961,281.27121,0.099806,0.107767,620.989685,0.00517,0.115783,0.074643,0.0,1.0,2642.084473, set /instrumentation/magnetic-compass/serviceable true, fly_strait
89.795151,-46.176376,-44.982933,6.005649,0.443125,6.005649,0.443125,-49.999859,-50.0,65.75647,59.502346,745.36145,294.068512,280.939636,0.135606,0.128993,640.576294,0.001127,0.118204,0.0508,0.0,1.0,2643.22168, set /instrumentation/magnetic-compass/serviceable true, fly_strait
89.92321,-43.968212,-42.774769,6.049987,0.761612,6.049987,0.761612,-39.999859,-40.0,68.267502,59.842457,760.415894,293.966644,280.712128,0.149911,0.105924,653.918701,-0.00633,0.120113,0.041922,0.0,1.0,2643.949463, set /instrumentation/magnetic-compass/serviceable true, fly_strait
90.130669,-40.56963,-39.376186,6.091735,0.948979,6.091735,0.948979,-39.999859,-40.0,72.119568,60.343498,779.003418,293.571472,280.361755,0.147703,0.032086,674.009949,-0.01088,0.121,0.047015,0.0,1.0,2645.026367, set /instrumentation/magnetic-compass/serviceable true, fly_strait
90.273636,-38.245422,-37.051979,6.118543,0.837131,6.118543,0.837131,-39.999859,-40.0,74.733925,60.671749,788.954163,293.268738,280.121521,0.13042,-0.021492,687.527649,-0.013245,0.121546,0.058012,0.0,1.0,2645.744873, set /instrumentation/magnetic-compass/serviceable true, fly_strait
90.494186,-34.677643,-33.484196,6.168805,0.406173,6.168805,0.406173,-29.999857,-30.0,78.714211,61.155907,802.7453,292.963165,279.750671,0.092995,-0.073255,707.413513,-0.011959,0.122371,0.081911,0.0,1.0,2646.827637, set /instrumentation/magnetic-compass/serviceable true, fly_strait
90.639297,-32.249176,-31.055733,6.209114,0.050985,6.209114,0.050985,-29.999857,-30.0,81.406158,61.473293,812.134644,292.94873,279.497284,0.070541,-0.074663,720.156921,-0.005802,0.123376,0.097189,0.0,1.0,2647.550781, set /instrumentation/magnetic-compass/serviceable true, fly_strait
90.838882,-28.535751,-27.342306,6.283556,-0.321381,6.283556,-0.321381,-29.999857,-30.0,85.505173,61.941189,827.32666,293.227142,279.112854,0.054966,-0.026231,738.485107,-7.28E-4,0.124182,0.097911,0.0,1.0,2648.622314, set /instrumentation/magnetic-compass/serviceable true, fly_strait
90.950974,-26.014256,-24.820812,6.350734,-0.377863,6.350734,-0.377863,-29.999857,-30.0,88.28257,62.247467,838.909973,293.535126,278.858032,0.061518,0.024828,750.260681,0.004591,0.125671,0.08399,0.0,1.0,2649.3125, set /instrumentation/magnetic-compass/serviceable true, fly_strait
91.089279,-22.162909,-20.969463,6.445416,-0.125119,6.445416,-0.125119,-19.999857,-20.0,92.52636,62.697983,858.271606,293.950348,278.486053,0.090357,0.0906,767.530212,0.005398,0.127015,0.068591,0.0,1.0,2650.288086, set /instrumentation/magnetic-compass/serviceable true, fly_strait
91.171829,-19.548065,-18.354622,6.500029,0.179984,6.500029,0.179984,-19.999857,-20.0,95.410172,62.992226,871.518188,294.091095,278.248718,0.112697,0.109943,778.955505,0.001787,0.128908,0.04783,0.0,1.0,2650.897705, set /instrumentation/magnetic-compass/serviceable true, fly_strait
91.302048,-15.552958,-14.359513,6.545939,0.609084,6.545939,0.609084,-19.999857,-20.0,99.815651,63.424442,889.499207,294.001129,277.912201,0.136254,0.087262,796.144043,-0.002571,0.130001,0.040793,0.0,1.0,2651.770752, set /instrumentation/magnetic-compass/serviceable true, fly_strait
91.398239,-12.841095,-11.647651,6.567744,0.763218,6.567744,0.763218,-9.999858,-10.0,102.797836,63.706696,899.16925,293.776489,277.701019,0.137062,0.045636,807.615845,-0.008701,0.130919,0.045291,0.0,1.0,2652.341309, set /instrumentation/magnetic-compass/serviceable true, fly_strait
91.554367,-8.70392,-7.510476,6.593466,0.667452,6.593466,0.667452,-9.999858,-10.0,107.324951,64.12175,910.838928,293.375275,277.40213,0.116478,-0.025078,824.604187,-0.010903,0.131355,0.056523,0.0,1.0,2653.178955, set /instrumentation/magnetic-compass/serviceable true, fly_strait
91.663399,-5.90265,-4.709206,6.613291,0.428149,6.613291,0.428149,-9.999858,-10.0,110.372696,64.393173,917.480652,293.177917,277.213531,0.094326,-0.058417,835.61145,-0.009535,0.131869,0.076584,0.0,1.0,2653.730225, set /instrumentation/magnetic-compass/serviceable true, fly_strait
91.826668,-1.641692,-0.448247,6.650843,-0.019015,6.650843,-0.019015,1.42E-4,0.0,114.985222,64.792648,927.290527,293.14328,276.946106,0.063029,-0.062498,851.424255,-0.006116,0.132266,0.086452,0.0,1.0,2654.55127, set /instrumentation/magnetic-compass/serviceable true, fly_strait
91.927193,1.355034,2.548479,6.691501,-0.254353,6.691501,-0.254353,1.42E-4,0.0,118.08828,65.053848,934.41803,293.300354,276.779388,0.053585,-0.035287,861.453979,2.72E-4,0.133017,0.088184,0.0,1.0,2655.090088, set /instrumentation/magnetic-compass/serviceable true, fly_strait
92.052116,5.938005,7.13145,6.768114,-0.327646,6.768114,-0.327646,10.000142,10.0,122.792015,65.437691,947.120239,293.685699,276.550873,0.060951,0.02912,875.80304,0.003634,0.13383,0.08033,0.0,1.0,2655.865234, set /instrumentation/magnetic-compass/serviceable true, fly_strait
92.117546,9.029682,10.223126,6.824375,-0.189024,6.824375,-0.189024,10.000142,10.0,125.96579,65.688095,956.944946,293.937378,276.41571,0.077731,0.069245,885.026672,0.004681,0.135362,0.061063,0.0,1.0,2656.348389, set /instrumentation/magnetic-compass/serviceable true, fly_strait
92.204445,13.723338,14.916782,6.881442,0.197142,6.881442,0.197142,10.000142,10.0,130.789703,66.055214,971.96051,294.11734,276.242096,0.108427,0.093928,898.608215,0.0027,0.136487,0.048479,0.0,1.0,2657.019287, set /instrumentation/magnetic-compass/serviceable true, fly_strait
92.265305,16.890787,18.08423,6.906814,0.457286,6.906814,0.457286,20.000143,20.0,134.045105,66.294342,980.772583,294.065155,276.146301,0.122136,0.081179,907.595459,-0.002816,0.137629,0.039481,0.0,1.0,2657.441162, set /instrumentation/magnetic-compass/serviceable true, fly_strait
92.369461,21.698927,22.892372,6.925337,0.64259,6.925337,0.64259,20.000143,20.0,138.977509,66.644936,991.263611,293.778656,276.030334,0.124176,0.027855,920.970276,-0.006533,0.138136,0.04209,0.0,1.0,2658.060059, set /instrumentation/magnetic-compass/serviceable true, fly_strait
92.447205,24.940527,26.133972,6.93481,0.590041,6.93481,0.590041,20.000143,20.0,142.291,66.873566,996.456665,293.535461,275.969208,0.11187,-0.01466,929.724365,-0.00918,0.138507,0.056415,0.0,1.0,2658.473877, set /instrumentation/magnetic-compass/serviceable true, fly_strait
92.570992,29.852217,31.04566,6.949616,0.27645,6.949616,0.27645,30.000143,30.0,147.290375,67.209297,1002.999512,293.288666,275.897369,0.081923,-0.056057,942.391418,-0.008429,0.138696,0.068575,0.0,1.0,2659.104248, set /instrumentation/magnetic-compass/serviceable true, fly_strait
92.653778,33.156513,34.349957,6.965216,0.006886,6.965216,0.006886,30.000143,30.0,150.641388,67.428459,1007.479858,293.270203,275.861115,0.063977,-0.058216,950.429077,-0.003949,0.138992,0.080914,0.0,1.0,2659.529785, set /instrumentation/magnetic-compass/serviceable true, fly_strait
92.766884,38.153843,39.347286,7.004082,-0.279385,7.004082,-0.279385,40.000141,40.0,155.698151,67.750214,1015.286926,293.477448,275.8237,0.051174,-0.021823,961.830994,-9.8E-5,0.139304,0.081837,0.0,1.0,2660.164551, set /instrumentation/magnetic-compass/serviceable true, fly_strait
92.828003,41.51152,42.704964,7.04391,-0.322849,7.04391,-0.322849,40.000141,40.0,159.093307,67.959946,1021.751587,293.711792,275.810974,0.056326,0.017242,969.04248,0.003991,0.140082,0.071475,0.0,1.0,2660.573975, set /instrumentation/magnetic-compass/serviceable true, fly_strait
92.898514,46.58754,47.780987,7.101995,-0.126642,7.101995,-0.126642,50.000141,50.0,164.23085,68.26709,1033.148071,294.025146,275.812286,0.079434,0.067191,979.460632,0.004612,0.140878,0.059758,0.0,1.0,2661.149658, set /instrumentation/magnetic-compass/serviceable true, fly_strait
92.938675,49.998997,51.19244,7.13436,0.107707,7.13436,0.107707,50.000141,50.0,167.688416,68.466797,1041.092896,294.125824,275.827362,0.097234,0.081082,986.270203,0.001809,0.14204,0.04409,0.0,1.0,2661.505859, set /instrumentation/magnetic-compass/serviceable false, fly_strait
93.003769,55.159199,56.352642,7.156754,0.428941,7.156754,0.428941,50.000141,50.0,172.922134,68.758842,1051.601807,294.041656,275.83905,0.115515,0.061624,996.440552,-0.001539,0.142687,0.039056,0.0,1.0,2662.012207, set /instrumentation/magnetic-compass/serviceable false, fly_strait
93.054787,58.628098,59.821545,7.163968,0.535485,7.163968,0.535485,60.000141,60.0,176.436951,68.948723,1056.876953,293.860596,275.83905,0.115485,0.028603,1003.202026,-0.006128,0.143135,0.043265,0.0,1.0,2662.343262, set /instrumentation/magnetic-compass/serviceable false, fly_strait
93.142151,63.872246,65.065689,7.169943,0.439545,7.169943,0.439545,60.000141,60.0,181.737213,69.226761,1062.699707,293.551514,275.83905,0.098093,-0.025255,1013.19165,-0.00765,0.143279,0.052318,0.0,1.0,2662.845215, set /instrumentation/magnetic-compass/serviceable false, fly_strait
93.205322,67.393234,68.586678,7.175993,0.24436,7.175993,0.24436,70.000145,70.0,185.284973,69.407845,1065.784546,293.409302,275.83905,0.080334,-0.048929,1019.645447,-0.006279,0.143399,0.067772,0.0,1.0,2663.187012, set /instrumentation/magnetic-compass/serviceable false, fly_strait
93.299904,72.707878,73.901321,7.194856,-0.098175,7.194856,-0.098175,70.000145,70.0,190.625809,69.673248,1070.535889,293.407013,275.83905,0.056468,-0.047567,1028.872681,-0.003491,0.14352,0.074882,0.0,1.0,2663.708496, set /instrumentation/magnetic-compass/serviceable false, fly_strait
93.360771,76.267517,77.46096,7.219096,-0.264959,7.219096,-0.264959,80.000145,80.0,194.200836,69.846039,1074.463623,293.543549,275.83905,0.050419,-0.023863,1034.470825,0.001402,0.143897,0.074997,0.0,1.0,2664.055908, set /instrumentation/magnetic-compass/serviceable false, fly_strait
93.424416,81.637993,82.831436,7.266455,-0.286546,7.266455,-0.286546,80.000145,80.0,199.591797,70.098808,1082.027344,293.847198,275.83905,0.058737,0.02697,1042.632324,0.003785,0.144382,0.06817,0.0,1.0,2664.557373, set /instrumentation/magnetic-compass/serviceable false, fly_strait
93.466522,85.228157,86.4216,7.30071,-0.157628,7.30071,-0.157628,80.000145,80.0,203.208847,70.262917,1088.088257,294.030518,275.83905,0.073069,0.056156,1047.307983,0.004094,0.145329,0.052988,0.0,1.0,2664.870605, set /instrumentation/magnetic-compass/serviceable false, fly_strait
93.49511,90.66539,91.858833,7.332414,0.151871,7.332414,0.151871,90.000145,90.0,208.673294,70.502342,1097.244507,294.134369,275.83905,0.0972,0.069525,1055.533081,0.002252,0.146014,0.043822,0.0,1.0,2665.304688, set /instrumentation/magnetic-compass/serviceable false, fly_strait
93.521317,94.314514,95.507957,7.343389,0.341125,7.343389,0.341125,90.000145,90.0,212.33992,70.657547,1102.383911,294.066742,275.83905,0.106636,0.055376,1061.086792,-0.00217,0.146648,0.038629,0.0,1.0,2665.578857, set /instrumentation/magnetic-compass/serviceable false, fly_strait
93.577866,99.817574,101.011017,7.346548,0.443319,7.346548,0.443319,100.000145,100.0,217.86734,70.884056,1107.967773,293.820038,275.83905,0.105055,0.01062,1069.106445,-0.004873,0.146868,0.042011,0.0,1.0,2665.985352, set /instrumentation/magnetic-compass/serviceable false, fly_strait
93.622467,103.506073,104.699516,7.346717,0.371656,7.346717,0.371656,100.000145,100.0,221.565002,71.031113,1110.403442,293.633423,275.83905,0.093564,-0.021481,1074.299194,-0.006333,0.146931,0.054346,0.0,1.0,2666.260742, set /instrumentation/magnetic-compass/serviceable false, fly_strait
93.695595,109.065117,110.25856,7.350823,0.101666,7.350823,0.101666,110.000145,110.0,227.124573,71.246109,1113.284668,293.472931,275.83905,0.06915,-0.047657,1081.738403,-0.005309,0.146934,0.063676,0.0,1.0,2666.685547, set /instrumentation/magnetic-compass/serviceable false, fly_strait
93.745987,112.785362,113.978806,7.360528,-0.10435,7.360528,-0.10435,110.000145,110.0,230.839035,71.385826,1115.371582,293.489197,275.83905,0.056234,-0.043914,1086.334961,-0.001452,0.147016,0.071701,0.0,1.0,2666.975098, set /instrumentation/magnetic-compass/serviceable false, fly_strait
93.806129,118.388817,119.58226,7.389434,-0.287981,7.389434,-0.287981,120.000145,120.0,236.426208,71.589943,1119.663696,293.68573,275.83905,0.049846,-0.009568,1092.929199,0.001491,0.147211,0.070888,0.0,1.0,2667.407227, set /instrumentation/magnetic-compass/serviceable false, fly_strait
93.836227,122.137833,123.331276,7.417377,-0.284596,7.417377,-0.284596,120.000145,120.0,240.165054,71.722275,1123.640991,293.873596,275.83905,0.05648,0.021688,1097.060547,0.004114,0.147789,0.061061,0.0,1.0,2667.68457, set /instrumentation/magnetic-compass/serviceable false, fly_strait
93.867218,127.78241,128.975861,7.453343,-0.087787,7.453343,-0.087787,130.000137,130.0,245.801193,71.914978,1130.707031,294.091278,275.83905,0.076993,0.056022,1103.009521,0.004066,0.148348,0.051668,0.0,1.0,2668.071533, set /instrumentation/magnetic-compass/serviceable false, fly_strait
93.884949,131.559311,132.752762,7.470592,0.10423,7.470592,0.10423,130.000137,130.0,249.578415,72.039543,1135.40686,294.135712,275.83905,0.090635,0.061222,1106.832642,0.001254,0.149067,0.040784,0.0,1.0,2668.311035, set /instrumentation/magnetic-compass/serviceable false, fly_strait
93.91684,137.250961,138.444412,7.477812,0.328102,7.477812,0.328102,140.000137,140.0,255.271118,72.22068,1141.110229,294.020142,275.83905,0.101878,0.038111,1112.691162,-0.001489,0.149412,0.038562,0.0,1.0,2668.654053, set /instrumentation/magnetic-compass/serviceable false, fly_strait
93.945236,141.061249,142.2547,7.47675,0.375165,7.47675,0.375165,140.000137,140.0,259.079315,72.337814,1143.560303,293.860229,275.83905,0.09901,0.009717,1116.574219,-0.004687,0.149556,0.04434,0.0,1.0,2668.881348, set /instrumentation/magnetic-compass/serviceable false, fly_strait
93.997147,146.798416,147.991867,7.473447,0.246133,7.473447,0.246133,150.000137,150.0,264.803436,72.508469,1145.802734,293.628845,275.83905,0.081956,-0.029785,1122.267578,-0.00536,0.149535,0.052336,0.0,1.0,2669.230957, set /instrumentation/magnetic-compass/serviceable false, fly_strait
94.03553,150.635895,151.829346,7.473954,0.073189,7.473954,0.073189,150.000137,150.0,268.624695,72.619041,1146.887085,293.5466,275.83905,0.067634,-0.042994,1125.902832,-0.003516,0.149469,0.063905,0.0,1.0,2669.472168, set /instrumentation/magnetic-compass/serviceable false, fly_strait
94.091194,156.408218,157.601669,7.486012,-0.181998,7.486012,-0.181998,160.000137,160.0,274.364075,72.780251,1148.973145,293.598511,275.83905,0.051394,-0.032572,1131.025757,-0.001046,0.149479,0.068018,0.0,1.0,2669.842285, set /instrumentation/magnetic-compass/serviceable false, fly_strait
94.121521,160.266083,161.459534,7.503555,-0.279839,7.503555,-0.279839,160.000137,160.0,278.197601,72.884583,1151.197876,293.732208,275.83905,0.049657,-0.009552,1134.21228,0.0026,0.14972,0.065422,0.0,1.0,2670.087891, set /instrumentation/magnetic-compass/serviceable false, fly_strait
94.152092,166.067093,167.260544,7.535768,-0.23496,7.535768,-0.23496,170.000137,170.0,283.96521,73.036209,1155.947266,293.973572,275.83905,0.060664,0.030544,1138.718384,0.003998,0.150071,0.058737,0.0,1.0,2670.439941, set /instrumentation/magnetic-compass/serviceable false, fly_strait
94.165794,169.780899,170.97435,7.555932,-0.108679,7.555932,-0.108679,170.000137,170.0,287.663818,73.129936,1159.611084,294.090149,275.83905,0.073328,0.048801,1141.386475,0.003357,0.150715,0.046669,0.0,1.0,2670.649658, set /instrumentation/magnetic-compass/serviceable false, fly_strait
94.181808,175.776993,176.970428,7.571579,0.147312,7.571579,0.147312,180.000137,180.0,293.638336,73.275536,1165.224854,294.118774,275.83905,0.091164,0.050357,1145.885498,0.001553,0.151119,0.04084,0.0,1.0,2670.963623, set /instrumentation/magnetic-compass/serviceable false, fly_strait
94.197395,179.676819,180.87027,7.573873,0.273951,7.573873,0.273951,180.000137,180.0,297.527313,73.366669,1167.940186,294.030304,275.83905,0.095967,0.033642,1148.719727,-0.002104,0.151432,0.039409,0.0,1.0,2671.159424, set /instrumentation/magnetic-compass/serviceable false, fly_strait
94.230385,185.546387,186.739822,7.568959,0.295487,7.568959,0.295487,180.000137,180.0,303.374146,73.498795,1170.391357,293.81488,275.83905,0.089958,-0.004393,1153.08667,-0.003914,0.151477,0.043832,0.0,1.0,2671.45459, set /instrumentation/magnetic-compass/serviceable false, fly_strait
94.25737,189.468689,190.66214,7.564811,0.200666,7.564811,0.200666,190.000137,190.0,307.276917,73.584023,1171.156494,293.680237,275.83905,0.078848,-0.027101,1155.860229,-0.004221,0.151379,0.054604,0.0,1.0,2671.657959, set /instrumentation/magnetic-compass/serviceable false, fly_strait
94.303741,195.367615,196.561066,7.565232,-0.035469,7.565232,-0.035469,190.000137,190.0,313.134827,73.70784,1172.022339,293.602509,275.83905,0.059539,-0.038957,1159.942749,-0.002867,0.151296,0.061336,0.0,1.0,2671.974609, set /instrumentation/magnetic-compass/serviceable false, fly_strait
94.332466,199.307541,200.500992,7.572617,-0.18533,7.572617,-0.18533,200.000137,200.0,317.043152,73.787735,1173.000244,293.653564,275.83905,0.051497,-0.02949,1162.474731,5.07E-4,0.151305,0.065222,0.0,1.0,2672.190674, set /instrumentation/magnetic-compass/serviceable false, fly_strait
94.365173,205.227173,206.420624,7.594963,-0.276334,7.594963,-0.276334,200.000137,200.0,322.914337,73.903549,1175.664185,293.842743,275.83905,0.051377,0.003125,1165.993042,0.002648,0.151452,0.062669,0.0,1.0,2672.51123, set /instrumentation/magnetic-compass/serviceable false, fly_strait
94.378151,209.180176,210.373611,7.614569,-0.231204,7.614569,-0.231204,210.000137,210.0,326.837677,73.977966,1178.35083,293.988495,275.83905,0.059375,0.027126,1168.19519,0.003948,0.151899,0.05321,0.0,1.0,2672.715088, set /instrumentation/magnetic-compass/serviceable false, fly_strait
94.389381,215.120956,216.314407,7.635609,-0.037077,7.635609,-0.037077,210.000137,210.0,332.741333,74.085304,1182.970337,294.119507,275.83905,0.077144,0.04705,1171.400879,0.003303,0.152291,0.045923,0.0,1.0,2672.999023, set /instrumentation/magnetic-compass/serviceable false, fly_strait
94.396683,219.089996,220.283432,7.643043,0.113896,7.643043,0.113896,220.000137,220.0,336.689514,74.154007,1185.762817,294.11438,275.83905,0.086627,0.044447,1173.534668,5.3E-4,0.152712,0.039372,0.0,1.0,2673.176514, set /instrumentation/magnetic-compass/serviceable false, fly_strait
94.414459,225.057175,226.250626,7.641455,0.247826,7.641455,0.247826,220.000137,220.0,342.626648,74.252953,1188.681274,293.975464,275.83905,0.091122,0.018638,1176.772339,-0.001627,0.152861,0.039629,0.0,1.0,2673.435791, set /instrumentation/magnetic-compass/serviceable false, fly_strait
94.43232,229.044083,230.237534,7.636567,0.242471,7.636567,0.242471,230.000137,230.0,346.590698,74.31636,1189.598022,293.838928,275.83905,0.08577,-0.005032,1178.93457,-0.00354,0.152829,0.046574,0.0,1.0,2673.611084, set /instrumentation/magnetic-compass/serviceable false, fly_strait
94.466248,235.035736,236.229187,7.630769,0.08966,7.630769,0.08966,230.000137,230.0,352.540253,74.407906,1190.108032,293.681549,275.83905,0.069554,-0.031199,1182.091797,-0.003464,0.152731,0.053401,0.0,1.0,2673.884521, set /instrumentation/magnetic-compass/serviceable false, fly_strait
94.4888,238.702789,239.89624,7.630489,-0.046307,7.630489,-0.046307,240.000137,240.0,356.177063,74.461853,1190.345337,293.652161,275.83905,0.058726,-0.035443,1183.922119,-0.001281,0.152615,0.06127,0.0,1.0,2674.058105, set /instrumentation/magnetic-compass/serviceable false, fly_strait
94.523277,245.04248,246.235931,7.641666,-0.23267,7.641666,-0.23267,240.000137,240.0,362.461945,74.551491,1191.482422,293.746887,275.83905,0.049573,-0.01803,1186.765259,6.62E-4,0.15261,0.06274,0.0,1.0,2674.364258, set /instrumentation/magnetic-compass/serviceable false, turn_+45
94.538071,249.052795,250.246246,7.656177,-0.278674,7.656177,-0.278674,250.000137,250.0,366.436066,74.605736,1193.047729,293.882324,275.83905,0.045514,0.005339,1188.500854,0.001108,0.152833,0.1,0.0,1.0,2674.554443, set /instrumentation/magnetic-compass/serviceable false, turn_+45
94.538895,255.075333,256.268768,7.686166,-0.213603,7.686166,-0.213603,250.000137,250.0,372.40979,74.683388,1196.576294,294.256073,275.83905,0.051851,0.066102,1190.950073,0.001327,0.153124,0.1,0.0,1.0,2674.818604, set /instrumentation/magnetic-compass/serviceable false, turn_+45
94.522011,259.096039,260.28949,7.712296,-0.030013,7.712296,-0.030013,260.000153,260.0,376.4039,74.732506,1199.897827,294.553314,275.83905,0.068272,0.111735,1192.54834,0.001017,0.153723,0.1,0.0,1.0,2674.96875, set /instrumentation/magnetic-compass/serviceable false, turn_+45
94.477234,265.138336,266.331787,7.741345,0.437877,7.741345,0.437877,260.000153,260.0,382.418549,74.80191,1205.854492,294.937988,275.83905,0.102295,0.16589,1195.034302,1.43E-4,0.154246,0.1,0.0,1.0,2675.142822, set /instrumentation/magnetic-compass/serviceable false, turn_+45
94.442451,269.175781,270.369232,7.752067,0.829159,7.752067,0.829159,270.000153,270.0,386.444824,74.845253,1209.702026,295.104828,275.83905,0.124961,0.185018,1196.825073,-0.002085,0.154827,0.1,0.0,1.0,2675.227539, set /instrumentation/magnetic-compass/serviceable false, turn_+45
94.39518,275.246857,276.440308,7.751145,1.409932,7.751145,1.409932,270.000153,270.0,392.505554,74.905952,1214.068237,295.202209,275.83905,0.150477,0.186315,1199.723022,-0.003948,0.155041,0.1,0.0,1.0,2675.324707, set /instrumentation/magnetic-compass/serviceable false, turn_+45
94.370911,279.30603,280.499481,7.745918,1.743042,7.745918,1.743042,280.000153,280.0,396.555389,74.943695,1215.60498,295.187927,275.83905,0.159017,0.17365,1201.847778,-0.006714,0.155023,0.1,0.0,1.0,2675.381104, set /instrumentation/magnetic-compass/serviceable false, turn_+45
94.345963,285.409302,286.602722,7.737656,2.093225,7.737656,2.093225,280.000153,280.0,402.635742,74.996643,1216.206055,295.119354,275.83905,0.159241,0.146772,1205.114868,-0.0083,0.154918,0.1,0.0,1.0,2675.469238, set /instrumentation/magnetic-compass/serviceable false, turn_+45
94.337883,289.312622,290.506073,7.731805,2.226832,7.731805,2.226832,290.000153,290.0,406.520264,75.028381,1215.779419,295.087891,275.83905,0.153219,0.13189,1206.988647,-0.009968,0.154753,0.1,0.0,1.0,2675.532715, set /instrumentation/magnetic-compass/serviceable false, turn_+45
94.325378,295.60733,296.800781,7.723068,2.325204,7.723068,2.325204,290.000153,290.0,412.764557,75.076393,1214.375854,295.116791,275.83905,0.14071,0.12095,1210.16333,-0.010604,0.154636,0.1,0.0,1.0,2675.648682, set /instrumentation/magnetic-compass/serviceable false, turn_+45
94.320045,299.693298,300.886749,7.717485,2.351248,7.717485,2.351248,300.000153,300.0,416.810699,75.105659,1213.347534,295.203003,275.83905,0.133357,0.124562,1211.962891,-0.011072,0.154461,0.1,0.0,1.0,2675.731689, set /instrumentation/magnetic-compass/serviceable false, turn_+45
94.309616,305.824371,307.017792,7.712698,2.394296,7.712698,2.394296,310.000153,310.0,422.874115,75.146935,1212.169678,295.423492,275.83905,0.127616,0.143513,1214.257446,-0.011196,0.15435,0.1,0.0,1.0,2675.861572, set /instrumentation/magnetic-compass/serviceable false, turn_+45
94.299286,309.912048,311.105499,7.711234,2.451893,7.711234,2.451893,310.000153,310.0,426.914032,75.172722,1211.830811,295.611755,275.83905,0.128068,0.161592,1215.516602,-0.011401,0.154254,0.1,0.0,1.0,2675.947266, set /instrumentation/magnetic-compass/serviceable false, turn_+45
94.278084,316.043213,317.236664,7.711207,2.597868,7.711207,2.597868,320.000153,320.0,432.973267,75.208778,1211.973389,295.913177,275.83905,0.134084,0.189475,1217.048462,-0.011676,0.154225,0.1,0.0,1.0,2676.067871, set /instrumentation/magnetic-compass/serviceable false, turn_+45
94.261177,320.130432,321.323853,7.711249,2.730719,7.711249,2.730719,320.000153,320.0,437.013824,75.231064,1212.367188,296.104462,275.83905,0.140064,0.20494,1217.876953,-0.012371,0.154224,0.1,0.0,1.0,2676.141357, set /instrumentation/magnetic-compass/serviceable false, turn_+45
94.23468,326.261292,327.454742,7.709864,2.953274,7.709864,2.953274,330.000153,330.0,443.077362,75.261902,1212.98999,296.35376,275.83905,0.148982,0.219913,1218.911377,-0.013003,0.154225,0.1,0.0,1.0,2676.241943, set /instrumentation/magnetic-compass/serviceable false, turn_+45
94.217987,330.348785,331.542236,7.707765,3.100596,7.707765,3.100596,330.000153,330.0,447.121124,75.280785,1213.211914,296.492371,275.83905,0.153385,0.224341,1219.498657,-0.014063,0.154197,0.1,0.0,1.0,2676.305176, set /instrumentation/magnetic-compass/serviceable false, turn_+45
