airspeed_indicator_indicated_speed_kt,altimeter_indicated_altitude_ft,altimeter_pressure_alt_ft,attitude_indicator_indicated_pitch_deg,attitude_indicator_indicated_roll_deg,attitude_indicator_internal_pitch_deg,attitude_indicator_internal_roll_deg,encoder_indicated_altitude_ft,encoder_pressure_alt_ft,gps_indicated_altitude_ft,gps_indicated_ground_speed_kt,gps_indicated_vertical_speed,indicated_heading_deg,magnetic_compass_indicated_heading_deg,slip_skid_ball_indicated_slip_skid,turn_indicator_indicated_turn_rate,vertical_speed_indicator_indicated_speed_fpm,flight_aileron,flight_elevator,flight_rudder,flight_flaps,engine_throttle,engine_rpm,Command_fault,Command
4.062335,-97.072609,-95.879166,2.978788,1.397705,2.594485,0.116696,-99.999855,-100.0,2.286587,0.0,0.007972,297.868469,279.274384,0.008889,-0.047959,-14.741234,-0.0,0.0,0.0,0.0,0.0,599.208557,, takeoff
4.045959,-97.090759,-95.897316,2.943251,1.280669,2.594389,0.117797,-99.999855,-100.0,2.286631,0.0,0.005527,297.867249,282.666718,0.008681,-0.041234,-12.63443,-0.019967,0.05189,0.0,0.0,1.0,606.271729,, takeoff
4.051408,-97.100502,-95.907059,2.779942,0.760717,2.587209,0.118271,-99.999855,-100.0,2.286627,2.9E-5,-0.008307,297.866364,284.96524,0.008476,-0.037148,-8.489765,-0.018295,0.051888,6.1E-5,0.0,1.0,672.099915,, takeoff
4.10265,-97.111137,-95.917694,2.590108,0.239188,2.55337,0.116727,-99.999855,-100.0,2.286519,2.07E-4,-0.033496,297.864929,288.067047,0.008153,-0.032183,-9.68124,-0.010867,0.051744,1.05E-4,0.0,1.0,847.687134,, takeoff
4.171122,-97.116844,-95.923401,2.526502,0.113376,2.526479,0.113298,-99.999855,-100.0,2.286449,7.38E-4,-0.004622,297.863739,290.096039,0.008227,-0.029264,-13.046247,-0.003417,0.051067,1.77E-4,0.0,1.0,1000.623352,, takeoff
4.360907,-97.12352,-95.930077,2.523059,0.104322,2.523059,0.104322,-99.999855,-100.0,2.286592,0.003928,0.060862,297.861511,292.960602,0.006234,-0.025544,-19.228716,-0.00162,0.05053,2.36E-4,0.0,1.0,1245.44397,, takeoff
4.556368,-97.12693,-95.933487,2.539538,0.096248,2.539538,0.096248,-99.999855,-100.0,2.286862,0.009035,0.101694,297.85907,294.735718,0.005285,-0.023576,-11.887551,-0.00149,0.050461,3.48E-4,0.0,1.0,1403.769043,, takeoff
4.961884,-97.130814,-95.93737,2.577257,0.082442,2.577257,0.082442,-99.999855,-100.0,2.287507,0.023815,0.158302,297.852509,297.17395,-0.00359,-0.021479,-17.824265,-0.001375,0.050791,4.7E-4,0.0,1.0,1617.253784,, takeoff
5.322095,-97.132774,-95.939331,2.606232,0.072662,2.606232,0.072662,-99.999855,-100.0,2.288113,0.040771,0.187745,297.843781,298.69696,-0.008208,-0.020886,-15.42567,-0.001178,0.051545,7.98E-4,0.0,1.0,1743.458374,, takeoff
5.943125,-97.134758,-95.941315,2.644656,0.059695,2.644656,0.059695,-99.999855,-100.0,2.289203,0.077332,0.25035,297.821503,300.629639,0.009653,-0.021654,-12.681353,-0.001038,0.052125,0.001234,0.0,1.0,1891.61499,, takeoff
5.943125,-97.134758,-95.941315,2.644656,0.059695,2.644656,0.059695,-99.999855,-100.0,2.289203,0.077332,0.25035,297.821503,300.629639,0.009653,-0.021654,-12.681353,-0.001038,0.052125,0.001234,0.0,1.0,1891.61499,, takeoff
7.174388,-97.136551,-95.943108,2.690953,0.045635,2.690953,0.045635,-99.999855,-100.0,2.291581,0.174545,0.333286,297.751953,303.099792,0.021599,-0.027563,-7.772636,-8.53E-4,0.052893,0.002348,0.0,1.0,2058.120605,, takeoff
7.732865,-97.136627,-95.943184,2.703936,0.042452,2.703936,0.042452,-99.999855,-100.0,2.292772,0.228972,0.376764,297.709564,303.850281,0.021255,-0.031703,-8.405478,-6.52E-4,0.053819,0.005826,0.0,1.0,2104.148926,, takeoff
8.614933,-97.136299,-95.942856,2.715349,0.041006,2.715349,0.041006,-99.999855,-100.0,2.294831,0.327866,0.44533,297.635498,304.698822,0.020269,-0.038721,-5.185292,-6.06E-4,0.054079,0.007945,0.0,1.0,2155.557617,, takeoff
9.251384,-97.13578,-95.942337,2.720246,0.042118,2.720246,0.042118,-99.999855,-100.0,2.296474,0.409035,0.498053,297.575134,305.094208,0.019225,-0.044375,6.494428,-5.86E-4,0.054307,0.011649,0.0,1.0,2181.421875,, takeoff
10.165737,-97.134689,-95.941246,2.723998,0.046239,2.723998,0.046239,-99.999855,-100.0,2.299088,0.540099,0.574994,297.482574,305.386749,0.01736,-0.052515,13.739032,-6.02E-4,0.054405,0.014667,0.0,1.0,2207.440674,, takeoff
10.831025,-97.133652,-95.940208,2.725389,0.050786,2.725389,0.050786,-99.999855,-100.0,2.30119,0.646179,0.632339,297.409943,305.414886,0.015719,-0.058644,18.108725,-6.61E-4,0.05448,0.019295,0.0,1.0,2220.429443,, takeoff
11.773717,-97.131844,-95.9384,2.726071,0.058992,2.726071,0.058992,-99.999855,-100.0,2.304473,0.81201,0.71561,297.304443,305.212555,0.01318,-0.066707,15.144405,-7.26E-4,0.054508,0.022926,0.0,1.0,2232.825439,, takeoff
12.451905,-97.130302,-95.936859,2.726134,0.066033,2.726134,0.066033,-99.999855,-100.0,2.307067,0.94268,0.775501,297.225891,304.904266,0.011055,-0.072272,9.770378,-8.43E-4,0.054521,0.028201,0.0,1.0,2238.542236,, takeoff
13.378095,-97.127876,-95.934433,2.72593,0.076778,2.72593,0.076778,-99.999855,-100.0,2.310933,1.136426,0.858136,297.120117,304.281036,0.00806,-0.078713,8.934936,-9.43E-4,0.054523,0.032129,0.0,1.0,2243.237305,, takeoff
14.060522,-97.125854,-95.932411,2.725803,0.085624,2.725803,0.085624,-99.999855,-100.0,2.314027,1.290444,0.920773,297.042175,303.68399,0.00575,-0.082931,18.754793,-0.001097,0.054519,0.037418,0.0,1.0,2245.073486,, takeoff
15.014991,-97.122658,-95.929214,2.725723,0.099078,2.725723,0.099078,-99.999855,-100.0,2.318718,1.522109,1.006456,296.936035,302.66983,0.002438,-0.087595,9.788699,-0.001223,0.054516,0.041315,0.0,1.0,2247.829834,, takeoff
15.724353,-97.120026,-95.926582,2.72597,0.110014,2.72597,0.110014,-99.999855,-100.0,2.322477,1.706026,1.071774,296.858246,301.796112,5.04E-4,-0.090486,10.263296,-0.001415,0.054514,0.046622,0.0,1.0,2250.152344,, takeoff
16.705873,-97.116005,-95.922562,2.726835,0.125809,2.726835,0.125809,-99.999855,-100.0,2.328069,1.976875,1.16228,296.754456,300.440765,-0.002934,-0.093343,17.31134,-0.001572,0.054519,0.050511,0.0,1.0,2253.479248,, takeoff
17.359352,-97.113083,-95.91964,2.727985,0.135284,2.727985,0.135284,-99.999855,-100.0,2.332049,2.167636,1.222004,296.687286,299.457336,-0.005316,-0.094715,18.676311,-0.001797,0.054537,0.055701,0.0,1.0,2255.68457, set /instrumentation/slip-skid-ball/serviceable false, takeoff
18.283361,-97.108612,-95.915169,2.73047,0.145919,2.73047,0.145919,-99.999855,-100.0,2.338032,2.451456,1.307318,296.602936,297.976318,-0.006586,-0.094736,16.088133,-0.001933,0.05456,0.059059,0.0,1.0,2258.729492, set /instrumentation/slip-skid-ball/serviceable false, takeoff
18.988068,-97.104927,-95.911484,2.732985,0.152862,2.732985,0.152862,-99.999855,-100.0,2.34288,2.678965,1.372535,296.547424,296.789581,-0.006586,-0.093375,7.876875,-0.002085,0.054609,0.063277,0.0,1.0,2260.977051, set /instrumentation/slip-skid-ball/serviceable false, takeoff
19.906773,-97.099762,-95.906319,2.736686,0.160846,2.736686,0.160846,-99.999855,-100.0,2.349571,2.989781,1.456811,296.489563,295.189148,-0.006586,-0.08948,8.169101,-0.002184,0.05466,0.066052,0.0,1.0,2263.806152, set /instrumentation/slip-skid-ball/serviceable false, takeoff
20.580563,-97.095718,-95.902275,2.739753,0.166632,2.739753,0.166632,-99.999855,-100.0,2.354747,3.227694,1.519985,296.455994,293.991699,-0.006586,-0.085587,16.273443,-0.002298,0.054734,0.068945,0.0,1.0,2265.811035, set /instrumentation/slip-skid-ball/serviceable false, takeoff
21.547586,-97.089516,-95.896072,2.744316,0.174678,2.744316,0.174678,-99.999855,-100.0,2.362576,3.583834,1.60885,296.418518,292.26001,-0.006586,-0.078965,7.193431,-0.00238,0.054795,0.070624,0.0,1.0,2268.599121, set /instrumentation/slip-skid-ball/serviceable false, takeoff
22.21719,-97.084946,-95.891502,2.747687,0.180596,2.747687,0.180596,-99.999855,-100.0,2.368275,3.840308,1.669277,296.396484,291.066437,-0.006586,-0.074332,17.880356,-0.002495,0.054886,0.072498,0.0,1.0,2270.476074, set /instrumentation/slip-skid-ball/serviceable false, takeoff
23.179682,-97.078003,-95.88456,2.752548,0.189566,2.752548,0.189566,-99.999855,-100.0,2.376855,4.222413,1.757539,296.365845,289.382294,-0.006586,-0.06832,14.450687,-0.00258,0.054954,0.073599,0.0,1.0,2273.109131, set /instrumentation/slip-skid-ball/serviceable false, takeoff
23.76713,-97.073547,-95.880104,2.75565,0.195532,2.75565,0.195532,-99.999855,-100.0,2.382316,4.463152,1.813075,296.344513,288.383209,-0.006586,-0.065506,10.525689,-0.002708,0.055051,0.075131,0.0,1.0,2274.684814, set /instrumentation/slip-skid-ball/serviceable false, takeoff
24.779575,-97.06543,-95.871986,2.765593,0.210856,2.765593,0.210856,-99.999855,-100.0,2.392594,4.891492,2.036662,296.299316,286.730255,-0.006586,-0.062418,13.085486,-0.002793,0.055113,0.076198,0.0,1.0,2277.359619, set /instrumentation/slip-skid-ball/serviceable false, takeoff
25.41803,-97.059944,-95.866501,2.771005,0.220406,2.771005,0.220406,-99.999855,-100.0,2.399749,5.169962,2.18669,296.262543,285.743347,-0.006586,-0.062045,14.498809,-0.003012,0.055312,0.078458,0.0,1.0,2279.024414, set /instrumentation/slip-skid-ball/serviceable false, takeoff
26.374313,-97.051155,-95.857712,2.775705,0.232171,2.775705,0.232171,-99.999855,-100.0,2.41092,5.598814,2.278771,296.196838,284.360046,-0.006586,-0.063218,18.384867,-0.003149,0.05542,0.080296,0.0,1.0,2281.494873, set /instrumentation/slip-skid-ball/serviceable false, takeoff
26.984966,-97.045212,-95.851768,2.778893,0.239813,2.778893,0.239813,-99.999855,-100.0,2.418308,5.879611,2.342581,296.14801,283.543762,-0.006586,-0.064964,9.786374,-0.003317,0.055514,0.083582,0.0,1.0,2283.060059, set /instrumentation/slip-skid-ball/serviceable false, takeoff
27.964787,-97.035156,-95.841705,2.78442,0.251685,2.78442,0.251685,-99.999855,-100.0,2.430611,6.342102,2.441328,296.063477,282.351044,-0.006586,-0.068312,19.865421,-0.003426,0.055578,0.086023,0.0,1.0,2285.561768, set /instrumentation/slip-skid-ball/serviceable false, takeoff
28.599085,-97.028305,-95.834862,2.788365,0.259258,2.788365,0.259258,-99.999855,-100.0,2.438869,6.648996,2.507047,296.005829,281.661438,-0.006586,-0.070658,16.084612,-0.003596,0.055688,0.09025,0.0,1.0,2287.176025, set /instrumentation/slip-skid-ball/serviceable false, takeoff
29.521233,-97.017883,-95.824432,2.794238,0.26939,2.794238,0.26939,-99.999855,-100.0,2.451304,7.105957,2.602444,295.924866,280.779785,-0.006586,-0.073147,15.597733,-0.003704,0.055767,0.093132,0.0,1.0,2289.52002, set /instrumentation/slip-skid-ball/serviceable false, takeoff
30.177826,-97.010132,-95.816689,2.798722,0.276271,2.798722,0.276271,-99.999855,-100.0,2.46047,7.438989,2.670809,295.870117,280.242432,-0.006586,-0.074232,15.331339,-0.003848,0.055885,0.09718,0.0,1.0,2291.188477, set /instrumentation/slip-skid-ball/serviceable false, takeoff
31.093096,-96.998856,-95.805412,2.805025,0.284783,2.805025,0.284783,-99.999855,-100.0,2.473698,7.914203,2.765536,295.802643,279.621338,-0.006586,-0.07412,19.370573,-0.003947,0.055974,0.099918,0.0,1.0,2293.516113, set /instrumentation/slip-skid-ball/serviceable false, takeoff
31.718447,-96.990837,-95.797394,2.809593,0.290457,2.809593,0.290457,-99.999855,-100.0,2.483036,8.24593,2.83015,295.76181,279.284058,-0.006586,-0.073225,19.884018,-0.004068,0.0561,0.103291,0.0,1.0,2295.107178, set /instrumentation/slip-skid-ball/serviceable false, takeoff
32.677765,-96.978012,-95.784569,2.822814,0.298073,2.822814,0.298073,-99.999855,-100.0,2.498513,8.766364,3.274207,295.70813,278.903809,-0.006586,-0.070573,18.822702,-0.004149,0.056192,0.105333,0.0,1.0,2297.552979, set /instrumentation/slip-skid-ball/serviceable false, takeoff
33.297192,-96.969231,-95.775787,2.828468,0.303346,2.828468,0.303346,-99.999855,-100.0,2.509536,9.109605,3.33373,295.67688,278.745911,-0.006586,-0.068525,11.228051,-0.004258,0.056456,0.108017,0.0,1.0,2299.134521, set /instrumentation/slip-skid-ball/serviceable false, takeoff
34.171791,-96.956131,-95.762688,2.834105,0.310759,2.834105,0.310759,-99.999855,-100.0,2.525508,9.603218,3.426213,295.635895,278.637665,-0.006586,-0.065457,9.939994,-0.004334,0.056569,0.109579,0.0,1.0,2301.369385, set /instrumentation/slip-skid-ball/serviceable false, takeoff
34.813087,-96.946068,-95.752625,2.838552,0.316765,2.838552,0.316765,-99.999855,-100.0,2.537542,9.971498,3.498832,295.604889,278.640991,-0.006586,-0.063633,20.093025,-0.004439,0.056682,0.111629,0.0,1.0,2303.009521, set /instrumentation/slip-skid-ball/serviceable false, takeoff
35.70826,-96.931412,-95.737968,2.844854,0.325473,2.844854,0.325473,-99.999855,-100.0,2.554811,10.494407,3.600157,295.557556,278.756836,-0.006586,-0.061991,15.987192,-0.004525,0.056771,0.113179,0.0,1.0,2305.301758, set /instrumentation/slip-skid-ball/serviceable false, takeoff
36.37167,-96.920105,-95.726662,2.849773,0.332683,2.849773,0.332683,-99.999855,-100.0,2.567963,10.888194,3.676662,295.516602,278.921356,-0.006586,-0.061859,19.545563,-0.00465,0.056897,0.115546,0.0,1.0,2307.001709, set /instrumentation/slip-skid-ball/serviceable false, takeoff
37.237011,-96.9048,-95.711357,2.855984,0.342333,2.855984,0.342333,-99.999855,-100.0,2.585574,11.409758,3.775576,295.454956,279.228638,-0.006586,-0.062938,17.03208,-0.004753,0.056995,0.117593,0.0,1.0,2309.222412, set /instrumentation/slip-skid-ball/serviceable false, takeoff
37.846573,-96.893677,-95.700233,2.860402,0.349674,2.860402,0.349674,-99.999855,-100.0,2.598281,11.78228,3.831481,295.405365,279.502563,-0.006586,-0.064578,18.728716,-0.00489,0.05712,0.120676,0.0,1.0,2310.789063, set /instrumentation/slip-skid-ball/serviceable false, takeoff
38.75761,-96.876358,-95.682915,2.87115,0.35915,2.87115,0.35915,-99.999855,-100.0,2.619279,12.347557,4.332582,295.32489,279.990967,-0.006586,-0.067664,13.56872,-0.004995,0.057208,0.123155,0.0,1.0,2313.137207, set /instrumentation/slip-skid-ball/serviceable false, takeoff
39.388084,-96.863739,-95.670288,2.877732,0.368992,2.877732,0.368992,-99.999855,-100.0,2.634523,12.744528,4.436286,295.265198,280.377533,-0.006586,-0.07009,12.534699,-0.005131,0.057423,0.127179,0.0,1.0,2314.766113, set /instrumentation/slip-skid-ball/serviceable false, takeoff
40.292854,-96.844742,-95.651299,2.885154,0.380241,2.885154,0.380241,-99.999855,-100.0,2.657044,13.322263,4.564543,295.179504,280.990082,-0.006586,-0.073103,15.907271,-0.005271,0.057555,0.130164,0.0,1.0,2317.109619, set /instrumentation/slip-skid-ball/serviceable false, takeoff
40.893524,-96.831589,-95.638145,2.88988,0.386889,2.88988,0.386889,-99.999855,-100.0,2.6724,13.711271,4.644699,295.123932,281.427887,-0.006586,-0.074648,14.127735,-0.005432,0.057703,0.134448,0.0,1.0,2318.669678, set /instrumentation/slip-skid-ball/serviceable false, takeoff
41.790073,-96.811165,-95.617722,2.896683,0.394852,2.896683,0.394852,-99.999855,-100.0,2.695922,14.300317,4.758552,295.048615,282.116699,-0.006586,-0.075414,20.683765,-0.005527,0.057798,0.137227,0.0,1.0,2321.005615, set /instrumentation/slip-skid-ball/serviceable false, takeoff
42.40995,-96.796547,-95.603104,2.902555,0.399764,2.902555,0.399764,-99.999855,-100.0,2.712682,14.713135,5.061591,295.002136,282.610321,-0.006586,-0.074989,16.053865,-0.005641,0.057934,0.140993,0.0,1.0,2322.624756, set /instrumentation/slip-skid-ball/serviceable false, takeoff
43.271748,-96.775238,-95.581787,2.915569,0.407709,2.915569,0.407709,-99.999855,-100.0,2.738667,15.296016,5.458486,294.947174,283.31134,-0.006586,-0.072857,15.165448,-0.005711,0.058051,0.143317,0.0,1.0,2324.949463, set /instrumentation/slip-skid-ball/serviceable false, takeoff
43.884026,-96.75927,-95.565826,2.920529,0.411824,2.920529,0.411824,-99.999855,-100.0,2.757762,15.715741,5.535125,294.912079,283.812408,-0.006586,-0.070936,16.851818,-0.005824,0.058311,0.146065,0.0,1.0,2327.314941, set /instrumentation/slip-skid-ball/serviceable false, takeoff
44.738319,-96.736015,-95.542572,2.926466,0.417274,2.926466,0.417274,-99.999855,-100.0,2.784966,16.307882,5.650084,294.866882,284.504608,-0.006586,-0.067963,14.928503,-0.005883,0.058411,0.14782,0.0,1.0,2331.618896, set /instrumentation/slip-skid-ball/serviceable false, takeoff
45.347557,-96.718834,-95.525391,2.931101,0.4216,2.931101,0.4216,-99.999855,-100.0,2.804748,16.733953,5.742533,294.834259,284.986481,-0.006586,-0.066181,18.214596,-0.005961,0.058529,0.150079,0.0,1.0,2335.140137, set /instrumentation/slip-skid-ball/serviceable false, takeoff
46.222351,-96.693321,-95.499878,2.937793,0.428072,2.937793,0.428072,-99.999855,-100.0,2.833755,17.351879,5.865932,294.783661,285.653107,-0.006586,-0.064496,20.048069,-0.006023,0.058622,0.15171,0.0,1.0,2340.599365, set /instrumentation/slip-skid-ball/serviceable false, takeoff
46.804306,-96.675842,-95.482399,2.943902,0.433172,2.943902,0.433172,-99.999855,-100.0,2.853625,17.766605,6.158654,294.744965,286.074799,-0.006586,-0.064275,13.035592,-0.006115,0.058756,0.15424,0.0,1.0,2344.399902, set /instrumentation/slip-skid-ball/serviceable false, takeoff
47.675495,-96.648499,-95.455055,2.96022,0.450628,2.96022,0.450628,-99.999855,-100.0,2.887312,18.392685,6.893692,294.680084,286.665802,-0.006586,-0.064877,15.378457,-0.006188,0.058878,0.156175,0.0,1.0,2350.242676, set /instrumentation/slip-skid-ball/serviceable false, takeoff
48.256191,-96.629356,-95.435913,2.964599,0.455944,2.964599,0.455944,-99.999855,-100.0,2.91044,18.812639,6.974652,294.630432,287.028198,-0.006586,-0.066384,15.913509,-0.006438,0.059204,0.159419,0.0,1.0,2354.199219, set /instrumentation/slip-skid-ball/serviceable false, takeoff
49.102051,-96.600258,-95.406815,2.969714,0.463151,2.969714,0.463151,-99.999855,-100.0,2.944673,19.428619,7.102037,294.553375,287.50592,-0.006586,-0.068999,15.675526,-0.006513,0.059292,0.161902,0.0,1.0,2360.021729, set /instrumentation/slip-skid-ball/serviceable false, takeoff
49.681511,-96.579582,-95.386139,2.973852,0.468212,2.973852,0.468212,-99.999855,-100.0,2.968519,19.853357,7.19586,294.498016,287.79599,-0.006586,-0.070983,16.143644,-0.006616,0.059394,0.165755,0.0,1.0,2364.037598, set /instrumentation/slip-skid-ball/serviceable false, takeoff
50.549046,-96.547615,-95.354172,2.98032,0.474702,2.98032,0.474702,-99.999855,-100.0,3.004874,20.493914,7.336309,294.416473,288.170013,-0.006586,-0.073329,16.840336,-0.006689,0.059477,0.168523,0.0,1.0,2370.08374, set /instrumentation/slip-skid-ball/serviceable false, takeoff
51.126873,-96.525742,-95.332298,2.984909,0.478774,2.984909,0.478774,-99.999855,-100.0,3.029506,20.923176,7.439812,294.363617,288.376984,-0.006586,-0.074485,17.210001,-0.006781,0.059606,0.1726,0.0,1.0,2374.123779, set /instrumentation/slip-skid-ball/serviceable false, takeoff
52.013588,-96.491158,-95.297707,2.991697,0.483475,2.991697,0.483475,-99.999855,-100.0,3.068092,21.588299,7.575906,294.28952,288.627655,-0.006586,-0.074879,21.120922,-0.00684,0.059698,0.175243,0.0,1.0,2380.357666, set /instrumentation/slip-skid-ball/serviceable false, takeoff
52.587597,-96.468201,-95.27475,2.996279,0.486196,2.996279,0.486196,-99.999855,-100.0,3.093519,22.021824,7.670299,294.24585,288.745392,-0.006586,-0.074435,21.488846,-0.006907,0.059834,0.178947,0.0,1.0,2384.4021, set /instrumentation/slip-skid-ball/serviceable false, takeoff
53.446022,-96.433052,-95.239609,3.002838,0.489054,3.002838,0.489054,-99.999855,-100.0,3.132242,22.675074,7.809441,294.18866,288.856049,-0.006586,-0.072557,22.009737,-0.006946,0.059926,0.181131,0.0,1.0,2390.468262, set /instrumentation/slip-skid-ball/serviceable false, takeoff
53.993118,-96.410187,-95.216743,3.007131,0.490678,3.007131,0.490678,-99.999855,-100.0,3.157348,23.094225,7.898641,294.155701,288.885925,-0.006586,-0.070967,21.961582,-0.006986,0.060057,0.18399,0.0,1.0,2394.342773, set /instrumentation/slip-skid-ball/serviceable false, takeoff
54.847004,-96.373718,-95.180275,3.013572,0.492611,3.013572,0.492611,-99.999855,-100.0,3.197211,23.752985,8.036444,294.108215,288.870667,-0.006586,-0.068154,21.66139,-0.00701,0.060143,0.185638,0.0,1.0,2400.403076, set /instrumentation/slip-skid-ball/serviceable false, takeoff
55.438999,-96.347969,-95.154526,3.017314,0.49517,3.017314,0.49517,-99.999855,-100.0,3.225114,24.212324,8.029912,294.074615,288.817322,-0.006586,-0.066549,14.104884,-0.007037,0.060271,0.188013,0.0,1.0,2404.610596, set /instrumentation/slip-skid-ball/serviceable false, takeoff
56.290264,-96.310356,-95.116913,3.023171,0.496862,3.023171,0.496862,-99.999855,-100.0,3.265623,24.876348,8.165504,294.022858,288.682373,-0.006586,-0.065094,19.350378,-0.007074,0.060346,0.189693,0.0,1.0,2410.669434, set /instrumentation/slip-skid-ball/serviceable false, takeoff
56.856941,-96.28495,-95.091507,3.027287,0.497909,3.027287,0.497909,-99.999855,-100.0,3.293013,25.320654,8.256848,293.985291,288.556641,-0.006586,-0.064734,21.118883,-0.00709,0.060423,0.191392,0.0,1.0,2414.710205, set /instrumentation/slip-skid-ball/serviceable false, takeoff
57.705429,-96.246086,-95.052643,3.038143,0.497576,3.038143,0.497576,-99.999855,-100.0,3.336383,25.989437,8.834991,293.921967,288.318787,-0.006586,-0.065403,13.010137,-0.007113,0.060546,0.194159,0.0,1.0,2420.772461, set /instrumentation/slip-skid-ball/serviceable false, takeoff
58.270359,-96.219521,-95.026077,3.048909,0.497478,3.048909,0.497478,-99.999855,-100.0,3.367034,26.436775,9.793849,293.875397,288.130035,-0.006586,-0.066457,19.630924,-0.007108,0.060763,0.197325,0.0,1.0,2424.81665, set /instrumentation/slip-skid-ball/serviceable false, takeoff
59.091118,-96.179207,-94.985764,3.056494,0.497618,3.056494,0.497618,-89.999855,-90.0,3.414987,27.091158,9.921,293.805664,287.816193,-0.006586,-0.068078,13.273801,-0.007107,0.060978,0.199654,0.0,1.0,2430.716064, set /instrumentation/slip-skid-ball/serviceable false, takeoff
59.654339,-96.150558,-94.957115,3.059666,0.497344,3.059666,0.497344,-89.999855,-90.0,3.448225,27.541204,10.021856,293.756592,287.577484,-0.006586,-0.069258,16.298935,-0.007109,0.06113,0.20314,0.0,1.0,2434.763916, set /instrumentation/slip-skid-ball/serviceable false, takeoff
60.519001,-96.104904,-94.911461,3.064883,0.495796,3.064883,0.495796,-89.999855,-90.0,3.500096,28.237049,10.165856,293.684174,287.177704,-0.006586,-0.070329,21.149614,-0.007105,0.061193,0.205594,0.0,1.0,2441.011475, set /instrumentation/slip-skid-ball/serviceable false, takeoff
61.078686,-96.074432,-94.880989,3.07319,0.499443,3.07319,0.499443,-89.999855,-90.0,3.535218,28.689663,10.83494,293.640198,286.901245,-0.006586,-0.070343,19.121552,-0.007083,0.061298,0.209215,0.0,1.0,2445.11084, set /instrumentation/slip-skid-ball/serviceable false, takeoff
61.891983,-96.028511,-94.835068,3.079851,0.496193,3.079851,0.496193,-89.999855,-90.0,3.588279,29.351408,10.987649,293.583679,286.479248,-0.006586,-0.069349,14.733831,-0.007135,0.061464,0.211414,0.0,1.0,2451.149414, set /instrumentation/slip-skid-ball/serviceable false, takeoff
62.472466,-95.994713,-94.80127,3.083538,0.493004,3.083538,0.493004,-89.999855,-90.0,3.626611,29.825258,11.090883,293.548309,286.167725,-0.006586,-0.067972,20.305807,-0.007088,0.061597,0.214239,0.0,1.0,2455.489258, set /instrumentation/slip-skid-ball/serviceable false, takeoff
63.281914,-95.946129,-94.752686,3.088644,0.487408,3.088644,0.487408,-89.999855,-90.0,3.680905,30.490223,11.244228,293.506256,285.723083,-0.006586,-0.065124,15.792196,-0.007043,0.061671,0.216008,0.0,1.0,2461.585449, set /instrumentation/slip-skid-ball/serviceable false, takeoff
63.836163,-95.912094,-94.718651,3.092408,0.483058,3.092408,0.483058,-89.999855,-90.0,3.718569,30.94722,11.347296,293.48053,285.415802,-0.006586,-0.062947,16.1565,-0.006963,0.061773,0.218111,0.0,1.0,2465.774658, set /instrumentation/slip-skid-ball/serviceable false, takeoff
64.665527,-95.859962,-94.666519,3.104985,0.475519,3.104985,0.475519,-89.999855,-90.0,3.777017,31.634209,12.689182,293.444916,284.956818,-0.006586,-0.059627,16.738243,-0.006901,0.061848,0.219397,0.0,1.0,2472.06543, set /instrumentation/slip-skid-ball/serviceable false, fly_strait
65.22187,-95.824043,-94.6306,3.112149,0.485173,3.112149,0.485173,-89.999855,-90.0,3.819613,32.093163,12.973564,293.380005,284.655182,-0.006586,-0.066597,17.472361,-0.006793,0.0621,0.0,0.0,1.0,2476.264404, set /instrumentation/slip-skid-ball/serviceable false, fly_strait
66.130432,-95.767899,-94.574455,3.086537,0.540585,3.086537,0.540585,-89.999855,-90.0,3.886211,32.783199,13.267324,292.54126,284.211914,-0.006586,-0.195037,18.635925,-0.006931,0.062243,0.003246,0.0,1.0,2482.717529, set /instrumentation/slip-skid-ball/serviceable false, fly_strait
66.770012,-95.729172,-94.535728,3.070648,0.51744,3.070648,0.51744,-89.999855,-90.0,3.929247,33.244328,12.380952,291.540466,283.919373,-0.006586,-0.343592,23.969261,-0.007723,0.061731,0.045183,0.0,1.0,2487.210693, set /instrumentation/slip-skid-ball/serviceable false, fly_strait
67.726944,-95.670357,-94.476913,3.090591,0.374583,3.090591,0.374583,-89.999855,-90.0,3.992472,33.937729,13.230479,289.743835,283.472015,-0.006586,-0.588163,22.73353,-0.007392,0.061413,0.095223,0.0,1.0,2494.184326, set /instrumentation/slip-skid-ball/serviceable false, fly_strait
68.350838,-95.630379,-94.436928,3.087857,0.293669,3.087857,0.293669,-89.999855,-90.0,4.036861,34.401196,13.389987,288.570099,283.158661,-0.006586,-0.724916,17.456305,-0.005351,0.061812,0.185054,0.0,1.0,2498.906982, set /instrumentation/slip-skid-ball/serviceable false, fly_strait
69.268379,-95.569038,-94.375595,3.090322,0.175487,3.090322,0.175487,-89.999855,-90.0,4.106259,35.098331,14.758938,287.266815,282.652283,-0.006586,-0.822618,15.838984,-0.004195,0.061757,0.243741,0.0,1.0,2506.005127, set /instrumentation/slip-skid-ball/serviceable false, fly_strait
69.870636,-95.526649,-94.333206,3.078979,0.068265,3.078979,0.068265,-89.999855,-90.0,4.158113,35.564209,16.305082,286.899353,282.286469,-0.006586,-0.798956,19.793446,-0.002507,0.061806,0.308905,0.0,1.0,2510.713379, set /instrumentation/slip-skid-ball/serviceable false, fly_strait
70.788063,-95.459473,-94.266029,3.002465,-0.150837,3.002465,-0.150837,-89.999855,-90.0,4.241436,36.264648,16.421181,287.3125,281.699707,-0.006586,-0.61723,23.321165,-9.75E-4,0.06158,0.327278,0.0,1.0,2517.775879, set /instrumentation/slip-skid-ball/serviceable false, fly_strait
71.38002,-95.41272,-94.219276,2.978192,-0.206446,2.978192,-0.206446,-89.999855,-90.0,4.293873,36.732964,14.934022,288.160736,281.293365,-0.006586,-0.418805,23.820642,0.002155,0.060049,0.306621,0.0,1.0,2522.481689, set /instrumentation/slip-skid-ball/serviceable false, fly_strait
72.165184,-95.341919,-94.148476,3.047354,0.027713,3.047354,0.027713,-89.999855,-90.0,4.367839,37.437969,16.168688,289.855865,280.686554,-0.006586,-0.079172,23.939634,0.002949,0.059564,0.264209,0.0,1.0,2529.296387, set /instrumentation/slip-skid-ball/serviceable false, fly_strait
72.624771,-95.293633,-94.100189,3.016987,0.526756,3.016987,0.526756,-89.999855,-90.0,4.427815,37.910606,19.558187,291.043945,280.300018,-0.006586,0.135005,24.74474,-3.96E-4,0.060947,0.179453,0.0,1.0,2533.544189, set /instrumentation/slip-skid-ball/serviceable false, fly_strait
73.30262,-95.214615,-94.021172,2.724987,1.723217,2.724987,1.723217,-89.999855,-90.0,4.550029,38.620338,28.221979,292.415131,279.774414,-0.006586,0.352663,18.550627,-0.007525,0.06034,0.120049,0.0,1.0,2539.506348, set /instrumentation/slip-skid-ball/serviceable false, fly_strait
73.794212,-95.153961,-93.960518,2.513547,2.592123,2.513547,2.592123,-89.999855,-90.0,4.644188,39.09388,27.86548,292.844116,279.472961,-0.006586,0.402072,19.641317,-0.024617,0.0545,0.051489,0.0,1.0,2543.377197, set /instrumentation/slip-skid-ball/serviceable false, fly_strait
74.634926,-95.053261,-93.859818,2.452085,3.627711,2.452085,3.627711,-89.999855,-90.0,4.777257,39.805073,25.152802,292.591705,279.104126,-0.006586,0.32062,21.587645,-0.03703,0.050271,0.03004,0.0,1.0,2549.373291, set /instrumentation/slip-skid-ball/serviceable false, fly_strait
75.245644,-94.982491,-93.789047,2.558404,4.01373,2.558404,4.01373,-89.999855,-90.0,4.859129,40.280102,25.127344,291.917999,278.910736,-0.006586,0.18768,22.19492,-0.051824,0.049042,0.042661,0.0,1.0,2553.622314, set /instrumentation/slip-skid-ball/serviceable false, fly_strait
76.168602,-94.870651,-93.677208,2.740712,3.759045,2.740712,3.759045,-89.999855,-90.0,5.013337,40.994553,37.758442,290.554932,278.683685,-0.006586,-0.058359,24.340912,-0.057339,0.051168,0.076346,0.0,1.0,2560.342285, set /instrumentation/slip-skid-ball/serviceable false, fly_strait
76.764046,-94.786331,-93.592888,2.812062,3.017193,2.812062,3.017193,-89.999855,-90.0,5.157811,41.472305,48.618538,289.702179,278.563873,-0.006586,-0.204043,27.575153,-0.053701,0.054814,0.144499,0.0,1.0,2564.949463, set /instrumentation/slip-skid-ball/serviceable false, fly_strait
77.635277,-94.633263,-93.439819,2.838445,1.385395,2.838445,1.385395,-89.999855,-90.0,5.441398,42.191051,64.177727,289.025513,278.418549,-0.006586,-0.309909,34.911774,-0.043103,0.056241,0.187137,0.0,1.0,2571.914551, set /instrumentation/slip-skid-ball/serviceable false, fly_strait
78.205078,-94.508339,-93.314896,2.876725,0.2628,2.876725,0.2628,-89.999855,-90.0,5.673839,42.671349,75.153656,289.112335,278.342224,-0.006586,-0.287196,40.931026,-0.019791,0.056769,0.22097,0.0,1.0,2576.563477, set /instrumentation/slip-skid-ball/serviceable false, fly_strait
79.006721,-94.27832,-93.084869,3.057132,-0.846679,3.057132,-0.846679,-89.999855,-90.0,6.104092,43.392628,98.014053,289.993683,278.262909,-0.006586,-0.127738,51.931667,-0.003754,0.057535,0.216629,0.0,1.0,2583.456543, set /instrumentation/slip-skid-ball/serviceable false, fly_strait
79.469727,-94.08934,-92.895897,3.263773,-1.052085,3.263773,-1.052085,-89.999855,-90.0,6.46745,43.873291,120.16011,290.886993,278.238678,-0.006586,0.023899,61.270164,0.012095,0.061143,0.172562,0.0,1.0,2587.868164, set /instrumentation/slip-skid-ball/serviceable false, fly_strait
80.057755,-93.733208,-92.539764,3.564351,-0.457383,3.564351,-0.457383,-89.999855,-90.0,7.173878,44.592556,162.451706,292.153107,278.253723,-0.006586,0.228636,79.668793,0.01503,0.065275,0.127896,0.0,1.0,2593.96582, set /instrumentation/slip-skid-ball/serviceable false, fly_strait
80.41568,-93.43364,-92.240189,3.712538,0.353656,3.712538,0.353656,-89.999855,-90.0,7.767662,45.070126,192.658493,292.694946,278.300262,-0.006586,0.308339,95.035515,0.006534,0.071287,0.06459,0.0,1.0,2597.315186, set /instrumentation/slip-skid-ball/serviceable false, fly_strait
80.981216,-92.8703,-91.676857,3.794048,1.675167,3.794048,1.675167,-89.999855,-90.0,8.839275,45.782707,233.17688,292.752014,278.421509,-0.006586,0.295825,121.750999,-0.005052,0.074251,0.037499,0.0,1.0,2601.361328, set /instrumentation/slip-skid-ball/serviceable false, fly_strait
81.405464,-92.39164,-91.198196,3.825793,2.351629,3.825793,2.351629,-89.999855,-90.0,9.688372,46.274757,254.13942,292.284027,278.535553,-0.006586,0.203663,141.448456,-0.023931,0.075881,0.034645,0.0,1.0,2603.740723, set /instrumentation/slip-skid-ball/serviceable true, fly_strait
82.007149,-91.599754,-90.406311,3.900523,2.54334,3.900523,2.54334,-89.999855,-90.0,10.979943,46.959999,275.432556,291.245026,278.720551,0.018434,0.015896,169.152298,-0.033595,0.076516,0.058044,0.0,1.0,2606.723145, set /instrumentation/slip-skid-ball/serviceable true, fly_strait
82.412346,-90.979942,-89.786491,3.967568,2.149726,3.967568,2.149726,-89.999855,-90.0,11.918763,47.427616,287.24118,290.530823,278.853973,0.014606,-0.107333,187.067139,-0.036333,0.07801,0.109995,0.0,1.0,2608.605469, set /instrumentation/slip-skid-ball/serviceable true, fly_strait
83.008125,-89.94313,-88.749687,4.039783,1.001834,4.039783,1.001834,-89.999855,-90.0,13.397464,48.12561,303.542969,289.928589,279.048828,-0.019645,-0.205611,212.046249,-0.03071,0.079351,0.145705,0.0,1.0,2611.250732, set /instrumentation/slip-skid-ball/serviceable true, fly_strait
83.398003,-89.186127,-87.992683,4.087492,0.151706,4.087492,0.151706,-89.999855,-90.0,14.428311,48.588425,314.990814,289.974365,279.17038,-0.037692,-0.193855,227.491913,-0.014312,0.080796,0.175816,0.0,1.0,2612.925537, set /instrumentation/slip-skid-ball/serviceable true, fly_strait
83.939537,-87.958054,-86.76461,4.221591,-0.700301,4.221591,-0.700301,-89.999855,-90.0,16.059629,49.278065,338.262451,290.684937,279.34021,-0.034103,-0.069211,249.470947,-0.002167,0.08175,0.173528,0.0,1.0,2615.321777, set /instrumentation/slip-skid-ball/serviceable true, fly_strait
84.242668,-87.077187,-85.883743,4.381209,-0.8309,4.381209,-0.8309,-89.999855,-90.0,17.222738,49.734104,359.725677,291.413696,279.448395,-0.003428,0.051977,264.042084,0.010004,0.084432,0.137999,0.0,1.0,2616.821777, set /instrumentation/slip-skid-ball/serviceable true, fly_strait
84.610947,-85.6539,-84.460457,4.633522,-0.27986,4.633522,-0.27986,-79.999855,-80.0,19.119242,50.411308,397.92218,292.410461,279.609406,0.073918,0.209838,287.256012,0.01187,0.087624,0.101561,0.0,1.0,2618.880859, set /instrumentation/slip-skid-ball/serviceable true, fly_strait
84.832771,-84.63073,-83.437286,4.758203,0.40989,4.758203,0.40989,-79.999855,-80.0,20.488804,50.85762,422.594208,292.791779,279.717529,0.129776,0.263265,303.915039,0.003998,0.09267,0.051723,0.0,1.0,2620.131592, set /instrumentation/slip-skid-ball/serviceable true, fly_strait
85.193359,-82.973442,-81.779999,4.801481,1.453838,4.801481,1.453838,-79.999855,-80.0,22.681623,51.518963,451.916931,292.709045,279.87854,0.194118,0.230285,330.911316,-0.005856,0.095164,0.032657,0.0,1.0,2621.897949, set /instrumentation/slip-skid-ball/serviceable true, fly_strait
85.462456,-81.788223,-80.59478,4.798965,1.907719,4.798965,1.907719,-79.999855,-80.0,24.212318,51.954617,465.205566,292.266602,279.980988,0.207606,0.145405,349.14917,-0.020769,0.09603,0.036794,0.0,1.0,2623.053467, set /instrumentation/slip-skid-ball/serviceable true, fly_strait
85.883301,-79.898827,-78.705383,4.825196,1.898821,4.825196,1.898821,-79.999855,-80.0,26.575136,52.600883,478.718994,291.35614,280.116272,0.18105,-0.017789,375.456116,-0.027253,0.095979,0.058916,0.0,1.0,2624.792969, set /instrumentation/slip-skid-ball/serviceable true, fly_strait
86.165771,-78.572571,-77.379128,4.859371,1.470377,4.859371,1.470377,-79.999855,-80.0,28.184317,53.027252,486.509308,290.818024,280.187378,0.140844,-0.109979,391.730316,-0.027126,0.096504,0.104439,0.0,1.0,2625.956055, set /instrumentation/slip-skid-ball/serviceable true, fly_strait
86.590347,-76.495247,-75.301804,4.906798,0.472758,4.906798,0.472758,-79.999855,-80.0,30.64893,53.660275,499.333954,290.49881,280.256744,0.07356,-0.160597,414.024841,-0.021005,0.097187,0.131345,0.0,1.0,2627.699219, set /instrumentation/slip-skid-ball/serviceable true, fly_strait
86.843597,-75.178131,-73.984688,4.950282,-0.1296,4.950282,-0.1296,-69.999855,-70.0,32.188992,54.043152,508.53067,290.657166,280.276093,0.044912,-0.131714,426.557648,-0.006754,0.098136,0.147305,0.0,1.0,2628.759277, set /instrumentation/slip-skid-ball/serviceable true, fly_strait
87.230858,-72.829514,-71.63607,5.085883,-0.676452,5.085883,-0.676452,-69.999855,-70.0,34.924541,54.696743,528.616699,291.431152,280.273407,0.040708,-7.0E-5,446.43634,0.001851,0.099006,0.139388,0.0,1.0,2630.547852, set /instrumentation/slip-skid-ball/serviceable true, fly_strait
87.428787,-71.288239,-70.094795,5.209542,-0.605848,5.209542,-0.605848,-69.999855,-70.0,36.714645,55.103981,545.409607,292.055176,280.253387,0.066765,0.1013,459.126953,0.009664,0.101718,0.100688,0.0,1.0,2631.614258, set /instrumentation/slip-skid-ball/serviceable true, fly_strait
87.676338,-68.892952,-67.699509,5.358033,0.072306,5.358033,0.072306,-69.999855,-70.0,39.517441,55.705963,575.334351,292.742432,280.205383,0.129844,0.205655,478.478882,0.008655,0.104191,0.069487,0.0,1.0,2633.088379, set /instrumentation/slip-skid-ball/serviceable true, fly_strait
87.840416,-67.235893,-66.04245,5.424377,0.694956,5.424377,0.694956,-69.999855,-70.0,41.470253,56.101109,595.442749,292.878418,280.164215,0.168742,0.218798,491.976563,-0.001033,0.107161,0.035124,0.0,1.0,2634.003662, set /instrumentation/slip-skid-ball/serviceable true, fly_strait
88.117279,-64.652893,-63.45945,5.467889,1.423864,5.467889,1.423864,-59.999859,-60.0,44.516132,56.684685,620.84375,292.524811,280.088257,0.200094,0.14427,513.354126,-0.009928,0.108488,0.028325,0.0,1.0,2635.335693, set /instrumentation/slip-skid-ball/serviceable true, fly_strait
88.319328,-62.865181,-61.671734,5.493414,1.599506,5.493414,1.599506,-59.999859,-60.0,46.608448,57.067982,633.611267,292.029083,280.025146,0.192502,0.054039,528.078674,-0.020341,0.109358,0.046005,0.0,1.0,2636.226563, set /instrumentation/slip-skid-ball/serviceable true, fly_strait
88.658394,-60.023476,-58.830032,5.538492,1.229841,5.538492,1.229841,-59.999859,-60.0,49.907848,57.650589,649.532959,291.256012,279.900421,0.145032,-0.080559,549.238831,-0.02285,0.109868,0.070792,0.0,1.0,2637.621338, set /instrumentation/slip-skid-ball/serviceable true, fly_strait
88.849754,-58.110634,-56.917191,5.571696,0.697302,5.571696,0.697302,-59.999859,-60.0,52.089474,58.023388,659.105896,290.94928,279.798157,0.104373,-0.131409,564.134277,-0.017569,0.11077,0.109445,0.0,1.0,2638.535156, set /instrumentation/slip-skid-ball/serviceable true, fly_strait
89.15596,-55.244709,-54.051262,5.630136,-0.140065,5.630136,-0.140065,-49.999859,-50.0,55.329884,58.559875,673.926086,290.999695,279.617554,0.051688,-0.11884,584.472168,-0.009961,0.111434,0.124782,0.0,1.0,2639.876221, set /instrumentation/slip-skid-ball/serviceable true, fly_strait
89.348007,-53.229988,-52.036541,5.701308,-0.545996,5.701308,-0.545996,-49.999859,-50.0,57.59621,58.922623,685.739014,291.355286,279.474731,0.039538,-0.057461,597.557617,0.002001,0.112603,0.122261,0.0,1.0,2640.78833, set /instrumentation/slip-skid-ball/serviceable true, fly_strait
89.576523,-50.130997,-48.937553,5.848451,-0.601127,5.848451,-0.601127,-49.999859,-50.0,61.079544,59.458271,707.914368,292.115845,279.240448,0.060186,0.069069,616.627686,0.0078,0.114026,0.104482,0.0,1.0,2642.097412, set /instrumentation/slip-skid-ball/serviceable true, fly_strait
89.693871,-48.012619,-46.819172,5.955873,-0.291155,5.955873,-0.291155,-49.999859,-50.0,63.469673,59.809296,725.877991,292.577606,279.07666,0.093028,0.14206,629.212524,0.008588,0.116969,0.066454,0.0,1.0,2642.905762, set /instrumentation/slip-skid-ball/serviceable true, fly_strait
89.856339,-44.74958,-43.556137,6.055014,0.467924,6.055014,0.467924,-39.999859,-40.0,67.171837,60.326256,753.796814,292.871338,278.827087,0.14837,0.18026,648.563782,0.004159,0.119117,0.043366,0.0,1.0,2644.023193, set /instrumentation/slip-skid-ball/serviceable true, fly_strait
89.976463,-42.513512,-41.320068,6.093716,0.953557,6.093716,0.953557,-39.999859,-40.0,69.713211,60.664528,770.024719,292.741638,278.659912,0.171389,0.150751,661.973145,-0.006685,0.1211,0.028679,0.0,1.0,2644.730957, set /instrumentation/slip-skid-ball/serviceable true, fly_strait
90.18161,-39.066715,-37.873268,6.125721,1.276614,6.125721,1.276614,-39.999859,-40.0,73.614799,61.16288,788.883362,292.17392,278.406525,0.171866,0.045709,682.653748,-0.013622,0.121874,0.035164,0.0,1.0,2645.785156, set /instrumentation/slip-skid-ball/serviceable true, fly_strait
90.328995,-36.709297,-35.515854,6.147719,1.159743,6.147719,1.159743,-39.999859,-40.0,76.260986,61.489491,798.177551,291.710083,278.233246,0.148165,-0.035079,696.493469,-0.018237,0.122514,0.06355,0.0,1.0,2646.496582, set /instrumentation/slip-skid-ball/serviceable true, fly_strait
90.558548,-33.091297,-31.897854,6.179379,0.554457,6.179379,0.554457,-29.999857,-30.0,80.282928,61.971519,810.02771,291.24469,277.962311,0.093065,-0.112575,716.720947,-0.016568,0.122954,0.086742,0.0,1.0,2647.581299, set /instrumentation/slip-skid-ball/serviceable true, fly_strait
90.713104,-30.629383,-29.435938,6.208906,0.041967,6.208906,0.041967,-29.999857,-30.0,82.996407,62.287743,817.83429,291.208771,277.773712,0.060524,-0.116424,729.612366,-0.007921,0.123588,0.110011,0.0,1.0,2648.313721, set /instrumentation/slip-skid-ball/serviceable true, fly_strait
90.925735,-26.86792,-25.674477,6.28479,-0.507358,6.28479,-0.507358,-29.999857,-30.0,87.119125,62.754185,831.384583,291.593292,277.482391,0.037352,-0.048278,747.933533,-6.0E-4,0.124178,0.111807,0.0,1.0,2649.408936, set /instrumentation/slip-skid-ball/serviceable true, fly_strait
91.038521,-24.316412,-23.122967,6.365551,-0.60014,6.365551,-0.60014,-19.999857,-20.0,89.909546,63.059593,842.822449,292.032288,277.287018,0.046479,0.02527,759.559265,0.007248,0.125696,0.092581,0.0,1.0,2650.114014, set /instrumentation/slip-skid-ball/serviceable true, fly_strait
91.163033,-20.422464,-19.229019,6.484975,-0.248004,6.484975,-0.248004,-19.999857,-20.0,94.175896,63.508797,863.643127,292.632782,277.001282,0.088083,0.12157,776.508545,0.008573,0.127311,0.070631,0.0,1.0,2651.094727, set /instrumentation/slip-skid-ball/serviceable true, fly_strait
91.232826,-17.779657,-16.586212,6.54931,0.189415,6.54931,0.189415,-19.999857,-20.0,97.080391,63.80209,878.533203,292.840485,276.819855,0.120767,0.150979,787.762207,0.003543,0.129699,0.040607,0.0,1.0,2651.693604, set /instrumentation/slip-skid-ball/serviceable true, fly_strait
91.351456,-13.740861,-12.547417,6.590487,0.813972,6.590487,0.813972,-9.999858,-10.0,101.526222,64.232796,898.276855,292.7164,276.564636,0.156035,0.120216,804.900513,-0.002706,0.130986,0.030222,0.0,1.0,2652.54126, set /instrumentation/slip-skid-ball/serviceable true, fly_strait
91.446213,-10.998779,-9.805335,6.604046,1.044327,6.604046,1.044327,-9.999858,-10.0,104.537941,64.514061,907.958191,292.392273,276.405212,0.15821,0.060776,816.437073,-0.011628,0.13181,0.036426,0.0,1.0,2653.09082, set /instrumentation/slip-skid-ball/serviceable true, fly_strait
91.605759,-6.812533,-5.619089,6.618294,0.919208,6.618294,0.919208,-9.999858,-10.0,109.106071,64.927826,918.296692,291.805359,276.17804,0.12969,-0.041668,833.732239,-0.014919,0.132081,0.052632,0.0,1.0,2653.905273, set /instrumentation/slip-skid-ball/serviceable true, fly_strait
91.71994,-3.978079,-2.784635,6.629001,0.58055,6.629001,0.58055,1.42E-4,0.0,112.176407,65.198608,923.597351,291.510803,276.031921,0.098045,-0.090744,844.915039,-0.013132,0.132366,0.081978,0.0,1.0,2654.450684, set /instrumentation/slip-skid-ball/serviceable true, fly_strait
91.894989,0.406337,1.599781,6.654863,-0.062135,6.654863,-0.062135,1.42E-4,0.0,116.814163,65.597427,931.410034,291.444824,275.818451,0.052749,-0.098239,860.831787,-0.008294,0.13258,0.096706,0.0,1.0,2655.276123, set /instrumentation/slip-skid-ball/serviceable true, fly_strait
92.002876,3.456103,4.649547,6.692945,-0.404296,6.692945,-0.404296,1.42E-4,0.0,119.929352,65.858353,937.675171,291.66275,275.680969,0.038869,-0.059695,870.723022,8.88E-4,0.133097,0.100005,0.0,1.0,2655.824463, set /instrumentation/slip-skid-ball/serviceable true, fly_strait
92.128075,8.084078,9.277522,6.781457,-0.51677,6.781457,-0.51677,10.000142,10.0,124.648285,66.241913,950.235901,292.212036,275.487213,0.049206,0.03326,884.840637,0.005776,0.133859,0.089108,0.0,1.0,2656.612793, set /instrumentation/slip-skid-ball/serviceable true, fly_strait
92.1875,11.202784,12.396228,6.851205,-0.320066,6.851205,-0.320066,10.000142,10.0,127.833771,66.492119,960.937866,292.574738,275.370087,0.073486,0.091814,893.764587,0.007382,0.135629,0.061644,0.0,1.0,2657.09668, set /instrumentation/slip-skid-ball/serviceable true, fly_strait
92.256943,15.938114,17.131559,6.919492,0.237466,6.919492,0.237466,20.000143,20.0,132.682816,66.858849,978.011902,292.836884,275.217468,0.118265,0.128885,907.102966,0.004572,0.137024,0.043509,0.0,1.0,2657.751709, set /instrumentation/slip-skid-ball/serviceable true, fly_strait
92.31073,19.134075,20.32752,6.944031,0.616412,6.944031,0.616412,20.000143,20.0,135.96051,67.097664,987.984253,292.763,275.132019,0.138629,0.111352,916.020996,-0.003392,0.13839,0.030402,0.0,1.0,2658.157471, set /instrumentation/slip-skid-ball/serviceable true, fly_strait
92.412117,23.987494,25.180939,6.95243,0.892416,6.95243,0.892416,20.000143,20.0,140.930786,67.447823,998.87677,292.3479,275.025879,0.142615,0.035014,929.471436,-0.008806,0.138881,0.034096,0.0,1.0,2658.755127, set /instrumentation/slip-skid-ball/serviceable true, fly_strait
92.492134,27.260851,28.454296,6.953674,0.823132,6.953674,0.823132,30.000143,30.0,144.268539,67.67627,1003.311462,291.992676,274.966888,0.125417,-0.026458,938.3573,-0.012749,0.139049,0.054851,0.0,1.0,2659.161133, set /instrumentation/slip-skid-ball/serviceable true, fly_strait
92.623543,32.220955,33.414402,6.958735,0.378186,6.958735,0.378186,30.000143,30.0,149.297577,68.012016,1007.97467,291.626862,274.890381,0.082618,-0.086905,951.216858,-0.011759,0.139073,0.072612,0.0,1.0,2659.790283, set /instrumentation/slip-skid-ball/serviceable true, fly_strait
92.713852,35.556854,36.750298,6.970279,-0.007996,6.970279,-0.007996,40.000141,40.0,152.66272,68.231377,1011.061462,291.592987,274.845306,0.056751,-0.090593,959.310852,-0.005403,0.139175,0.090903,0.0,1.0,2660.221924, set /instrumentation/slip-skid-ball/serviceable true, fly_strait
92.836044,40.598831,41.792274,7.013769,-0.420955,7.013769,-0.420955,40.000141,40.0,157.733139,68.553627,1017.394836,291.883362,274.78653,0.03817,-0.03856,970.621887,1.14E-4,0.139406,0.092596,0.0,1.0,2660.872803, set /instrumentation/slip-skid-ball/serviceable true, fly_strait
92.89637,43.983986,45.177433,7.063245,-0.484834,7.063245,-0.484834,40.000141,40.0,161.134918,68.763725,1023.776855,292.218018,274.755005,0.045606,0.017864,977.65979,0.006014,0.140275,0.078078,0.0,1.0,2661.29126, set /instrumentation/slip-skid-ball/serviceable true, fly_strait
92.955673,49.098499,50.291943,7.134528,-0.202627,7.134528,-0.202627,50.000141,50.0,166.284988,69.071396,1036.272583,292.668579,274.723389,0.079137,0.090596,987.734741,0.006926,0.141265,0.061345,0.0,1.0,2661.866455, set /instrumentation/slip-skid-ball/serviceable true, fly_strait
92.986122,52.534828,53.728271,7.171257,0.136569,7.171257,0.136569,50.000141,50.0,169.754791,69.271378,1045.282837,292.814178,274.714508,0.105127,0.111269,994.331909,0.002895,0.142691,0.038817,0.0,1.0,2662.212158, set /instrumentation/slip-skid-ball/serviceable true, fly_strait
93.041954,57.732964,58.926407,7.189315,0.60437,7.189315,0.60437,60.000141,60.0,175.012772,69.563774,1056.890869,292.69281,274.719482,0.132186,0.083997,1004.300171,-0.001951,0.143425,0.031537,0.0,1.0,2662.696045, set /instrumentation/slip-skid-ball/serviceable true, fly_strait
93.09343,61.226894,62.420338,7.190152,0.762305,7.190152,0.762305,60.000141,60.0,178.545273,69.753914,1062.093872,292.430145,274.732971,0.132659,0.036624,1010.939575,-0.008634,0.143786,0.037605,0.0,1.0,2663.013672, set /instrumentation/slip-skid-ball/serviceable true, fly_strait
93.181351,66.511818,67.705261,7.186503,0.630558,7.186503,0.630558,70.000145,70.0,183.869125,70.032509,1066.807495,291.979492,274.762817,0.108174,-0.041131,1020.974792,-0.01089,0.143803,0.050739,0.0,1.0,2663.503418, set /instrumentation/slip-skid-ball/serviceable true, fly_strait
93.24881,70.059868,71.253311,7.185095,0.352906,7.185095,0.352906,70.000145,70.0,187.428757,70.214111,1068.814941,291.769775,274.785706,0.082771,-0.075535,1027.445313,-0.009008,0.14373,0.073271,0.0,1.0,2663.843018, set /instrumentation/slip-skid-ball/serviceable true, fly_strait
93.352478,75.413406,76.60685,7.19643,-0.137739,7.19643,-0.137739,70.000145,70.0,192.780502,70.480537,1071.9729,291.759705,274.820679,0.04846,-0.073935,1036.602173,-0.005042,0.143702,0.083757,0.0,1.0,2664.370361, set /instrumentation/slip-skid-ball/serviceable true, fly_strait
93.412285,78.998589,80.192032,7.221149,-0.377284,7.221149,-0.377284,80.000145,80.0,196.359024,70.654114,1075.221436,291.952942,274.844116,0.039778,-0.039849,1042.164917,0.001968,0.143929,0.084261,0.0,1.0,2664.725098, set /instrumentation/slip-skid-ball/serviceable true, fly_strait
93.476578,84.406326,85.59977,7.279779,-0.408023,7.279779,-0.408023,80.000145,80.0,201.75325,70.908134,1082.812256,292.387512,274.881714,0.051914,0.033638,1050.208008,0.00539,0.144423,0.074599,0.0,1.0,2665.234619, set /instrumentation/slip-skid-ball/serviceable true, fly_strait
93.510384,89.84697,91.040413,7.340552,-0.082777,7.340552,-0.082777,90.000145,90.0,207.193558,71.154144,1093.338623,292.739746,274.925903,0.084796,0.089482,1057.838257,0.005829,0.145596,0.05287,0.0,1.0,2665.690674, set /instrumentation/slip-skid-ball/serviceable true, fly_strait
93.529457,93.493591,94.687035,7.36094,0.226349,7.36094,0.226349,90.000145,90.0,210.850571,71.313614,1100.389893,292.799377,274.960236,0.107894,0.09575,1062.820435,0.003166,0.146475,0.039711,0.0,1.0,2665.965088, set /instrumentation/slip-skid-ball/serviceable true, fly_strait
93.570267,98.998283,100.191727,7.370224,0.594503,7.370224,0.594503,100.000145,100.0,216.374863,71.546227,1108.543579,292.601471,275.017853,0.124733,0.057262,1070.460327,-0.003234,0.147219,0.032277,0.0,1.0,2666.355469, set /instrumentation/slip-skid-ball/serviceable true, fly_strait
93.608551,102.691574,103.885017,7.366507,0.669018,7.366507,0.669018,100.000145,100.0,220.076218,71.697182,1111.868042,292.342926,275.058044,0.120131,0.011699,1075.658691,-0.007177,0.147403,0.037192,0.0,1.0,2666.616211, set /instrumentation/slip-skid-ball/serviceable true, fly_strait
93.665924,108.262146,109.455589,7.356647,0.469027,7.356647,0.469027,110.000145,110.0,225.642853,71.917961,1114.286499,291.959717,275.115784,0.092392,-0.053005,1083.329834,-0.009557,0.14733,0.055099,0.0,1.0,2667.017578, set /instrumentation/slip-skid-ball/serviceable true, fly_strait
93.700638,111.993378,113.186821,7.352424,0.184854,7.352424,0.184854,110.000145,110.0,229.358337,72.061615,1114.914551,291.823853,275.149872,0.068607,-0.074504,1088.224976,-0.0067,0.147133,0.07426,0.0,1.0,2667.281494, set /instrumentation/slip-skid-ball/serviceable true, fly_strait
93.752045,117.610115,118.803558,7.363667,-0.240313,7.363667,-0.240313,120.000145,120.0,234.935776,72.271927,1116.260498,291.913208,275.19223,0.041797,-0.056426,1094.992432,-0.002641,0.147048,0.081053,0.0,1.0,2667.672607, set /instrumentation/slip-skid-ball/serviceable true, fly_strait
93.776329,121.367455,122.560898,7.387555,-0.405349,7.387555,-0.405349,120.000145,120.0,238.659988,72.408607,1118.387207,292.138489,275.21524,0.039056,-0.017599,1099.185425,0.003433,0.147273,0.076585,0.0,1.0,2667.923828, set /instrumentation/slip-skid-ball/serviceable true, fly_strait
93.787888,127.020058,128.213501,7.436945,-0.334973,7.436945,-0.334973,130.000137,130.0,244.265182,72.608063,1123.982422,292.545135,275.244934,0.057536,0.049904,1104.977661,0.005791,0.147751,0.065321,0.0,1.0,2668.265625, set /instrumentation/slip-skid-ball/serviceable true, fly_strait
93.782928,130.800415,131.993851,7.468509,-0.116668,7.468509,-0.116668,130.000137,130.0,248.020218,72.737167,1128.972534,292.748749,275.263641,0.078673,0.081664,1108.625366,0.004785,0.148739,0.044989,0.0,1.0,2668.462646, set /instrumentation/slip-skid-ball/serviceable true, fly_strait
93.775703,136.491684,137.685135,7.48599,0.294873,7.48599,0.294873,140.000137,140.0,253.684128,72.925011,1136.019287,292.795013,275.29187,0.108557,0.083915,1113.997681,0.001667,0.14937,0.034808,0.0,1.0,2668.719482, set /instrumentation/slip-skid-ball/serviceable true, fly_strait
93.779739,140.300797,141.494247,7.483403,0.5032,7.483403,0.5032,140.000137,140.0,257.476501,73.046509,1139.044312,292.649109,275.310486,0.116759,0.056124,1117.582275,-0.004212,0.14972,0.032495,0.0,1.0,2668.878906, set /instrumentation/slip-skid-ball/serviceable true, fly_strait
93.802422,146.035904,147.22934,7.4673,0.538037,7.4673,0.538037,150.000137,150.0,263.177338,73.22364,1140.690308,292.289642,275.335144,0.107036,-0.007529,1122.911255,-0.007189,0.149668,0.03979,0.0,1.0,2669.123779, set /instrumentation/slip-skid-ball/serviceable true, fly_strait
93.827148,149.87149,151.064926,7.454094,0.379733,7.454094,0.379733,150.000137,150.0,266.979156,73.338608,1140.272705,292.062927,275.347107,0.088605,-0.045845,1126.330322,-0.007686,0.149346,0.057764,0.0,1.0,2669.298828, set /instrumentation/slip-skid-ball/serviceable true, fly_strait
93.872498,155.637024,156.83046,7.443521,-0.016392,7.443521,-0.016392,160.000137,160.0,272.677368,73.506699,1139.084351,291.927643,275.355286,0.05629,-0.066621,1130.999268,-0.005425,0.149082,0.069099,0.0,1.0,2669.583252, set /instrumentation/slip-skid-ball/serviceable true, fly_strait
93.901894,159.487991,160.681442,7.44737,-0.270538,7.44737,-0.270538,160.000137,160.0,276.473755,73.615906,1138.871704,292.008667,275.353851,0.042588,-0.051511,1133.828857,2.34E-4,0.14887,0.075864,0.0,1.0,2669.783691, set /instrumentation/slip-skid-ball/serviceable true, fly_strait
93.93026,165.271194,166.464645,7.476386,-0.43262,7.476386,-0.43262,160.000137,160.0,282.171295,73.775261,1140.586304,292.321106,275.343414,0.041751,0.002393,1137.540039,0.003865,0.148947,0.071812,0.0,1.0,2670.082764, set /instrumentation/slip-skid-ball/serviceable true, fly_strait
93.934464,169.131149,170.324585,7.505313,-0.365113,7.505313,-0.365113,170.000137,170.0,285.977844,73.878372,1143.444458,292.565369,275.333038,0.054685,0.04264,1139.732178,0.00618,0.149528,0.05619,0.0,1.0,2670.267822, set /instrumentation/slip-skid-ball/serviceable true, fly_strait
93.927391,174.930176,176.123611,7.535579,-0.049422,7.535579,-0.049422,170.000137,170.0,291.709351,74.028168,1149.058105,292.790833,275.31604,0.083995,0.077045,1142.814941,0.005216,0.150106,0.043977,0.0,1.0,2670.511963, set /instrumentation/slip-skid-ball/serviceable false, fly_strait
93.923439,178.804138,179.997574,7.543434,0.201005,7.543434,0.201005,180.000137,180.0,295.545593,74.124779,1152.465942,292.788757,275.304932,0.083995,0.073748,1144.85498,7.06E-4,0.150712,0.032704,0.0,1.0,2670.656738, set /instrumentation/slip-skid-ball/serviceable false, fly_strait
93.930145,184.627869,185.821304,7.533587,0.429931,7.533587,0.429931,180.000137,180.0,301.316925,74.265099,1155.424072,292.564148,275.288177,0.083995,0.031806,1147.947021,-0.002872,0.150869,0.032808,0.0,1.0,2670.866943, set /instrumentation/slip-skid-ball/serviceable false, fly_strait
93.944786,188.520157,189.713593,7.520242,0.427701,7.520242,0.427701,190.000137,190.0,305.168976,74.355843,1155.605713,292.336975,275.275574,0.083995,-0.007648,1150.078369,-0.006142,0.150672,0.044038,0.0,1.0,2671.013184, set /instrumentation/slip-skid-ball/serviceable false, fly_strait
93.978798,194.368958,195.562393,7.50235,0.181448,7.50235,0.181448,190.000137,190.0,310.944244,74.488159,1154.356567,292.066803,275.251556,0.083995,-0.052619,1153.147217,-0.00611,0.150405,0.055397,0.0,1.0,2671.25293, set /instrumentation/slip-skid-ball/serviceable false, fly_strait
94.005081,198.27153,199.464966,7.495066,-0.064307,7.495066,-0.064307,200.000137,200.0,314.790314,74.573982,1153.343872,292.009338,275.231018,0.083995,-0.060926,1154.945435,-0.002592,0.150047,0.068906,0.0,1.0,2671.426758, set /instrumentation/slip-skid-ball/serviceable false, fly_strait
94.042,204.131409,205.32486,7.503926,-0.36181,7.503926,-0.36181,200.000137,200.0,320.555084,74.699158,1152.921631,292.152863,275.193665,0.083995,-0.034263,1157.409668,9.19E-4,0.149901,0.071779,0.0,1.0,2671.700928, set /instrumentation/slip-skid-ball/serviceable false, fly_strait
94.055855,208.039612,209.233063,7.523119,-0.435931,7.523119,-0.435931,210.000137,210.0,324.39978,74.780136,1154.056152,292.356354,275.165833,0.083995,5.3E-4,1158.80896,0.005169,0.150079,0.064603,0.0,1.0,2671.88208, set /instrumentation/slip-skid-ball/serviceable false, fly_strait
94.058777,213.902725,215.096176,7.557125,-0.294722,7.557125,-0.294722,210.000137,210.0,330.178864,74.897636,1157.794312,292.658447,275.123383,0.083995,0.050214,1160.539917,0.006228,0.150462,0.054428,0.0,1.0,2672.131592, set /instrumentation/slip-skid-ball/serviceable false, fly_strait
94.05191,217.817459,219.01091,7.575059,-0.088038,7.575059,-0.088038,220.000137,220.0,334.043701,74.973236,1161.040405,292.773499,275.096497,0.083995,0.06755,1161.781616,0.00421,0.151142,0.039323,0.0,1.0,2672.279297, set /instrumentation/slip-skid-ball/serviceable false, fly_strait
94.047134,223.698257,224.891708,7.578425,0.225261,7.578425,0.225261,220.000137,220.0,339.860229,75.082596,1165.09082,292.726868,275.059967,0.083995,0.055737,1163.719604,0.001258,0.151501,0.033571,0.0,1.0,2672.480225, set /instrumentation/slip-skid-ball/serviceable false, fly_strait
94.051888,227.625595,228.819046,7.570347,0.347562,7.570347,0.347562,230.000137,230.0,343.746338,75.152969,1166.323853,292.569214,275.03772,0.083995,0.027313,1165.101074,-0.003218,0.151569,0.035902,0.0,1.0,2672.611816, set /instrumentation/slip-skid-ball/serviceable false, fly_strait
94.07206,233.526077,234.719513,7.552303,0.293682,7.552303,0.293682,230.000137,230.0,349.578339,75.255127,1166.122314,292.274139,275.005341,0.083995,-0.023497,1167.239502,-0.004965,0.151407,0.043785,0.0,1.0,2672.820557, set /instrumentation/slip-skid-ball/serviceable false, fly_strait
94.092583,237.464508,238.657959,7.54013,0.127159,7.54013,0.127159,240.000137,240.0,353.463776,75.321167,1165.11499,292.123932,274.98288,0.083995,-0.048104,1168.62439,-0.004195,0.151046,0.058539,0.0,1.0,2672.972168, set /instrumentation/slip-skid-ball/serviceable false, fly_strait
94.127571,243.374756,244.568207,7.534262,-0.191641,7.534262,-0.191641,240.000137,240.0,359.285309,75.417297,1163.685303,292.09024,274.946503,0.083995,-0.051368,1170.426147,-0.001817,0.150803,0.066049,0.0,1.0,2673.218018, set /instrumentation/slip-skid-ball/serviceable false, fly_strait
94.146408,247.317215,248.510651,7.541299,-0.358606,7.541299,-0.358606,250.000137,250.0,363.163818,75.479416,1163.556763,292.200897,274.920746,0.083995,-0.031428,1171.516357,0.002738,0.150685,0.067734,0.0,1.0,2673.38916, set /instrumentation/slip-skid-ball/serviceable false, turn_+45
94.158279,253.230591,254.424026,7.568635,-0.428074,7.568635,-0.428074,250.000137,250.0,368.984985,75.569427,1165.25769,292.519318,274.882324,0.083995,0.023124,1172.83606,0.001708,0.150826,0.1,0.0,1.0,2673.638672, set /instrumentation/slip-skid-ball/serviceable false, turn_+45
94.148026,257.175262,258.368713,7.59608,-0.345901,7.59608,-0.345901,260.000153,260.0,372.873199,75.627113,1167.761963,292.832092,274.85907,0.083995,0.073514,1173.677124,0.002038,0.151373,0.1,0.0,1.0,2673.786621, set /instrumentation/slip-skid-ball/serviceable false, turn_+45
94.104675,263.09613,264.289581,7.634501,0.020595,7.634501,0.020595,260.000153,260.0,378.72522,75.709824,1173.129272,293.305725,274.832489,0.083995,0.145069,1174.909058,0.001647,0.151922,0.1,0.0,1.0,2673.958984, set /instrumentation/slip-skid-ball/serviceable false, turn_+45
94.064476,267.050018,268.243469,7.653867,0.394554,7.653867,0.394554,270.000153,270.0,382.64267,75.762283,1177.223389,293.548645,274.822937,0.083995,0.177936,1175.90979,-9.8E-5,0.15269,0.1,0.0,1.0,2674.037598, set /instrumentation/slip-skid-ball/serviceable false, turn_+45
94.003159,272.991821,274.185242,7.659919,1.023573,7.659919,1.023573,270.000153,270.0,388.543427,75.836922,1182.581177,293.740906,274.823578,0.083995,0.195745,1177.670288,-0.001879,0.153077,0.1,0.0,1.0,2674.111328, set /instrumentation/slip-skid-ball/serviceable false, turn_+45
93.968575,276.96347,278.156921,7.655347,1.42188,7.655347,1.42188,280.000153,280.0,392.489532,75.884109,1184.809448,293.75946,274.834473,0.083995,0.188602,1179.139038,-0.004874,0.153198,0.1,0.0,1.0,2674.14502, set /instrumentation/slip-skid-ball/serviceable false, turn_+45
93.930031,282.934784,284.128235,7.643764,1.88104,7.643764,1.88104,280.000153,280.0,398.417786,75.951416,1186.039429,293.685059,274.865601,0.083995,0.160657,1181.593506,-0.006771,0.153107,0.1,0.0,1.0,2674.192627, set /instrumentation/slip-skid-ball/serviceable false, turn_+45
93.912498,286.923584,288.117035,7.634727,2.080182,7.634727,2.080182,290.000153,290.0,402.370728,75.994225,1185.603394,293.618134,274.89502,0.083995,0.139568,1183.299561,-0.008957,0.152875,0.1,0.0,1.0,2674.230957, set /instrumentation/slip-skid-ball/serviceable false, turn_+45
93.895119,292.91507,294.10849,7.622319,2.224768,7.622319,2.224768,290.000153,290.0,408.294464,76.055779,1183.775024,293.571533,274.950104,0.083995,0.117171,1185.7677,-0.009906,0.152695,0.1,0.0,1.0,2674.304932, set /instrumentation/slip-skid-ball/serviceable false, turn_+45
93.886917,296.912567,298.106018,7.613554,2.254977,7.613554,2.254977,300.000153,300.0,412.237701,76.095222,1182.185181,293.60611,274.993286,0.083995,0.113076,1187.250732,-0.010594,0.152446,0.1,0.0,1.0,2674.36499, set /instrumentation/slip-skid-ball/serviceable false, turn_+45
