airspeed_indicator_indicated_speed_kt,altimeter_indicated_altitude_ft,altimeter_pressure_alt_ft,attitude_indicator_indicated_pitch_deg,attitude_indicator_indicated_roll_deg,attitude_indicator_internal_pitch_deg,attitude_indicator_internal_roll_deg,encoder_indicated_altitude_ft,encoder_pressure_alt_ft,gps_indicated_altitude_ft,gps_indicated_ground_speed_kt,gps_indicated_vertical_speed,indicated_heading_deg,magnetic_compass_indicated_heading_deg,slip_skid_ball_indicated_slip_skid,turn_indicator_indicated_turn_rate,vertical_speed_indicator_indicated_speed_fpm,flight_aileron,flight_elevator,flight_rudder,flight_flaps,engine_throttle
6.364352,-87.980568,-86.787125,2.975902,1.375768,2.591568,0.094657,-89.999855,-90,2.286483,0,0.006565,297.868011,277.669403,0.012283,-0.051149,-17.033869,0,0,0,0,0
6.415898,-87.995445,-86.802002,2.933704,1.234527,2.591882,0.09512,-89.999855,-90,2.286513,0,0.002378,297.86676,281.091248,0.012207,-0.043998,-13.367904,-0.019654,0.051831,0,0,1
6.455891,-88.003197,-86.809753,2.777071,0.736785,2.58457,0.095115,-89.999855,-90,2.286495,3.40E-05,-0.012628,297.865875,283.333282,0.012081,-0.039817,-13.449861,-0.017636,0.051838,6.30E-05,0,1
6.524651,-88.012375,-86.818924,2.580184,0.205523,2.546391,0.092879,-89.999855,-90,2.286357,2.28E-04,-0.042975,297.86438,286.597412,0.011866,-0.034367,-19.063007,-0.010526,0.051691,1.07E-04,0,1
6.59964,-88.017204,-86.823753,2.511773,0.089024,2.511773,0.089024,-89.999855,-90,2.286243,7.35E-04,-0.019729,297.86322,288.686401,0.011868,-0.031245,-18.096109,-0.002936,0.050928,1.82E-04,0,1
6.79543,-88.022949,-86.829498,2.492922,0.079292,2.492922,0.079292,-89.999855,-90,2.286304,0.003803,0.042339,297.861145,291.657562,0.012731,-0.027242,-7.6976,-0.001272,0.050235,2.40E-04,0,1
6.991654,-88.025948,-86.832504,2.497823,0.070754,2.497823,0.070754,-89.999855,-90,2.286514,0.008747,0.082266,297.859222,293.513611,0.0145,-0.025031,-10.812355,-0.001133,0.049858,3.43E-04,0,1
7.392907,-88.029457,-86.836014,2.517626,0.056123,2.517626,0.056123,-89.999855,-90,2.28707,0.023099,0.139478,297.854218,296.086029,0.019293,-0.022491,-15.51969,-0.001011,0.049956,4.39E-04,0,1
7.746038,-88.031296,-86.837852,2.534889,0.045612,2.534889,0.045612,-89.999855,-90,2.287619,0.039586,0.173778,297.848328,297.70993,0.024244,-0.021341,-11.972046,-8.02E-04,0.050353,6.90E-04,0,1
8.120758,-88.032623,-86.83918,2.550977,0.03617,2.550977,0.03617,-89.999855,-90,2.288245,0.060553,0.215882,297.840271,299.078522,0.028257,-0.020804,-17.935972,-6.52E-04,0.050698,9.84E-04,0,1
8.120758,-88.032623,-86.83918,2.550977,0.03617,2.550977,0.03617,-89.999855,-90,2.288245,0.060553,0.215882,297.840271,299.078522,0.028257,-0.020804,-17.935972,-6.52E-04,0.050698,9.84E-04,0,1
9.567829,-88.035248,-86.841805,2.595905,0.012064,2.595905,0.012064,-89.999855,-90,2.291049,0.171807,0.338176,297.790863,302.574799,0.027855,-0.022886,-18.223452,-5.17E-04,0.05102,0.001387,0,1
10.086232,-88.035408,-86.841965,2.607151,0.006518,2.607151,0.006518,-89.999855,-90,2.292203,0.22276,0.381219,297.766541,303.399017,0.027405,-0.024708,-18.799124,-1.72E-04,0.051918,0.003857,0,1
10.938666,-88.035194,-86.841743,2.619734,1.48E-04,2.619734,1.48E-04,-89.999855,-90,2.294294,0.319056,0.453202,297.724609,304.417542,0.026887,-0.027761,-18.006092,-9.30E-05,0.052143,0.005073,0,1
11.52824,-88.034752,-86.841309,2.626767,-0.002772,2.626767,-0.002772,-89.999855,-90,2.295896,0.394752,0.504451,297.69339,304.913086,0.026579,-0.030034,-16.300423,-2.00E-06,0.052395,0.00717,0,1
12.43532,-88.033691,-86.840248,2.635501,-0.005497,2.635501,-0.005497,-89.999855,-90,2.298624,0.525777,0.584104,297.644836,305.38562,0.026039,-0.033251,-11.105015,4.00E-05,0.052535,0.008731,0,1
13.050975,-88.03273,-86.839287,2.640594,-0.00644,2.640594,-0.00644,-89.999855,-90,2.300667,0.624801,0.638569,297.611511,305.524475,0.025699,-0.035266,2.532208,7.90E-05,0.05271,0.011159,0,1
13.985186,-88.030907,-86.837456,2.6471,-0.00683,2.6471,-0.00683,-89.999855,-90,2.304074,0.790723,0.72107,297.564117,305.479095,0.025166,-0.037464,15.846052,9.20E-05,0.052812,0.012825,0,1
14.612663,-88.029442,-86.835999,2.651082,-0.006411,2.651082,-0.006411,-89.999855,-90,2.306578,0.912791,0.777008,297.534515,305.287445,0.024927,-0.038429,10.240682,9.80E-05,0.052942,0.015195,0,1
15.55915,-88.026886,-86.833443,2.656595,-0.005109,2.656595,-0.005109,-89.999855,-90,2.310688,1.112768,0.863663,297.496155,304.773682,0.024687,-0.038713,10.152941,9.20E-05,0.053022,0.016675,0,1
16.192266,-88.024948,-86.831505,2.660285,-0.003969,2.660285,-0.003969,-89.999855,-90,2.313667,1.257144,0.920405,297.474426,304.290802,0.024657,-0.038273,19.069607,7.30E-05,0.053132,0.018593,0,1
17.171452,-88.021584,-86.82814,2.66587,-0.002015,2.66587,-0.002015,-89.999855,-90,2.318637,1.496681,1.009572,297.448517,303.347351,0.02482,-0.036469,11.242791,5.70E-05,0.053206,0.019679,0,1
17.807863,-88.019157,-86.825714,2.669618,-5.92E-04,2.669618,-5.92E-04,-89.999855,-90,2.322107,1.662836,1.067553,297.435699,302.619232,0.025133,-0.034828,10.326423,2.90E-05,0.053317,0.020975,0,1
18.737167,-88.015289,-86.821846,2.675008,0.001637,2.675008,0.001637,-89.999855,-90,2.327515,1.919985,1.152499,297.42218,301.415253,0.025688,-0.031898,16.769133,8.00E-06,0.053392,0.021616,0,1
19.37479,-88.012398,-86.818954,2.678821,0.003355,2.678821,0.003355,-89.999855,-90,2.331462,2.106276,1.21162,297.415192,300.505615,0.026075,-0.029775,18.088957,-2.30E-05,0.0535,0.022292,0,1
20.331347,-88.007713,-86.81427,2.684502,0.006186,2.684502,0.006186,-89.999855,-90,2.337746,2.400519,1.298308,297.406464,299.036835,0.026553,-0.026704,16.481293,-4.80E-05,0.053576,0.022641,0,1
20.969105,-88.004349,-86.810905,2.688403,0.008302,2.688403,0.008302,-89.999855,-90,2.342178,2.606326,1.356859,297.400391,298.002289,0.026709,-0.024948,6.187927,-8.80E-05,0.05369,0.023077,0,1
21.92569,-87.998955,-86.805511,2.694204,0.011803,2.694204,0.011803,-89.999855,-90,2.349192,2.929118,1.445556,297.389313,296.391663,0.026581,-0.022938,8.201818,-1.19E-04,0.053768,0.023381,0,1
22.881165,-87.993134,-86.79969,2.700174,0.015708,2.700174,0.015708,-89.999855,-90,2.356643,3.268345,1.531407,297.373993,294.738922,0.02589,-0.021873,12.602818,-1.69E-04,0.053884,0.023935,0,1
23.544369,-87.988838,-86.795395,2.704322,0.018609,2.704322,0.018609,-89.999855,-90,2.362075,3.513319,1.592604,297.360596,293.582764,0.025141,-0.021648,6.827013,-2.05E-04,0.053964,0.02442,0,1
24.181139,-87.984528,-86.791084,2.708453,0.021524,2.708453,0.021524,-89.999855,-90,2.367489,3.75556,1.654471,297.345276,292.476929,0.024157,-0.021844,16.553686,-2.66E-04,0.054086,0.025371,0,1
25.134016,-87.977699,-86.784256,2.714643,0.025997,2.714643,0.025997,-89.999855,-90,2.375975,4.131574,1.739015,297.319153,290.844025,0.022358,-0.022578,12.263724,-3.07E-04,0.054169,0.026137,0,1
25.742229,-87.973114,-86.779671,2.718769,0.028915,2.718769,0.028915,-89.999855,-90,2.381627,4.379555,1.794652,297.300598,289.827545,0.021026,-0.023278,8.828499,-3.71E-04,0.054293,0.027443,0,1
26.719412,-87.965363,-86.771919,2.727929,0.035337,2.727929,0.035337,-89.999855,-90,2.391346,4.790789,2.011338,297.270172,288.254578,0.019326,-0.024298,8.912004,-4.13E-04,0.054375,0.028371,0,1
27.325426,-87.960251,-86.766808,2.735503,0.042294,2.735503,0.042294,-89.999855,-90,2.397982,5.053872,2.158152,297.250824,287.324371,0.017901,-0.024865,7.997086,-5.05E-04,0.054559,0.029892,0,1
28.272486,-87.951698,-86.758255,2.742507,0.047142,2.742507,0.047142,-89.999855,-90,2.409012,5.476777,2.249027,297.222168,285.955811,0.01572,-0.025508,12.764782,-6.04E-04,0.05471,0.030859,0,1
29.243917,-87.942268,-86.748817,2.749189,0.051404,2.749189,0.051404,-89.999855,-90,2.420836,5.925147,2.347806,297.195099,284.675934,0.014282,-0.025719,19.494938,-6.73E-04,0.05485,0.032292,0,1
29.84667,-87.936081,-86.742638,2.753494,0.053912,2.753494,0.053912,-89.999855,-90,2.428443,6.210659,2.409305,297.180176,283.951813,0.013713,-0.02553,12.824535,-7.15E-04,0.05494,0.033226,0,1
30.474667,-87.929398,-86.735947,2.758235,0.056611,2.758235,0.056611,-89.999855,-90,2.436592,6.513991,2.474221,297.165558,283.258575,0.013312,-0.025209,19.072605,-7.70E-04,0.05507,0.034392,0,1
31.388777,-87.919205,-86.725761,2.765125,0.060488,2.765125,0.060488,-89.999855,-90,2.44886,6.965984,2.567541,297.146027,282.367279,0.012965,-0.024517,18.637569,-8.09E-04,0.055165,0.035123,0,1
32.066463,-87.911316,-86.717873,2.770396,0.063555,2.770396,0.063555,-89.999855,-90,2.45827,7.308944,2.637614,297.131836,281.800262,0.012759,-0.024025,18.714176,-8.64E-04,0.055303,0.036099,0,1
32.950844,-87.900589,-86.707146,2.777164,0.06769,2.777164,0.06769,-89.999855,-90,2.470955,7.766395,2.729126,297.112915,281.18399,0.012363,-0.023518,7.911089,-9.08E-04,0.055408,0.036809,0,1
33.910686,-87.888412,-86.694969,2.784675,0.072583,2.784675,0.072583,-89.999855,-90,2.485247,8.275381,2.827403,297.089905,280.67572,0.011554,-0.023427,17.394432,-9.67E-04,0.055543,0.037755,0,1
34.557751,-87.879875,-86.686432,2.794182,0.076034,2.794182,0.076034,-89.999855,-90,2.495409,8.625668,3.03471,297.072113,280.42746,0.010698,-0.02373,19.737581,-0.001037,0.055693,0.038905,0,1
35.460743,-87.867287,-86.673843,2.80397,0.081059,2.80397,0.081059,-89.999855,-90,2.51139,9.124412,3.328437,297.044556,280.206055,0.00899,-0.024501,17.955233,-0.001086,0.055884,0.039795,0,1
36.052856,-87.858566,-86.665123,2.808225,0.084518,2.808225,0.084518,-89.999855,-90,2.522132,9.457304,3.391042,297.024567,280.138367,0.007592,-0.025248,9.33358,-0.001158,0.056079,0.041173,0,1
37.003296,-87.843887,-86.650444,2.81502,0.089972,2.81502,0.089972,-89.999855,-90,2.539843,10.001106,3.496655,296.990631,280.152985,0.005262,-0.026573,17.086391,-0.001207,0.056164,0.042172,0,1
37.618309,-87.833969,-86.640518,2.81983,0.093565,2.81983,0.093565,-89.999855,-90,2.551628,10.35914,3.567231,296.967346,280.239746,0.003623,-0.027528,14.13408,-0.001285,0.0563,0.043869,0,1
38.564304,-87.818085,-86.624634,2.827273,0.098792,2.827273,0.098792,-89.999855,-90,2.570257,10.918992,3.677935,296.931824,280.483826,0.001315,-0.028754,16.1378,-0.001337,0.056397,0.045033,0,1
39.175873,-87.807411,-86.61396,2.83229,0.102162,2.83229,0.102162,-89.999855,-90,2.582641,11.287093,3.747205,296.908936,280.708191,-4.60E-05,-0.029426,16.682985,-0.001411,0.056545,0.046809,0,1
39.760944,-87.796928,-86.603485,2.836865,0.105134,2.836865,0.105134,-89.999855,-90,2.59472,11.643402,3.798722,296.888092,280.96756,-0.001152,-0.029833,15.269459,-0.001459,0.056646,0.047954,0,1
40.699047,-87.779549,-86.586098,2.856092,0.113056,2.856092,0.113056,-89.999855,-90,2.615293,12.223642,4.276845,296.857147,281.46637,-0.002204,-0.029931,9.201512,-0.001502,0.056737,0.048996,0,1
41.58247,-87.762169,-86.568726,2.861475,0.11877,2.861475,0.11877,-89.999855,-90,2.636644,12.78022,4.445766,296.829376,282.017731,-0.00315,-0.029846,17.126083,-0.001615,0.057122,0.050543,0,1
42.211918,-87.749184,-86.55574,2.864552,0.12193,2.864552,0.12193,-89.999855,-90,2.652229,13.182186,4.524247,296.810211,282.450867,-0.003526,-0.029705,17.614998,-0.001697,0.05723,0.051932,0,1
42.814735,-87.736313,-86.54287,2.868433,0.124839,2.868433,0.124839,-89.999855,-90,2.667454,13.571419,4.602494,296.792389,282.892059,-0.00374,-0.029494,16.102463,-0.001742,0.057291,0.05289,0,1
43.691654,-87.716888,-86.523438,2.8751,0.129331,2.8751,0.129331,-89.999855,-90,2.690125,14.144725,4.722745,296.766876,283.570221,-0.003981,-0.029152,17.882904,-0.001783,0.057369,0.053781,0,1
44.315311,-87.70256,-86.509117,2.880201,0.132784,2.880201,0.132784,-89.999855,-90,2.706658,14.558212,4.797977,296.74765,284.072937,-0.004232,-0.029104,20.817087,-0.001848,0.057502,0.055057,0,1
45.18681,-87.681778,-86.488335,2.893825,0.138227,2.893825,0.138227,-89.999855,-90,2.731744,15.142465,5.39481,296.718964,284.791351,-0.004904,-0.029306,18.85384,-0.001897,0.057604,0.056018,0,1
46.081322,-87.659195,-86.465752,2.901981,0.14453,2.901981,0.14453,-89.999855,-90,2.759104,15.749717,5.536599,296.685608,285.535126,-0.00619,-0.030085,13.931206,-0.001975,0.057877,0.057452,0,1
46.677429,-87.643486,-86.450043,2.906426,0.148177,2.906426,0.148177,-89.999855,-90,2.777697,16.15799,5.614745,296.66098,286.026703,-0.007426,-0.030926,14.484195,-0.002065,0.05804,0.05912,0,1
47.57061,-87.619087,-86.425644,2.913153,0.15345,2.913153,0.15345,-89.999855,-90,2.806103,16.775396,5.739954,296.622406,286.747803,-0.009627,-0.032283,15.328747,-0.002117,0.058129,0.060352,0,1
48.165569,-87.602303,-86.408859,2.917993,0.157018,2.917993,0.157018,-89.999855,-90,2.825395,17.190239,5.825402,296.59552,287.212372,-0.011239,-0.033266,15.844365,-0.002192,0.058263,0.06228,0,1
49.057186,-87.576424,-86.38298,2.925134,0.161917,2.925134,0.161917,-89.999855,-90,2.854864,17.817211,5.953525,296.555756,287.876404,-0.013495,-0.034463,20.230824,-0.002243,0.05836,0.063625,0,1
49.650417,-87.558647,-86.365204,2.937847,0.173793,2.937847,0.173793,-89.999855,-90,2.876152,18.238241,6.808344,296.529907,288.292816,-0.014313,-0.034845,15.044615,-0.002313,0.058503,0.065613,0,1
50.538368,-87.530624,-86.337181,2.947913,0.179848,2.947913,0.179848,-89.999855,-90,2.910788,18.874195,6.984131,296.492981,288.871033,-0.016211,-0.035354,18.907661,-0.002483,0.058757,0.066905,0,1
51.129925,-87.511063,-86.317619,2.952114,0.182765,2.952114,0.182765,-89.999855,-90,2.93423,19.301023,7.072661,296.469513,289.222168,-0.016985,-0.035495,20.24877,-0.002569,0.058958,0.068751,0,1
52.01638,-87.480606,-86.287163,2.958398,0.18661,2.958398,0.18661,-89.999855,-90,2.969964,19.94541,7.213378,296.437012,289.692688,-0.017385,-0.035261,15.946774,-0.002611,0.059042,0.069925,0,1
52.606636,-87.459618,-86.266174,2.963048,0.189171,2.963048,0.189171,-89.999855,-90,2.994181,20.377689,7.308306,296.416168,289.966675,-0.017283,-0.035012,16.443989,-0.002666,0.059168,0.07155,0,1
53.491081,-87.427216,-86.233772,2.96992,0.192717,2.96992,0.192717,-89.999855,-90,3.031106,21.030003,7.451904,296.385834,290.315369,-0.016656,-0.034541,17.112867,-0.002702,0.059261,0.072592,0,1
54.080067,-87.405045,-86.211601,2.974629,0.195172,2.974629,0.195172,-89.999855,-90,3.056124,21.467398,7.548138,296.36499,290.505219,-0.016124,-0.034377,17.525871,-0.002753,0.059398,0.074109,0,1
54.96257,-87.37101,-86.177567,2.981337,0.198691,2.981337,0.198691,-89.999855,-90,3.09425,22.127146,7.692004,296.332458,290.725189,-0.015322,-0.034361,18.103525,-0.002788,0.059493,0.075151,0,1
55.550282,-87.347824,-86.154381,2.985905,0.201157,2.985905,0.201157,-89.999855,-90,3.120067,22.569342,7.78787,296.308899,290.828552,-0.014952,-0.034654,18.467823,-0.002838,0.059627,0.076778,0,1
56.430893,-87.312347,-86.118904,2.992504,0.204644,2.992504,0.204644,-89.999855,-90,3.159385,23.236053,7.930128,296.271454,290.919525,-0.014668,-0.035368,20.462738,-0.002874,0.059718,0.077956,0,1
57.017292,-87.288254,-86.09481,2.996796,0.207263,2.996796,0.207263,-89.999855,-90,3.185949,23.682739,7.964361,296.244598,290.938293,-0.014607,-0.036077,14.891579,-0.002923,0.05985,0.079828,0,1
57.922401,-87.250549,-86.057106,3.002617,0.21147,3.002617,0.21147,-89.999855,-90,3.227082,24.374722,8.072654,296.202209,290.904022,-0.014812,-0.037178,20.719793,-0.002961,0.059936,0.081171,0,1
58.481049,-87.226715,-86.033272,3.006919,0.213471,3.006919,0.213471,-89.999855,-90,3.253016,24.80685,8.159609,296.175232,290.845703,-0.014965,-0.037897,17.340322,-0.003021,0.060052,0.08329,0,1
59.357224,-87.188866,-85.995422,3.015895,0.214845,3.015895,0.214845,-89.999855,-90,3.294514,25.486162,8.609495,296.134521,290.700867,-0.014939,-0.038671,22.31147,-0.00305,0.060138,0.084639,0,1
59.939995,-87.163086,-85.969643,3.022527,0.215707,3.022527,0.215707,-89.999855,-90,3.323872,25.940956,8.849461,296.108276,290.570343,-0.014482,-0.038984,14.797138,-0.003069,0.060318,0.086674,0,1
60.812214,-87.123337,-85.929886,3.036118,0.216671,3.036118,0.216671,-89.999855,-90,3.370371,26.62591,9.872062,296.071747,290.328094,-0.012976,-0.038944,19.777964,-0.003082,0.060451,0.087987,0,1
61.392239,-87.095741,-85.902298,3.04152,0.217813,3.04152,0.217813,-89.999855,-90,3.403445,27.084318,9.960626,296.048676,290.138428,-0.011451,-0.038726,18.236217,-0.003095,0.060722,0.089813,0,1
62.26141,-87.05278,-85.859337,3.046575,0.218725,3.046575,0.218725,-89.999855,-90,3.453629,27.774483,10.104894,296.016205,289.816986,-0.008291,-0.038111,22.784025,-0.003112,0.06083,0.090967,0,1
62.84016,-87.023224,-85.829781,3.050361,0.219164,3.050361,0.219164,-89.999855,-90,3.487506,28.236238,10.210172,295.995026,289.581329,-0.005746,-0.037699,19.301701,-0.003125,0.060932,0.09259,0,1
63.707237,-86.977699,-85.784256,3.057082,0.219693,3.057082,0.219693,-89.999855,-90,3.539145,28.93125,10.711775,295.963745,289.201508,-0.001081,-0.037057,19.132944,-0.003131,0.061007,0.093649,0,1
64.283936,-86.946472,-85.753029,3.065434,0.224397,3.065434,0.224397,-89.999855,-90,3.575581,29.396114,11.043989,295.942383,288.934113,0.001924,-0.036699,19.603365,-0.003138,0.061142,0.095213,0,1
65.152573,-86.898109,-85.704659,3.070334,0.239143,3.070334,0.239143,-89.999855,-90,3.631216,30.095629,11.196966,295.819946,288.517395,2.33E-04,-0.052936,20.326099,-0.003206,0.061309,0,0,1
65.741844,-86.864967,-85.671516,3.070057,0.242131,3.070057,0.242131,-89.999855,-90,3.668717,30.563452,11.292129,295.510712,288.231567,-0.013282,-0.099154,20.745489,-0.003416,0.061407,0.006122,0,1
66.637321,-86.814087,-85.620636,3.066544,0.224082,3.066544,0.224082,-89.999855,-90,3.72559,31.267437,11.451134,294.782928,287.790924,-0.059142,-0.200622,21.301579,-0.003459,0.061401,0.021584,0,1
67.237846,-86.779427,-85.585983,3.07136,0.203755,3.07136,0.203755,-89.999855,-90,3.765144,31.738314,12.761132,294.209656,287.487701,-0.104861,-0.273174,21.699881,-0.003201,0.061331,0.057973,0,1
68.139198,-86.725464,-85.532021,3.075763,0.160112,3.075763,0.160112,-89.999855,-90,3.829709,32.447044,13.00974,293.440125,287.014923,-0.175607,-0.353117,22.749336,-0.002911,0.061427,0.086636,0,1
68.739258,-86.688095,-85.494652,3.078997,0.132789,3.078997,0.132789,-89.999855,-90,3.873356,32.921185,13.186532,293.43512,286.686584,-0.214733,-0.37517,23.432844,-0.002287,0.061515,0.125113,0,1
69.636391,-86.630051,-85.436607,3.073112,0.065297,3.073112,0.065297,-89.999855,-90,3.94242,33.634712,14.479849,293.425781,286.175568,-0.249681,-0.348608,23.442772,-0.001897,0.06158,0.125363,0,1
70.237854,-86.58963,-85.396187,3.039351,-0.023825,3.039351,-0.023825,-89.999855,-90,3.991899,34.111923,15.075844,293.420441,285.826172,-0.252146,-0.298588,19.443056,-9.33E-04,0.061462,0.12583,0,1
71.131393,-86.526253,-85.332802,2.976474,-0.169416,2.976474,-0.169416,-89.999855,-90,4.06736,34.830044,14.948091,293.414429,285.300323,-0.223803,-0.190936,16.649567,3.40E-04,0.060787,0.126097,0,1
71.711433,-86.482574,-85.289131,2.953456,-0.232862,2.953456,-0.232862,-89.999855,-90,4.116636,35.310169,14.590688,293.412079,284.95694,-0.186066,-0.107639,24.433226,0.00242,0.059529,0.126398,0,1
72.552635,-86.415863,-85.22242,2.957021,-0.247263,2.957021,-0.247263,-89.999855,-90,4.189775,36.032051,15.451368,293.411194,284.467468,-0.110571,0.016044,16.410156,0.003327,0.059069,0.126515,0,1
73.097275,-86.370232,-85.176788,2.933967,-0.161429,2.933967,-0.161429,-89.999855,-90,4.245051,36.514164,17.538979,293.412231,284.166321,-0.056058,0.089182,17.075201,0.003532,0.05914,0.126559,0,1
73.904518,-86.298042,-85.104599,2.797901,0.172853,2.797901,0.172853,-89.999855,-90,4.335391,37.23822,17.930714,293.415894,283.764954,0.021377,0.173084,18.526289,0.002306,0.058679,0.126508,0,1
74.442368,-86.247681,-85.054237,2.711973,0.502773,2.711973,0.502773,-89.999855,-90,4.393551,37.721367,16.942581,293.41922,283.537109,0.066052,0.206468,21.687887,-0.002469,0.055958,0.126324,0,1
75.256378,-86.17054,-84.977097,2.660007,1.031252,2.660007,1.031252,-89.999855,-90,4.479014,38.4491,18.413124,293.4245,283.261017,0.116466,0.218986,21.190119,-0.007182,0.054239,0.126158,0,1
75.804092,-86.117279,-84.923836,2.670845,1.340484,2.670845,1.340484,-79.999855,-80,4.549406,38.935013,24.244791,293.427429,283.121246,0.138526,0.205232,22.236212,-0.014732,0.0532,0.125894,0,1
76.623199,-86.026894,-84.83345,2.756518,1.61539,2.756518,1.61539,-79.999855,-80,4.709213,39.664227,40.694107,293.430023,282.97464,0.155204,0.162287,20.678337,-0.01915,0.053417,0.125748,0,1
77.161247,-85.951851,-84.758408,2.843854,1.658635,2.843854,1.658635,-79.999855,-80,4.870692,40.150505,56.0751,293.43045,282.915466,0.157239,0.127533,25.39167,-0.023077,0.05513,0.125618,0,1
77.948578,-85.800621,-84.607178,2.98266,1.522347,2.98266,1.522347,-79.999855,-80,5.2188,40.879894,82.866661,293.429291,282.877533,0.151357,0.079896,36.154366,-0.023695,0.056877,0.125597,0,1
78.456932,-85.664444,-84.471001,3.085808,1.337792,3.085808,1.337792,-79.999855,-80,5.527806,41.365959,101.949471,293.427704,282.882355,0.144685,0.057508,45.562859,-0.021748,0.059653,0.125655,0,1
79.189713,-85.392181,-84.198738,3.237,1.017893,3.237,1.017893,-79.999855,-80,6.11308,42.094326,131.318924,293.424896,282.929047,0.135089,0.043478,62.506863,-0.019111,0.061716,0.125734,0,1
79.655251,-85.158348,-83.964905,3.348241,0.821,3.348241,0.821,-79.999855,-80,6.584734,42.579071,150.964233,293.423187,282.983826,0.131126,0.046932,75.308311,-0.014541,0.06474,0.125874,0,1
80.317284,-84.719543,-83.5261,3.503778,0.63168,3.503778,0.63168,-79.999855,-80,7.414764,43.304237,179.935318,293.421417,283.097412,0.130528,0.066903,96.257118,-0.011729,0.066965,0.12596,0,1
80.734093,-84.364243,-83.170799,3.607908,0.58799,3.607908,0.58799,-79.999855,-80,8.047047,43.785931,198.884247,293.420929,283.192047,0.133689,0.085563,111.047897,-0.009024,0.070076,0.126048,0,1
81.32666,-83.73204,-82.538597,3.742826,0.650672,3.742826,0.650672,-79.999855,-80,9.116154,44.505077,227.790848,293.421173,283.358582,0.14236,0.113904,134.193512,-0.0084,0.072158,0.126073,0,1
81.676071,-83.241966,-82.048515,3.835841,0.75766,3.835841,0.75766,-79.999855,-80,9.908051,44.981827,246.607437,293.421844,283.483673,0.149314,0.129244,150.134232,-0.009295,0.074857,0.126061,0,1
82.142799,-82.401268,-81.207825,3.959546,0.958514,3.959546,0.958514,-79.999855,-80,11.211927,45.692299,273.817444,293.423035,283.687622,0.15873,0.14336,174.528595,-0.010824,0.076717,0.126027,0,1
82.440651,-81.769806,-80.576363,4.040121,1.093066,4.040121,1.093066,-79.999855,-80,12.154188,46.162563,290.767944,293.423737,283.831482,0.163432,0.146936,190.921448,-0.013693,0.079191,0.125967,0,1
82.870659,-80.716995,-79.523552,4.139587,1.249052,4.139587,1.249052,-79.999855,-80,13.669052,46.862434,314.083801,293.424377,284.05365,0.167651,0.145584,215.349075,-0.015615,0.080802,0.125932,0,1
83.147873,-79.946159,-78.752716,4.205638,1.318015,4.205638,1.318015,-79.999855,-80,14.743352,47.32513,330.117889,293.424469,284.203064,0.168464,0.142541,231.352905,-0.017844,0.082792,0.1259,0,1
83.547928,-78.687828,-77.494385,4.311716,1.361677,4.311716,1.361677,-79.999855,-80,16.460197,48.01302,356.239594,293.424133,284.4245,0.167569,0.138147,255.110931,-0.018829,0.084113,0.125896,0,1
83.801178,-77.780373,-76.586929,4.402461,1.363146,4.402461,1.363146,-79.999855,-80,17.6798,48.467308,374.734283,293.423706,284.56778,0.166364,0.137047,271.002533,-0.019453,0.086234,0.125913,0,1
84.160851,-76.315346,-75.121902,4.530182,1.34705,4.530182,1.34705,-79.999855,-80,19.616478,49.141949,398.267029,293.423004,284.772186,0.165264,0.139346,294.951569,-0.019474,0.088049,0.125934,0,1
84.388054,-75.27005,-74.076599,4.596902,1.3391,4.596902,1.3391,-69.999855,-70,20.966009,49.587025,410.552368,293.422577,284.899536,0.165504,0.143591,310.870789,-0.019244,0.090604,0.125969,0,1
84.719688,-73.606346,-72.412903,4.646575,1.349264,4.646575,1.349264,-69.999855,-70,23.06086,50.247395,426.600555,293.422119,285.075226,0.167384,0.152994,333.715363,-0.01913,0.091938,0.12599,0,1
84.934311,-72.437134,-71.24369,4.67832,1.374402,4.67832,1.374402,-69.999855,-70,24.499691,50.68272,436.270264,293.421967,285.181824,0.169556,0.160308,348.153351,-0.019275,0.092932,0.126013,0,1
85.245834,-70.600777,-69.407333,4.741188,1.436264,4.741188,1.436264,-69.999855,-70,26.718702,51.32819,451.095978,293.422058,285.325653,0.173615,0.170697,368.458038,-0.019634,0.093566,0.126021,0,1
85.446129,-69.326004,-68.132561,4.793338,1.489016,4.793338,1.489016,-69.999855,-70,28.240656,51.753391,461.795197,293.422241,285.410645,0.176382,0.176283,381.045654,-0.020518,0.094824,0.126016,0,1
85.736732,-67.336624,-66.143181,4.863924,1.568558,4.863924,1.568558,-69.999855,-70,30.593304,52.383358,478.888641,293.422546,285.52124,0.180076,0.181758,399.519775,-0.021272,0.095867,0.126007,0,1
85.924202,-65.96138,-64.767937,4.91221,1.617426,4.91221,1.617426,-69.999855,-70,32.209644,52.798046,490.50885,293.422729,285.583557,0.18198,0.183695,411.431244,-0.022408,0.097278,0.125992,0,1
86.196815,-63.82626,-62.632816,4.980243,1.672827,4.980243,1.672827,-59.999859,-60,34.706924,53.412067,507.813477,293.422852,285.659668,0.183912,0.184697,428.907715,-0.023106,0.098244,0.125983,0,1
86.373077,-62.354343,-61.1609,5.029479,1.69891,5.029479,1.69891,-59.999859,-60,36.419285,53.816055,519.193176,293.422852,285.698914,0.184632,0.184829,440.460938,-0.023898,0.099605,0.125977,0,1
86.629372,-60.075054,-58.881607,5.097796,1.721158,5.097796,1.721158,-59.999859,-60,39.059631,54.413967,536.430237,293.422729,285.740875,0.185139,0.185101,457.583923,-0.02427,0.10059,0.125977,0,1
86.794357,-58.508171,-57.314724,5.147219,1.729404,5.147219,1.729404,-59.999859,-60,40.867558,54.807175,547.901428,293.422577,285.757965,0.185329,0.185825,468.89978,-0.024588,0.101956,0.125983,0,1
87.032928,-56.087719,-54.894276,5.216277,1.737722,5.216277,1.737722,-59.999859,-60,43.65107,55.388863,564.930542,293.422394,285.768188,0.185745,0.187908,485.716187,-0.024706,0.102944,0.12599,0,1
87.186035,-54.426792,-53.233349,5.265112,1.74464,5.265112,1.74464,-49.999859,-50,45.553753,55.771221,576.298706,293.422272,285.765472,0.186212,0.189932,496.920166,-0.024825,0.104326,0.125999,0,1
87.406914,-51.865498,-50.672054,5.332972,1.760204,5.332972,1.760204,-49.999859,-50,48.479584,56.336563,593.506165,293.42218,285.748413,0.187262,0.193434,513.623718,-0.024923,0.105302,0.126006,0,1
87.548126,-50.111431,-48.917984,5.382339,1.775099,5.382339,1.775099,-49.999859,-50,50.477749,56.707977,604.991394,293.42218,285.72937,0.188148,0.195819,524.714661,-0.025146,0.106659,0.12601,0,1
87.751404,-47.410587,-46.21714,5.451326,1.801816,5.451326,1.801816,-49.999859,-50,53.547256,57.256847,622.26178,293.422211,285.690826,0.189619,0.198917,541.311951,-0.025359,0.107647,0.12601,0,1
87.881241,-45.563545,-44.370102,5.50035,1.821722,5.50035,1.821722,-49.999859,-50,55.641201,57.617245,633.688049,293.422272,285.659454,0.190577,0.20056,552.360229,-0.02574,0.109027,0.126009,0,1
88.068214,-42.723412,-41.529968,5.566935,1.84992,5.566935,1.84992,-39.999859,-40,58.853455,58.149555,650.620239,293.422333,285.60553,0.191866,0.20224,568.906982,-0.026025,0.110007,0.126006,0,1
88.187767,-40.783794,-39.590351,5.613821,1.867262,5.613821,1.867262,-39.999859,-40,61.04129,58.498905,661.661926,293.422363,285.565979,0.192572,0.202997,579.910034,-0.026427,0.111339,0.126003,0,1
88.359413,-37.806927,-36.613483,5.677414,1.888144,5.677414,1.888144,-39.999859,-40,64.39164,59.014648,677.886841,293.422363,285.502869,0.193416,0.203741,596.240723,-0.026675,0.112276,0.126001,0,1
88.470093,-35.775948,-34.5825,5.722115,1.899687,5.722115,1.899687,-39.999859,-40,66.669479,59.35297,688.413391,293.422333,285.45932,0.193864,0.20421,607.172607,-0.026973,0.113548,0.126001,0,1
88.62883,-32.662575,-31.469131,5.782411,1.913125,5.782411,1.913125,-29.999857,-30,70.151505,59.852207,703.82666,293.422302,285.393402,0.194462,0.20499,623.383057,-0.027138,0.114442,0.126003,0,1
88.730156,-30.543743,-29.350298,5.824634,1.920945,5.824634,1.920945,-29.999857,-30,72.514854,60.179554,713.793945,293.422241,285.350067,0.194864,0.205684,634.001465,-0.02733,0.115648,0.126004,0,1
88.87606,-27.300461,-26.107018,5.881366,1.931385,5.881366,1.931385,-29.999857,-30,76.12159,60.662388,728.352417,293.422211,285.287628,0.195559,0.206899,649.75592,-0.027442,0.116493,0.126007,0,1
88.96933,-25.095512,-23.902067,5.921005,1.938934,5.921005,1.938934,-19.999857,-20,78.565697,60.978844,737.747437,293.42218,285.248688,0.196096,0.20783,660.142517,-0.027591,0.117627,0.126009,0,1
89.103607,-21.72641,-20.532967,5.974071,1.950945,5.974071,1.950945,-19.999857,-20,82.289978,61.445415,751.443787,293.42215,285.195892,0.197005,0.209191,675.418579,-0.027699,0.11842,0.12601,0,1
89.189445,-19.440149,-18.246706,6.011045,1.959961,6.011045,1.959961,-19.999857,-20,84.810066,61.751087,760.261169,293.42215,285.165222,0.197647,0.210046,685.395508,-0.027871,0.119481,0.126012,0,1
89.313339,-15.952157,-14.758713,6.060845,1.973309,6.060845,1.973309,-19.999857,-20,88.64447,62.201576,772.998779,293.42218,285.127472,0.198627,0.21108,700.037781,-0.027999,0.120221,0.126012,0,1
89.392601,-13.588797,-12.395352,6.095846,1.982272,6.095846,1.982272,-9.999858,-10,91.235298,62.496593,781.175415,293.42218,285.108429,0.199249,0.211633,709.574585,-0.02819,0.121217,0.12601,0,1
89.506912,-9.988539,-8.795094,6.142198,1.993878,6.142198,1.993878,-9.999858,-10,95.172043,62.931221,793.058655,293.422211,285.090179,0.200113,0.2122,723.529053,-0.028318,0.121917,0.12601,0,1
89.580124,-7.552608,-6.359164,6.174105,2.000858,6.174105,2.000858,-9.999858,-10,97.828758,63.215748,800.667969,293.422211,285.085388,0.200634,0.212498,732.593506,-0.028484,0.122844,0.126009,0,1
89.685707,-3.846915,-2.653471,6.216071,2.00928,6.216071,2.00928,1.42E-04,0,101.860794,63.634769,811.714233,293.422211,285.090027,0.20135,0.212839,745.825134,-0.028584,0.123482,0.126009,0,1
89.753426,-1.342974,-0.14953,6.245066,2.014336,6.245066,2.014336,1.42E-04,0,104.578758,63.908993,818.782898,293.42218,285.10141,0.201796,0.213085,754.401001,-0.028704,0.124321,0.126009,0,1
89.851242,2.641049,3.834493,6.283787,2.020954,6.283787,2.020954,1.42E-04,0,108.699272,64.312706,829.021362,293.42218,285.131348,0.202446,0.213459,766.894226,-0.028776,0.124901,0.12601,0,1
89.913933,5.334734,6.528178,6.310851,2.025457,6.310851,2.025457,10.000142,10,111.47406,64.576828,835.590393,293.42218,285.160095,0.202872,0.213754,774.976135,-0.028871,0.125676,0.12601,0,1
90.004311,9.422594,10.616038,6.346613,2.03208,6.346613,2.03208,10.000142,10,115.676895,64.965546,845.177979,293.42215,285.216644,0.203509,0.214183,786.731934,-0.028935,0.126217,0.12601,0,1
90.062279,12.178391,13.371837,6.371255,2.036849,6.371255,2.036849,10.000142,10,118.504822,65.21978,851.328552,293.42215,285.263275,0.20393,0.214481,794.32959,-0.02903,0.126932,0.126012,0,1
90.146019,16.356241,17.549686,6.404139,2.043874,6.404139,2.043874,20.000143,20,122.784599,65.593842,860.23114,293.42215,285.346588,0.204559,0.214865,805.374695,-0.029098,0.127425,0.126012,0,1
90.19976,19.16995,20.363396,6.42721,2.048748,6.42721,2.048748,20.000143,20,125.661926,65.838417,865.939819,293.42215,285.410919,0.204962,0.2151,812.507874,-0.029198,0.128083,0.126012,0,1
90.277405,23.431618,24.625061,6.458034,2.055478,6.458034,2.055478,20.000143,20,130.013153,66.198166,874.225281,293.42215,285.520203,0.205542,0.215363,822.869446,-0.029268,0.128544,0.126012,0,1
90.327225,26.299227,27.492672,6.479488,2.059868,6.479488,2.059868,30.000143,30,132.936447,66.433319,879.538025,293.42215,285.601288,0.205904,0.215517,829.556641,-0.029364,0.129161,0.126012,0,1
90.399216,30.638876,31.832319,6.507966,2.065644,6.507966,2.065644,30.000143,30,137.354126,66.779121,887.231812,293.42215,285.734711,0.20642,0.215686,839.264465,-0.029427,0.12959,0.126012,0,1
90.445396,33.55661,34.750053,6.52777,2.069341,6.52777,2.069341,30.000143,30,140.320114,67.005089,892.161194,293.42215,285.831085,0.206743,0.215801,845.525879,-0.029509,0.130159,0.126012,0,1
90.511971,37.967846,39.161289,6.554044,2.07426,6.554044,2.07426,40.000141,40,144.799469,67.337311,899.300232,293.42215,285.986084,0.20721,0.215948,854.558594,-0.029562,0.130555,0.126012,0,1
90.554863,40.932289,42.125736,6.572347,2.077521,6.572347,2.077521,40.000141,40,147.805054,67.554359,903.870972,293.42215,286.095856,0.207509,0.216062,860.436218,-0.029632,0.131081,0.126012,0,1
90.616798,45.411861,46.605305,6.596696,2.08207,6.596696,2.08207,50.000141,50,152.341629,67.873375,910.492554,293.42215,286.269287,0.207949,0.216217,868.946533,-0.029679,0.131447,0.126012,0,1
90.656532,48.419426,49.612869,6.613659,2.085197,6.613659,2.085197,50.000141,50,155.383957,68.081749,914.734924,293.42215,286.390198,0.208234,0.216332,874.423706,-0.029744,0.131934,0.126012,0,1
90.713951,52.9613,54.154743,6.636177,2.089633,6.636177,2.089633,50.000141,50,159.973602,68.387939,920.881348,293.42215,286.578522,0.208654,0.216476,882.356079,-0.029789,0.132273,0.126012,0,1
90.750809,56.008865,57.202309,6.651852,2.09267,6.651852,2.09267,60.000141,60,163.050034,68.587891,924.817993,293.42215,286.70813,0.208923,0.216573,887.461731,-0.029852,0.132724,0.126012,0,1
90.80407,60.608513,61.801956,6.672659,2.096895,6.672659,2.096895,60.000141,60,167.688934,68.881653,930.520142,293.42215,286.907654,0.209315,0.216683,894.855835,-0.029895,0.133037,0.126012,0,1
90.838264,63.693157,64.886604,6.687149,2.099719,6.687149,2.099719,60.000141,60,170.797012,69.073441,934.172363,293.42215,287.043457,0.209565,0.216755,899.614441,-0.029956,0.133453,0.126012,0,1
90.887695,68.346352,69.539795,6.70638,2.103556,6.70638,2.103556,70.000145,70,175.481628,69.355148,939.463379,293.42215,287.250397,0.209924,0.216832,906.504822,-0.029996,0.133743,0.126012,0,1
90.919426,71.465347,72.658791,6.719773,2.106087,6.719773,2.106087,70.000145,70,178.619049,69.539032,942.852783,293.42215,287.389923,0.210152,0.216886,910.938416,-0.030051,0.134128,0.126012,0,1
90.965286,76.168137,77.361588,6.737551,2.109518,6.737551,2.109518,80.000145,80,183.346069,69.809067,947.763245,293.42215,287.600708,0.210481,0.216946,917.356995,-0.030087,0.134395,0.126012,0,1
90.994736,79.318962,80.512405,6.749937,2.111799,6.749937,2.111799,80.000145,80,186.510742,69.985298,950.909485,293.42215,287.741669,0.210691,0.216993,921.486328,-0.030136,0.134751,0.126012,0,1
91.037292,84.067688,85.261131,6.766377,2.114937,6.766377,2.114937,80.000145,80,191.27713,70.244057,955.46936,293.42215,287.952942,0.210997,0.217048,927.46344,-0.030169,0.134999,0.126012,0,1
91.064644,87.247971,88.441414,6.777833,2.117054,6.777833,2.117054,90.000145,90,194.467102,70.412888,958.39209,293.42215,288.093231,0.211193,0.217091,931.308228,-0.030213,0.135328,0.126012,0,1
91.104156,92.039238,93.232681,6.793039,2.119998,6.793039,2.119998,90.000145,90,199.270065,70.660728,962.62854,293.42215,288.302155,0.211479,0.21714,936.872925,-0.030244,0.135557,0.126012,0,1
91.129509,95.246819,96.440262,6.80364,2.121991,6.80364,2.121991,90.000145,90,202.483536,70.822418,965.34436,293.42215,288.440033,0.211663,0.217176,940.452148,-0.030286,0.135861,0.126012,0,1
91.166153,100.077477,101.27092,6.817712,2.124752,6.817712,2.124752,100.000145,100,207.320496,71.059723,969.281921,293.42215,288.644226,0.211929,0.217213,945.632263,-0.030314,0.136073,0.126012,0,1
91.189674,103.310333,104.503777,6.827521,2.126606,6.827521,2.126606,100.000145,100,210.555817,71.214508,971.806335,293.477112,288.778259,0.212099,0.217241,948.96405,-0.030354,0.136354,0.126012,0,1
91.223885,108.177483,109.370926,6.840587,2.129848,6.840587,2.129848,110.000145,110,215.424347,71.44165,975.461731,293.66806,288.975861,0.212897,0.21672,953.785889,-0.03038,0.13655,0.123264,0,1
91.246635,111.433746,112.62719,6.849656,2.131728,6.849656,2.131728,110.000145,110,218.679932,71.58979,977.786255,293.786072,289.105042,0.214283,0.214779,956.887024,-0.030426,0.136812,0.113716,0,1
91.284035,116.334648,117.528091,6.861121,2.125624,6.861121,2.125624,120.000145,120,223.577423,71.80719,981.036804,293.913177,289.294525,0.2159,0.203869,961.372375,-0.030453,0.136993,0.107816,0,1
91.312477,119.61245,120.805893,6.867766,2.096956,6.867766,2.096956,120.000145,120,226.850861,71.94902,982.912476,293.961761,289.417419,0.214628,0.191226,964.250427,-0.030366,0.137222,0.10146,0,1
91.361481,124.543861,125.737305,6.87439,1.997901,6.87439,1.997901,120.000145,120,231.771515,72.15731,985.153931,293.991699,289.59552,0.208358,0.166633,968.382385,-0.029957,0.137355,0.099031,0,1
91.39785,127.840469,129.03392,6.878091,1.88939,6.878091,1.88939,130.000137,130,235.057373,72.293343,986.281616,294.002441,289.709442,0.201297,0.15,970.995361,-0.028541,0.137488,0.097534,0,1
91.455864,132.797287,133.990723,6.883208,1.694338,6.883208,1.694338,130.000137,130,239.992554,72.49334,987.721558,294.038116,289.872406,0.188641,0.130595,974.667297,-0.026991,0.137562,0.096997,0,1
91.495338,136.108871,137.302307,6.887803,1.556766,6.887803,1.556766,140.000137,140,243.286652,72.624054,988.722656,294.087433,289.975739,0.180502,0.123141,976.938293,-0.024205,0.137664,0.095213,0,1
91.55352,141.085724,142.27916,6.896695,1.382957,6.896695,1.382957,140.000137,140,248.234848,72.816307,990.583496,294.197174,290.12326,0.171057,0.119516,980.087097,-0.02224,0.137756,0.092748,0,1
91.590904,144.409637,145.603073,6.904502,1.29353,6.904502,1.29353,140.000137,140,251.539444,72.941948,992.157837,294.28363,290.217041,0.167196,0.119946,982.037659,-0.019757,0.137934,0.08726,0,1
91.645607,149.404587,150.598038,6.916174,1.213183,6.916174,1.213183,150.000137,150,256.507233,73.126678,994.943787,294.397858,290.351685,0.164203,0.118978,984.803711,-0.018479,0.13809,0.082938,0,1
91.682167,152.740906,153.934341,6.923913,1.176694,6.923913,1.176694,150.000137,150,259.827179,73.247353,996.954956,294.450592,290.4375,0.162518,0.115002,986.582275,-0.017331,0.138323,0.077226,0,1
91.739296,157.755463,158.948914,6.932428,1.122676,6.932428,1.122676,160.000137,160,264.819672,73.424759,999.908325,294.48175,290.56012,0.158514,0.102178,989.210144,-0.01681,0.138478,0.07459,0,1
91.779526,161.105469,162.29892,6.93729,1.066898,6.93729,1.066898,160.000137,160,268.155853,73.540688,1001.709839,294.478271,290.637329,0.153705,0.090498,990.955078,-0.016038,0.138649,0.073032,0,1
91.842842,166.141022,167.334457,6.943284,0.945992,6.943284,0.945992,170.000137,170,273.170868,73.711205,1004.181213,294.463379,290.745636,0.14377,0.072942,993.56897,-0.015241,0.138746,0.073206,0,1
91.886192,169.504974,170.69841,6.948192,0.843543,6.948192,0.843543,170.000137,170,276.520874,73.822708,1005.766235,294.463989,290.812561,0.136315,0.063965,995.30426,-0.013514,0.138866,0.07395,0,1
91.950768,174.561096,175.754532,6.957566,0.691361,6.957566,0.691361,170.000137,170,281.556152,73.986786,1008.317078,294.499878,290.905029,0.12615,0.057722,997.888123,-0.012051,0.138964,0.07392,0,1
91.992287,177.938629,179.132065,6.966355,0.603603,6.966355,0.603603,180.000137,180,284.920532,74.09407,1010.273376,294.547302,290.961761,0.121379,0.058028,999.601257,-0.009877,0.139151,0.072125,0,1
92.05114,183.014465,184.207901,6.981014,0.52271,6.981014,0.52271,180.000137,180,289.980408,74.251862,1013.664001,294.633026,291.040161,0.117714,0.061651,1002.125488,-0.008623,0.139327,0.069754,0,1
92.088432,186.406708,187.600143,6.991984,0.497078,6.991984,0.497078,190.000137,190,293.363617,74.354958,1016.187805,294.685425,291.088409,0.117013,0.063517,1003.898315,-0.007467,0.13962,0.065468,0,1
92.142982,191.507156,192.700592,7.005631,0.488357,7.005631,0.488357,190.000137,190,298.454681,74.506454,1020.112122,294.730499,291.154907,0.11674,0.061205,1006.632996,-0.007101,0.13984,0.062848,0,1
92.17952,194.916031,196.109482,7.013904,0.48219,7.013904,0.48219,190.000137,190,301.859467,74.605392,1022.650818,294.734589,291.195221,0.115535,0.055749,1008.524475,-0.006977,0.140113,0.060594,0,1
92.235771,200.041901,201.235352,7.023133,0.44776,7.023133,0.44776,200.000137,200,306.981995,74.750778,1026.189087,294.711426,291.249054,0.11124,0.043501,1011.428406,-0.006888,0.140278,0.06039,0,1
92.274406,203.468994,204.662445,7.029315,0.401103,7.029315,0.401103,200.000137,200,310.406403,74.845757,1028.35083,294.690125,291.280182,0.106681,0.035009,1013.471619,-0.006397,0.140463,0.061548,0,1
92.332764,208.623093,209.816544,7.038968,0.306353,7.038968,0.306353,210.000137,210,315.556244,74.985374,1031.487305,294.676605,291.319397,0.098819,0.026322,1016.590027,-0.00573,0.140586,0.062613,0,1
92.370903,212.068008,213.261459,7.047454,0.238706,7.047454,0.238706,210.000137,210,318.99823,75.076591,1033.637085,294.688751,291.340698,0.094271,0.024512,1018.690369,-0.004376,0.140779,0.063289,0,1
92.423599,217.248581,218.442032,7.062575,0.164122,7.062575,0.164122,220.000137,220,324.175262,75.210609,1037.133789,294.778778,291.365997,0.082581,0.03521,1021.862122,-0.001137,0.140949,0.1,0,1
92.450317,220.711243,221.904694,7.079171,0.168243,7.079171,0.168243,220.000137,220,327.636963,75.298012,1039.863403,294.948364,291.379211,0.080387,0.060123,1023.995239,-7.82E-04,0.141252,0.1,0,1
92.472267,225.919464,227.1129,7.111631,0.323389,7.111631,0.323389,230.000137,230,332.849304,75.42601,1045.168335,295.291534,291.39621,0.090825,0.109478,1027.262085,-8.01E-04,0.141583,0.1,0,1
92.475609,229.40213,230.595566,7.134921,0.529925,7.134921,0.529925,230.000137,230,336.340515,75.50914,1049.491821,295.521179,291.407043,0.104156,0.140418,1029.532959,-0.00154,0.142233,0.1,0,1
92.471024,234.644363,235.837814,7.157244,0.944786,7.157244,0.944786,230.000137,230,341.605469,75.630348,1056.207153,295.792328,291.423584,0.127003,0.171753,1033.177368,-0.002523,0.142698,0.1,0,1
92.466721,238.152618,239.346069,7.166646,1.25137,7.166646,1.25137,240.000137,240,345.133209,75.708817,1060.210938,295.904449,291.434601,0.140188,0.179903,1035.799927,-0.004499,0.143145,0.1,0,1
92.464691,243.436142,244.629578,7.172375,1.671232,7.172375,1.671232,240.000137,240,350.447388,75.823097,1065.032715,295.977692,291.44931,0.152547,0.175106,1040.003174,-0.005959,0.143333,0.1,0,1
92.467789,246.972351,248.165802,7.174483,1.898156,7.174483,1.898156,250.000137,250,354.001648,75.897141,1067.327271,295.986328,291.456635,0.154918,0.165,1042.932373,-0.007958,0.143448,0.1,0,1
92.478813,252.295868,253.489304,7.176394,2.128296,7.176394,2.128296,250.000137,250,359.344818,76.005264,1069.676514,295.991333,291.461731,0.151118,0.148321,1047.381104,-0.009039,0.14349,0.1,0,1
92.489197,255.856277,257.049713,7.17745,2.219066,7.17745,2.219066,260.000153,260,362.912262,76.075531,1070.706909,296.017517,291.460541,0.145617,0.140939,1050.300049,-0.010135,0.143528,0.1,0,1
92.506538,261.211395,262.404846,7.179121,2.290909,7.179121,2.290909,260.000153,260,368.268951,76.178406,1071.885132,296.121216,291.451874,0.136824,0.139971,1054.486816,-0.010567,0.143549,0.1,0,1
92.517479,264.789703,265.983154,7.181087,2.323234,7.181087,2.323234,260.000153,260,371.843201,76.245384,1072.657959,296.23761,291.442291,0.132529,0.146501,1057.102051,-0.010909,0.143582,0.1,0,1
92.530441,270.167694,271.361115,7.185767,2.385485,7.185767,2.385485,270.000153,270,377.210052,76.343498,1074.110596,296.469818,291.424408,0.130248,0.164291,1060.726563,-0.011063,0.143622,0.1,0,1
92.535988,273.759277,274.952728,7.190193,2.45069,7.190193,2.45069,270.000153,270,380.792511,76.407333,1075.355347,296.647675,291.411743,0.131579,0.178753,1062.949951,-0.011359,0.143715,0.1,0,1
92.539909,279.154449,280.34787,7.196875,2.588012,7.196875,2.588012,280.000153,280,386.174835,76.500717,1077.553223,296.919922,291.394379,0.136653,0.199405,1065.979126,-0.01167,0.143804,0.1,0,1
92.540642,282.758026,283.951477,7.201377,2.700806,7.201377,2.700806,280.000153,280,389.769379,76.561394,1079.116821,297.091553,291.385223,0.140909,0.210352,1067.928101,-0.012324,0.143937,0.1,0,1
92.540878,288.17218,289.365631,7.206247,2.878607,7.206247,2.878607,290.000153,290,395.170868,76.650047,1081.35083,297.322327,291.376892,0.146672,0.220796,1070.693726,-0.012861,0.144028,0.1,0,1
92.541489,291.787476,292.980927,7.208867,2.992208,7.208867,2.992208,290.000153,290,398.777618,76.707634,1082.63208,297.458679,291.375702,0.149235,0.224088,1072.453613,-0.013708,0.144125,0.1,0,1
92.544121,297.218811,298.412262,7.211171,3.134792,7.211171,3.134792,300.000153,300,404.194946,76.791817,1084.156372,297.647003,291.381317,0.150632,0.225376,1074.979614,-0.014249,0.144177,0.1,0,1
92.547157,300.84494,302.038391,7.212185,3.2091,7.212185,3.2091,300.000153,300,407.81012,76.846558,1084.900513,297.770386,291.390472,0.150084,0.225403,1076.58374,-0.014928,0.144223,0.1,0,1
92.553207,306.291077,307.484528,7.212874,3.288563,7.212874,3.288563,310.000153,310,413.236877,76.925003,1085.721924,297.966187,291.413177,0.147938,0.226499,1078.851318,-0.015281,0.144244,0.1,0,1
92.557655,309.925903,311.119324,7.213163,3.327122,7.213163,3.327122,310.000153,310,416.85672,76.975601,1086.147095,298.109406,291.434875,0.146275,0.228861,1080.259277,-0.01566,0.144257,0.1,0,1
92.564018,315.383209,316.57666,7.213669,3.37423,7.213669,3.37423,310.000153,310,422.289001,77.049782,1086.754517,298.346252,291.478546,0.144405,0.235181,1082.203491,-0.015843,0.144263,0.1,0,1
92.567604,319.024384,320.217834,7.214271,3.406038,7.214271,3.406038,320.000153,320,425.912292,77.098137,1087.201416,298.516907,291.515869,0.143914,0.240889,1083.387207,-0.016068,0.144273,0.1,0,1
92.57164,324.490051,325.683502,7.21558,3.461031,7.21558,3.461031,320.000153,320,431.35025,77.169037,1087.987793,298.78479,291.585419,0.144421,0.250398,1085.006226,-0.016219,0.144285,0.1,0,1
92.573433,328.13623,329.329681,7.216747,3.504553,7.216747,3.504553,330.000153,330,434.977905,77.21524,1088.584595,298.966339,291.64151,0.145399,0.256561,1085.993408,-0.016481,0.144312,0.1,0,1
92.575142,333.608978,334.802429,7.218461,3.576567,7.218461,3.576567,330.000153,330,440.423279,77.282982,1089.528687,299.236023,291.74115,0.147294,0.264405,1087.36145,-0.016688,0.144335,0.1,0,1
92.575958,337.259766,338.453217,7.219628,3.626709,7.219628,3.626709,340.000153,340,444.056122,77.327126,1090.145996,299.411774,291.818176,0.148492,0.268406,1088.211914,-0.017031,0.144369,0.1,0,1
92.577202,342.739288,343.932739,7.22092,3.697402,7.22092,3.697402,340.000153,340,449.509064,77.391861,1090.987183,299.668823,291.94986,0.149772,0.272583,1089.413696,-0.01727,0.144393,0.1,0,1
92.578903,348.222656,349.416107,7.221858,3.758437,7.221858,3.758437,350.000153,350,454.965851,77.454903,1091.678101,299.921326,292.10083,0.150213,0.275284,1090.538208,-0.017607,0.144418,0.1,0,1
92.580353,351.880249,353.073669,7.222175,3.79158,7.222175,3.79158,350.000153,350,458.605438,77.496025,1092.054443,300.089844,292.212006,0.150089,0.27675,1091.246948,-0.017808,0.144432,0.1,0,1
92.582863,357.369263,358.562683,7.222455,3.831969,7.222455,3.831969,360.000153,360,464.066956,77.556427,1092.518921,300.346771,292.394165,0.149544,0.279161,1092.246826,-0.018055,0.144443,0.1,0,1
92.584587,361.030182,362.223602,7.222524,3.853695,7.222524,3.853695,360.000153,360,467.709167,77.595871,1092.789429,300.522308,292.525635,0.149123,0.28114,1092.869385,-0.018189,0.144448,0.1,0,1
92.586998,366.52359,367.717041,7.222647,3.882931,7.222647,3.882931,370.000153,370,473.174133,77.653839,1093.178589,300.522125,292.737366,0.148684,0.284781,1093.736206,-0.018351,0.14445,0.1,0,1
92.588341,370.187073,371.380524,7.222794,3.901992,7.222794,3.901992,370.000153,370,476.818512,77.691727,1093.447998,300.522125,292.887878,0.148606,0.287539,1094.270264,-0.01849,0.144453,0.1,0,1
92.589874,375.683929,376.87735,7.223125,3.931572,7.223125,3.931572,380.000153,380,482.286865,77.747437,1093.880127,300.522125,293.127106,0.14884,0.291801,1095.010864,-0.018581,0.144456,0.1,0,1
92.590576,379.349457,380.542908,7.223436,3.952739,7.223436,3.952739,380.000153,380,485.933655,77.783859,1094.185181,300.522125,293.295105,0.14917,0.294508,1095.468994,-0.018722,0.144462,0.1,0,1
92.591316,384.849243,386.042664,7.223919,3.985367,7.223919,3.985367,380.000153,380,491.405792,77.83744,1094.651489,300.522125,293.55899,0.149774,0.298051,1096.110962,-0.018823,0.144469,0.1,0,1
92.591682,388.516663,389.710114,7.224257,4.007221,7.224257,4.007221,390.000153,390,495.055176,77.87249,1094.954956,300.522125,293.742249,0.150149,0.300001,1096.51355,-0.018978,0.144478,0.1,0,1
92.592194,394.019135,395.212555,7.224633,4.037771,7.224633,4.037771,390.000153,390,500.531067,77.924088,1095.380249,300.522125,294.027069,0.150556,0.302321,1097.085693,-0.019082,0.144485,0.1,0,1
92.592545,397.688293,398.881744,7.22483,4.056305,7.22483,4.056305,400.000153,400,504.1828,77.957855,1095.635864,300.522125,294.222839,0.15069,0.303573,1097.448242,-0.019227,0.144493,0.1,0,1
92.593117,403.193207,404.386658,7.224973,4.080134,7.224973,4.080134,400.000153,400,509.661865,78.007614,1095.97644,300.522125,294.524139,0.150708,0.305216,1097.965454,-0.019316,0.144497,0.1,0,1
92.592384,406.863861,408.057312,7.225034,4.093351,7.225034,4.093351,410.000153,410,513.31543,78.040207,1096.140015,300.522125,294.72937,0.150357,0.306314,1098.29248,-0.019429,0.144499,0.1,0,1
92.591415,412.370728,413.564178,7.224966,4.101097,7.224966,4.101097,410.000153,410,518.796326,78.088303,1096.188599,300.522125,295.042572,0.148485,0.308823,1098.752075,-0.019492,0.144501,0.1,0,1
92.591187,416.042358,417.235809,7.224442,4.098566,7.224442,4.098566,420.000153,420,522.450256,78.119858,1096.158813,300.522125,295.254364,0.14702,0.311657,1099.032104,-0.019529,0.144499,0.1,0,1
92.590744,421.550049,422.7435,7.223186,4.091249,7.223186,4.091249,420.000153,420,527.930908,78.166466,1096.095093,300.522125,295.575836,0.145385,0.317866,1099.403687,-0.019517,0.144489,0.1,0,1
92.590034,425.221832,426.415283,7.222407,4.08911,7.222407,4.08911,420.000153,420,531.584534,78.197075,1096.087036,300.522125,295.792328,0.14495,0.322975,1099.616943,-0.019482,0.144464,0.1,0,1
92.588028,430.72934,431.92276,7.221957,4.095783,7.221957,4.095783,430.000153,430,537.065186,78.242294,1096.196411,300.522125,296.119934,0.145332,0.331045,1099.888306,-0.019472,0.144448,0.1,0,1
92.585968,434.399689,435.59314,7.22193,4.107518,7.22193,4.107518,430.000153,430,540.719421,78.27198,1096.352905,300.522125,296.339996,0.146104,0.336029,1099.982422,-0.019504,0.144439,0.1,0,1
92.582573,439.907166,441.100616,7.222081,4.133207,7.222081,4.133207,440.000153,440,546.201965,78.315826,1096.655518,300.522125,296.671997,0.147563,0.342058,1100.219604,-0.01956,0.144439,0.1,0,1
92.580254,443.578796,444.772247,7.222179,4.153,7.222179,4.153,440.000153,440,549.857849,78.344604,1096.859741,300.522125,296.894226,0.148451,0.344909,1100.362183,-0.019682,0.144442,0.1,0,1
92.577103,449.086304,450.279755,7.222114,4.180755,7.222114,4.180755,450.000153,450,555.342834,78.387131,1097.109009,300.522125,297.228058,0.149316,0.347561,1100.564819,-0.019776,0.144444,0.1,0,1
92.57534,452.758087,453.951538,7.221888,4.19592,7.221888,4.19592,450.000153,450,559.000061,78.415062,1097.216309,300.522125,297.4505,0.149496,0.348559,1100.695557,-0.019908,0.144442,0.1,0,1
92.573296,458.265839,459.45929,7.221263,4.211173,7.221263,4.211173,460.000153,460,564.486389,78.456375,1097.28772,300.522125,297.783203,0.149243,0.349556,1100.883789,-0.019981,0.144438,0.1,0,1
92.572304,461.937653,463.131104,7.220658,4.216895,7.220658,4.216895,460.000153,460,568.143982,78.483551,1097.286377,300.522125,298.003967,0.14885,0.350256,1101.001465,-0.020053,0.144425,0.1,0,1
92.571098,467.44519,468.638641,7.21971,4.220687,7.21971,4.220687,470.000153,470,573.630371,78.523773,1097.252319,300.522125,298.333069,0.148194,0.351746,1101.1604,-0.02008,0.144413,0.1,0,1
92.565071,471.116669,472.31012,7.219046,4.222064,7.219046,4.222064,470.000153,470,577.287781,78.550255,1097.20813,300.522125,298.550873,0.147933,0.353096,1101.251953,-0.020099,0.144394,0.1,0,1
92.567947,476.623383,477.816833,7.218179,4.225541,7.218179,4.225541,480.000153,480,582.773743,78.589478,1097.188354,300.522125,298.874969,0.147736,0.355439,1101.365112,-0.020105,0.144381,0.1,0,1
92.569969,480.294159,481.48761,7.217576,4.228654,7.217576,4.228654,480.000153,480,586.431091,78.615318,1097.225342,300.522125,299.089142,0.147679,0.357108,1101.425171,-0.020122,0.144364,0.1,0,1
92.571831,485.799805,486.993256,7.21704,4.234517,7.21704,4.234517,490.000153,490,591.917542,78.653603,1097.348755,300.522125,299.407532,0.147731,0.359614,1101.498535,-0.020136,0.144352,0.1,0,1
92.569641,489.46994,490.663361,7.216918,4.23993,7.216918,4.23993,490.000153,490,595.575562,78.678825,1097.445923,300.522125,299.617798,0.147969,0.361151,1101.540649,-0.020164,0.144341,0.1,0,1
92.563965,494.974701,496.168152,7.216909,4.250513,7.216909,4.250513,490.000153,490,601.063171,78.716209,1097.599731,300.522125,299.930176,0.148498,0.362978,1101.60022,-0.02019,0.144338,0.1,0,1
92.562714,498.644348,499.837769,7.216809,4.258672,7.216809,4.258672,500.000153,500,604.721985,78.740852,1097.697388,300.522125,300.136383,0.148829,0.36378,1101.640137,-0.020241,0.144338,0.1,0,1
92.567635,504.143494,505.336945,7.216393,4.269725,7.216393,4.269725,500.000153,500,610.210815,78.77739,1097.815918,300.522125,300.442627,0.149099,0.364428,1101.418945,-0.020279,0.144336,0.1,0,1
92.559792,507.814819,509.00827,7.216014,4.275555,7.216014,4.275555,510.000153,510,613.8703,78.801483,1097.868164,300.522125,300.644684,0.149089,0.364628,1101.620605,-0.020332,0.144328,0.1,0,1
92.558899,513.319153,514.512634,7.215455,4.281026,7.215455,4.281026,510.000153,510,619.359802,78.83725,1097.920288,300.522125,300.944641,0.1489,0.364861,1101.755859,-0.02036,0.14432,0.1,0,1
92.558388,516.988403,518.181824,7.215046,4.282958,7.215046,4.282958,520.000122,520,623.019592,78.860855,1097.944946,300.522125,301.142639,0.148712,0.365103,1101.828613,-0.020386,0.144309,0.1,0,1
92.557701,522.491699,523.68512,7.214483,4.28434,7.214483,4.28434,520.000122,520,628.509399,78.895912,1097.982788,300.522125,301.436798,0.148449,0.365706,1101.917114,-0.020395,0.144301,0.1,0,1
92.557289,526.160217,527.353638,7.214104,4.28504,7.214104,4.28504,530.000122,530,632.169434,78.919067,1098.015503,300.522125,301.631165,0.148335,0.366265,1101.964844,-0.020402,0.14429,0.1,0,1
92.556717,531.656799,532.85022,7.21367,4.286809,7.21367,4.286809,530.000122,530,637.659668,78.953476,1098.081055,300.522125,301.92041,0.148291,0.367243,1101.737671,-0.020405,0.144282,0.1,0,1
92.555664,535.324402,536.517822,7.2134,4.288742,7.2134,4.288742,530.000122,530,641.320007,78.976204,1098.144043,300.522125,302.111938,0.148325,0.367905,1101.806763,-0.020413,0.144273,0.1,0,1
92.554016,540.827209,542.02063,7.213107,4.292691,7.213107,4.292691,540.000122,540,646.811035,79.009995,1098.256104,300.522125,302.397522,0.148441,0.368793,1101.996582,-0.020423,0.144268,0.1,0,1
92.554298,544.495117,545.688599,7.212933,4.295813,7.212933,4.295813,540.000122,540,650.472046,79.032326,1098.341553,300.522125,302.587006,0.148562,0.369266,1102.083496,-0.020441,0.144262,0.1,0,1
92.561501,550.147339,551.340759,7.212711,4.300698,7.212711,4.300698,550.000122,550,656.116638,79.06646,1098.47876,300.522125,302.877991,0.148713,0.369784,1102.075439,-0.020456,0.144259,0.1,0,1
92.552994,553.662598,554.856018,7.212564,4.303536,7.212564,4.303536,550.000122,550,659.625793,79.087502,1098.557861,300.522125,303.05838,0.14876,0.369992,1102.191528,-0.02048,0.144254,0.1,0,1
92.539238,559.163147,560.356628,7.212333,4.307236,7.212333,4.307236,560.000122,560,665.118958,79.120186,1098.670044,300.522125,303.340271,0.148973,0.370201,1102.285767,-0.020493,0.144251,0.1,0,1
92.489304,562.829895,564.023315,7.212193,4.317048,7.212193,4.317048,560.000122,560,668.781067,79.141792,1098.590332,300.522125,303.528046,0.151256,0.369796,1102.338135,-0.020511,0.144247,0.1,0,1
92.412407,568.329285,569.522705,7.211484,4.361641,7.211484,4.361641,570.000122,570,674.273071,79.17395,1098.134888,300.522125,303.80954,0.156937,0.365594,1102.394897,-0.020557,0.144244,0.1,0,1
92.350616,571.993713,573.187134,7.20977,4.404086,7.20977,4.404086,570.000122,570,677.932495,79.195229,1097.48938,300.522125,303.996735,0.160512,0.359366,1102.353394,-0.02077,0.14423,0.1,0,1
92.2341,577.490234,578.683655,7.203252,4.455342,7.203252,4.455342,580.000122,580,683.4151,79.227005,1095.773438,300.522125,304.275757,0.162324,0.3458,1102.31665,-0.020972,0.144195,0.1,0,1
92.148102,581.303162,582.496582,7.18327,4.468288,7.18327,4.468288,580.000122,580,687.219116,79.249046,1095.234497,300.522125,304.467499,0.161263,0.335263,1102.100098,-0.021216,0.144065,0.1,0,1
92.015007,586.641052,587.834534,7.14354,4.44636,7.14354,4.44636,590.000122,590,692.536987,79.280067,1092.311035,300.522125,304.732666,0.156612,0.322833,1101.880737,-0.021278,0.143665,0.1,0,1
91.959961,590.297058,591.49054,7.119529,4.410555,7.119529,4.410555,590.000122,590,696.173157,79.301582,1089.454834,300.522125,304.912476,0.153443,0.317675,1101.557861,-0.021173,0.142871,0.1,0,1
91.859535,595.772522,596.965942,7.096275,4.355365,7.096275,4.355365,600.000122,600,701.610535,79.334351,1085.831421,300.522125,305.179962,0.15041,0.315062,1100.76355,-0.021003,0.142391,0.1,0,1
91.778885,599.416077,600.609558,7.078128,4.322642,7.078128,4.322642,600.000122,600,705.226807,79.35656,1083.953979,300.522125,305.357513,0.14886,0.315842,1100.017456,-0.02074,0.141925,0.1,0,1
91.679253,604.869751,606.063171,7.049938,4.286634,7.049938,4.286634,600.000122,600,710.638611,79.39048,1080.814087,300.522125,305.62384,0.148362,0.319537,1098.571655,-0.020584,0.141563,0.1,0,1
91.6241,608.498718,609.692139,7.032638,4.276666,7.032638,4.276666,610.000122,610,714.237671,79.413544,1078.670044,300.522125,305.802185,0.149506,0.32243,1097.47522,-0.020413,0.140999,0.1,0,1
91.612137,613.929138,615.122559,7.01549,4.280214,7.01549,4.280214,610.000122,610,719.62323,79.44883,1075.608765,300.522125,306.071716,0.150569,0.325516,1095.545898,-0.020365,0.140653,0.1,0,1
91.640419,617.542053,618.735474,7.010575,4.276835,7.010575,4.276835,620.000122,620,723.2052,79.472847,1073.719116,300.522125,306.252991,0.15001,0.327179,1094.165405,-0.020382,0.14031,0.1,0,1
91.638222,622.948914,624.142334,7.011318,4.269928,7.011318,4.269928,620.000122,620,728.567383,79.509583,1071.393677,300.522125,306.527527,0.149621,0.329482,1091.922119,-0.020366,0.140211,0.1,0,1
91.671944,626.545532,627.738953,7.010725,4.257856,7.010725,4.257856,630.000122,630,732.136719,79.534531,1070.342407,300.522125,306.712341,0.148042,0.331298,1090.35083,-0.020333,0.140226,0.1,0,1
91.742706,631.929565,633.122986,7.00645,4.23316,7.00645,4.23316,630.000122,630,737.486267,79.572617,1069.661987,300.522125,306.992584,0.146559,0.335375,1087.966187,-0.020276,0.140215,0.1,0,1
91.768867,635.512695,636.706177,7.003502,4.218206,7.003502,4.218206,640.000122,640,741.051575,79.598412,1069.536499,300.522125,307.181702,0.145664,0.338847,1086.414551,-0.020158,0.140129,0.1,0,1
91.824249,640.879944,642.073364,7.00317,4.198471,7.00317,4.198471,640.000122,640,746.399536,79.637672,1069.785889,300.522125,307.469421,0.144863,0.345042,1084.227417,-0.020087,0.14007,0.1,0,1
91.858543,644.454224,645.647644,7.005221,4.191751,7.005221,4.191751,640.000122,640,749.966614,79.664192,1070.467773,300.522125,307.664185,0.145125,0.349313,1082.902588,-0.019993,0.140063,0.1,0,1
91.900177,649.810974,651.004395,7.011142,4.192058,7.011142,4.192058,650.000122,650,755.322449,79.70443,1071.834961,300.522125,307.961029,0.145857,0.35498,1081.140381,-0.019961,0.140104,0.1,0,1
91.910324,653.381653,654.575073,7.019212,4.194739,7.019212,4.194739,650.000122,650,758.896118,79.731529,1072.306396,300.522125,308.162109,0.145845,0.358114,1080.214722,-0.019962,0.140223,0.1,0,1
91.924393,658.736816,659.930237,7.03413,4.191928,7.03413,4.191928,660.000122,660,764.259155,79.772568,1072.92981,300.522125,308.468201,0.144893,0.362469,1079.109131,-0.019975,0.140384,0.1,0,1
91.933144,662.306702,663.500122,7.041852,4.185038,7.041852,4.185038,660.000122,660,767.836365,79.800171,1073.389282,300.522125,308.675171,0.144022,0.365575,1078.543091,-0.019962,0.140683,0.1,0,1
91.947441,667.661743,668.855225,7.04694,4.171637,7.04694,4.171637,670.000122,670,773.204346,79.841911,1073.519897,300.522125,308.989929,0.142957,0.370937,1077.919067,-0.019929,0.140837,0.1,0,1
91.957603,671.231873,672.425293,7.054565,4.164214,7.054565,4.164214,670.000122,670,776.781372,79.869949,1072.717041,300.522125,309.202789,0.14266,0.375007,1077.616943,-0.019865,0.140939,0.1,0,1
91.985855,676.585938,677.779419,7.069937,4.160015,7.069937,4.160015,680.000122,680,782.142456,79.912292,1071.937134,300.522125,309.526611,0.143089,0.381194,1077.234985,-0.01983,0.141091,0.1,0,1
92.013275,680.154236,681.347717,7.077212,4.166483,7.077212,4.166483,680.000122,680,785.715576,79.940651,1071.980103,300.522125,309.745544,0.144481,0.384618,1076.998291,-0.01981,0.141399,0.1,0,1
