airspeed_indicator_indicated_speed_kt,altimeter_indicated_altitude_ft,altimeter_pressure_alt_ft,attitude_indicator_indicated_pitch_deg,attitude_indicator_indicated_roll_deg,attitude_indicator_internal_pitch_deg,attitude_indicator_internal_roll_deg,encoder_indicated_altitude_ft,encoder_pressure_alt_ft,gps_indicated_altitude_ft,gps_indicated_ground_speed_kt,gps_indicated_vertical_speed,indicated_heading_deg,magnetic_compass_indicated_heading_deg,slip_skid_ball_indicated_slip_skid,turn_indicator_indicated_turn_rate,vertical_speed_indicator_indicated_speed_fpm,flight_aileron,flight_elevator,flight_rudder,flight_flaps,engine_throttle,engine_rpm,Command_fault,Command
6.381647,-87.985313,-86.79187,2.971402,1.360131,2.591807,0.094812,-89.999855,-90.0,2.286493,0.0,0.005962,297.866974,278.815033,0.012268,-0.04417,-17.923319,-0.0,0.0,0.0,0.0,0.0,600.133789,, takeoff
6.415716,-87.994873,-86.801422,2.97724,1.3783,2.59229,0.095133,-89.999855,-90.0,2.286514,0.0,0.005962,297.86615,281.091217,0.012237,-0.039948,-13.645946,-0.0,0.0,0.0,0.0,0.0,600.142578,, takeoff
6.476498,-88.006119,-86.812675,2.773902,0.725698,2.584776,0.09528,-89.999855,-90.0,2.286506,3.4E-5,-0.012729,297.864868,284.43631,0.012055,-0.034385,-17.071224,-0.01969,0.051846,4.1E-5,0.0,1.0,672.633423,, takeoff
6.521402,-88.012009,-86.818565,2.63706,0.338005,2.563918,0.0942,-89.999855,-90.0,2.286433,1.4E-4,-0.033161,297.863892,286.597076,0.011893,-0.031163,-7.212792,-0.010367,0.051696,1.05E-4,0.0,1.0,784.408325,, takeoff
6.622367,-88.019012,-86.825569,2.511991,0.089214,2.511991,0.089214,-89.999855,-90.0,2.286254,7.35E-4,-0.019863,297.862183,289.698578,0.0121,-0.027013,-17.461905,-0.004829,0.051278,1.54E-4,0.0,1.0,1004.475281,, takeoff
6.741055,-88.022713,-86.829269,2.494876,0.083178,2.494876,0.083178,-89.999855,-90.0,2.286259,0.002323,0.021437,297.86087,291.655029,0.012711,-0.024665,-10.666085,-0.001274,0.05024,2.4E-4,0.0,1.0,1165.150757,, takeoff
7.015608,-88.027092,-86.833649,2.498058,0.070926,2.498058,0.070926,-89.999855,-90.0,2.286525,0.008741,0.082936,297.858185,294.395538,0.014922,-0.021738,-18.94364,-0.001188,0.049898,3.05E-4,0.0,1.0,1401.282227,, takeoff
7.269078,-88.029366,-86.835922,2.510313,0.061308,2.510313,0.061308,-89.999855,-90.0,2.286865,0.017205,0.121323,297.855225,296.079285,0.017243,-0.02025,-17.961893,-0.001013,0.049961,4.39E-4,0.0,1.0,1545.085083,, takeoff
7.755297,-88.031967,-86.838524,2.534293,0.046222,2.534293,0.046222,-89.999855,-90.0,2.287606,0.038788,0.176457,297.847504,298.369965,0.022588,-0.018826,-18.087051,-8.76E-4,0.050206,5.87E-4,0.0,1.0,1730.859863,, takeoff
8.1454,-88.033249,-86.839806,2.55129,0.036398,2.55129,0.036398,-89.999855,-90.0,2.288257,0.060525,0.215748,297.839111,299.731018,0.027566,-0.018503,-12.582374,-6.6E-4,0.050686,9.74E-4,0.0,1.0,1833.119995,, takeoff
8.1454,-88.033249,-86.839806,2.55129,0.036398,2.55129,0.036398,-89.999855,-90.0,2.288257,0.060525,0.215748,297.839111,299.731018,0.027566,-0.018503,-12.582374,-6.6E-4,0.050686,9.74E-4,0.0,1.0,1833.119995,, takeoff
9.548704,-88.035591,-86.842148,2.59508,0.012797,2.59508,0.012797,-89.999855,-90.0,2.290967,0.16769,0.334693,297.791748,302.931335,0.032601,-0.021027,-11.455894,-5.2E-4,0.051026,0.001393,0.0,1.0,2043.846313,, takeoff
10.111044,-88.035706,-86.842262,2.607408,0.006755,2.607408,0.006755,-89.999855,-90.0,2.292217,0.222677,0.381654,297.76535,303.755035,0.031263,-0.023178,-12.100373,-1.83E-4,0.051902,0.003761,0.0,1.0,2091.614502,, takeoff
10.674538,-88.035561,-86.842117,2.616239,0.002219,2.616239,0.002219,-89.999855,-90.0,2.293571,0.284574,0.428683,297.73764,304.395599,0.030208,-0.025375,-11.291966,-9.6E-5,0.052148,0.005081,0.0,1.0,2127.712646,, takeoff
11.552958,-88.034927,-86.841484,2.62691,-0.002491,2.62691,-0.002491,-89.999855,-90.0,2.29591,0.394618,0.504819,297.692383,305.08252,0.028865,-0.028803,-6.511912,-3.2E-5,0.052325,0.006467,0.0,1.0,2167.615234,, takeoff
12.408991,-88.03389,-86.840446,2.635374,-0.005098,2.635374,-0.005098,-89.999855,-90.0,2.298478,0.517779,0.579415,297.645721,305.435211,0.027841,-0.032151,9.829705,3.6E-5,0.052538,0.00873,0.0,1.0,2193.342529,, takeoff
13.049746,-88.032875,-86.839424,2.640699,-0.006093,2.640699,-0.006093,-89.999855,-90.0,2.300594,0.620294,0.636023,297.610535,305.516754,0.026997,-0.034432,15.279412,7.3E-5,0.052707,0.011063,0.0,1.0,2206.727539,, takeoff
13.697188,-88.031639,-86.838196,2.645328,-0.006518,2.645328,-0.006518,-89.999855,-90.0,2.302909,0.732888,0.693235,297.576569,305.453369,0.026378,-0.036248,7.477297,8.7E-5,0.052814,0.012822,0.0,1.0,2216.538086,, takeoff
14.610889,-88.029564,-86.836121,2.65112,-0.006095,2.65112,-0.006095,-89.999855,-90.0,2.306486,0.907255,0.775434,297.533386,305.133118,0.025647,-0.037776,18.295658,9.3E-5,0.052907,0.01452,0.0,1.0,2227.212891,, takeoff
15.240918,-88.027901,-86.834457,2.65493,-0.005267,2.65493,-0.005267,-89.999855,-90.0,2.309172,1.037939,0.832009,297.506531,304.766632,0.025324,-0.038257,14.675785,8.7E-5,0.053022,0.016679,0.0,1.0,2233.312012,, takeoff
16.216667,-88.024979,-86.831535,2.660524,-0.003603,2.660524,-0.003603,-89.999855,-90.0,2.313685,1.256792,0.921544,297.472137,303.986755,0.025008,-0.03778,16.217117,7.5E-5,0.053099,0.018022,0.0,1.0,2241.17749,, takeoff
16.798309,-88.023026,-86.829582,2.663921,-0.002432,2.663921,-0.002432,-89.999855,-90.0,2.316585,1.396735,0.973664,297.455322,303.409851,0.024992,-0.036957,13.421465,5.1E-5,0.05321,0.019742,0.0,1.0,2245.140137,, takeoff
17.778881,-88.019386,-86.825943,2.669553,-3.12E-4,2.669553,-3.12E-4,-89.999855,-90.0,2.321829,1.648232,1.063266,297.43399,302.27121,0.025243,-0.034643,18.125401,3.5E-5,0.053278,0.020583,0.0,1.0,2250.873779,, takeoff
18.708189,-88.015533,-86.82209,2.67503,0.001953,2.67503,0.001953,-89.999855,-90.0,2.327214,1.904334,1.148915,297.419617,301.025879,0.02564,-0.031878,12.536085,4.0E-6,0.053391,0.021649,0.0,1.0,2255.4646,, takeoff
19.372171,-88.012535,-86.819092,2.678982,0.00375,2.678982,0.00375,-89.999855,-90.0,2.331313,2.097827,1.20827,297.411774,300.052795,0.026013,-0.029763,14.709604,-2.8E-5,0.053501,0.022368,0.0,1.0,2258.366211,, takeoff
20.036892,-88.009331,-86.815887,2.682899,0.005683,2.682899,0.005683,-89.999855,-90.0,2.335622,2.299923,1.27198,297.405182,299.022552,0.026325,-0.02766,17.355986,-5.4E-5,0.05358,0.02276,0.0,1.0,2261.020264,, takeoff
20.992912,-88.004349,-86.810905,2.688621,0.008792,2.688621,0.008792,-89.999855,-90.0,2.342197,2.605705,1.357026,297.396179,297.460571,0.026587,-0.024938,16.560722,-8.1E-5,0.053658,0.02309,0.0,1.0,2264.501709,, takeoff
21.630472,-88.000793,-86.80735,2.692572,0.01109,2.692572,0.01109,-89.999855,-90.0,2.346825,2.81901,1.415175,297.389069,296.382111,0.026561,-0.023519,7.840387,-1.26E-4,0.053772,0.02354,0.0,1.0,2266.648193,, takeoff
22.533255,-87.995438,-86.801994,2.698108,0.014627,2.698108,0.014627,-89.999855,-90.0,2.353713,3.13379,1.497978,297.376373,294.824524,0.026176,-0.022149,9.398773,-1.58E-4,0.053851,0.023895,0.0,1.0,2269.507813,, takeoff
23.19663,-87.991257,-86.797813,2.70232,0.017465,2.70232,0.017465,-89.999855,-90.0,2.359027,3.374444,1.558304,297.364288,293.670502,0.02547,-0.021694,17.327644,-2.09E-4,0.053962,0.02453,0.0,1.0,2271.50415,, takeoff
24.177572,-87.984695,-86.791245,2.708553,0.021894,2.708553,0.021894,-89.999855,-90.0,2.36728,3.744515,1.648442,297.342133,291.972107,0.024074,-0.02176,11.975246,-2.5E-4,0.054046,0.025134,0.0,1.0,2274.334473,, takeoff
25.104362,-87.978073,-86.784622,2.714644,0.026277,2.714644,0.026277,-89.999855,-90.0,2.375513,4.109419,1.733857,297.316559,290.400238,0.022242,-0.022516,18.398075,-3.13E-4,0.054171,0.026242,0.0,1.0,2276.90918,, takeoff
25.739096,-87.973297,-86.779854,2.718925,0.02935,2.718925,0.02935,-89.999855,-90.0,2.381398,4.367734,1.792308,297.297058,289.35434,0.02088,-0.02328,17.072655,-3.75E-4,0.054293,0.027521,0.0,1.0,2278.631836,, takeoff
26.399645,-87.968124,-86.774681,2.723919,0.032448,2.723919,0.032448,-89.999855,-90.0,2.387767,4.643638,1.888877,297.276123,288.301178,0.01954,-0.024075,16.881529,-4.19E-4,0.054378,0.028496,0.0,1.0,2280.397461,, takeoff
27.34861,-87.96022,-86.766777,2.735806,0.042998,2.735806,0.042998,-89.999855,-90.0,2.397991,5.052848,2.160094,297.24649,286.863861,0.017839,-0.024866,17.370028,-4.64E-4,0.054478,0.029543,0.0,1.0,2282.899414,, takeoff
28.296137,-87.951675,-86.758232,2.743001,0.047841,2.743001,0.047841,-89.999855,-90.0,2.409028,5.475687,2.253716,297.217529,285.536835,0.0156,-0.025563,7.98992,-6.14E-4,0.054716,0.031024,0.0,1.0,2285.366211,, takeoff
28.899597,-87.945885,-86.752441,2.747049,0.050508,2.747049,0.050508,-89.999855,-90.0,2.416321,5.752756,2.31009,297.200073,284.754211,0.01457,-0.025795,12.505083,-6.83E-4,0.05486,0.032472,0.0,1.0,2286.928223, set /instrumentation/turn-indicator/serviceable false, takeoff
29.555256,-87.939323,-86.745872,2.751552,0.053231,2.751552,0.053231,-89.999855,-90.0,2.424468,6.059876,2.376881,297.182861,283.966156,0.013849,-0.156525,18.623289,-7.22E-4,0.054941,0.033345,0.0,1.0,2288.616699, set /instrumentation/turn-indicator/serviceable false, takeoff
30.497454,-87.929382,-86.735939,2.758448,0.05718,2.758448,0.05718,-89.999855,-90.0,2.436609,6.512741,2.473852,297.161224,282.953278,0.013199,-0.483585,16.861216,-7.6E-4,0.055031,0.034206,0.0,1.0,2291.034668, set /instrumentation/turn-indicator/serviceable false, takeoff
31.437729,-87.918892,-86.725449,2.765649,0.061211,2.765649,0.061211,-89.999855,-90.0,2.449235,6.97774,2.571962,297.141479,282.09198,0.012884,-0.764999,17.558588,-8.17E-4,0.055169,0.035287,0.0,1.0,2293.440674, set /instrumentation/turn-indicator/serviceable false, takeoff
32.010822,-87.912224,-86.718781,2.770127,0.063818,2.770127,0.063818,-89.999855,-90.0,2.457189,7.267697,2.629575,297.129517,281.642761,0.012735,-0.917272,12.059754,-8.74E-4,0.055313,0.036275,0.0,1.0,2294.906738, set /instrumentation/turn-indicator/serviceable false, takeoff
32.661293,-87.904411,-86.710968,2.775082,0.066813,2.775082,0.066813,-89.999855,-90.0,2.466445,7.60238,2.6963,297.115723,281.204529,0.012485,-1.074154,12.150259,-9.12E-4,0.055403,0.036873,0.0,1.0,2296.56958, set /instrumentation/turn-indicator/serviceable false, takeoff
33.596092,-87.892731,-86.699287,2.782271,0.071464,2.782271,0.071464,-89.999855,-90.0,2.480183,8.093749,2.792567,297.094513,280.709015,0.011826,-1.273147,18.333929,-9.54E-4,0.055502,0.037563,0.0,1.0,2298.959717, set /instrumentation/turn-indicator/serviceable false, takeoff
34.217487,-87.884666,-86.691223,2.787496,0.074772,2.787496,0.074772,-89.999855,-90.0,2.489637,8.427334,2.906219,297.0784,280.466949,0.011139,-1.39013,18.8699,-0.001021,0.055645,0.038623,0.0,1.0,2300.550781, set /instrumentation/turn-indicator/serviceable false, takeoff
35.173588,-87.871681,-86.678238,2.801919,0.080024,2.801919,0.080024,-89.999855,-90.0,2.505874,8.950703,3.299631,297.050476,280.229309,0.009518,-1.549004,18.25325,-0.001068,0.05575,0.039429,0.0,1.0,2303.000732, set /instrumentation/turn-indicator/serviceable false, takeoff
36.075005,-87.858559,-86.665115,2.808641,0.085261,2.808641,0.085261,-89.999855,-90.0,2.522142,9.455589,3.391946,297.019836,280.150513,0.007391,-1.678303,18.475695,-0.001143,0.056038,0.040825,0.0,1.0,2305.31543, set /instrumentation/turn-indicator/serviceable false, takeoff
36.717392,-87.84874,-86.655296,2.813175,0.089099,2.813175,0.089099,-89.999855,-90.0,2.534049,9.821864,3.461551,296.99588,280.177002,0.005733,-1.75975,15.331437,-0.001218,0.056173,0.042357,0.0,1.0,2306.967773, set /instrumentation/turn-indicator/serviceable false, takeoff
37.614452,-87.834381,-86.640938,2.819828,0.09425,2.819828,0.09425,-89.999855,-90.0,2.55114,10.342282,3.563379,296.961548,280.322876,0.003147,-1.860396,20.261717,-0.001273,0.056263,0.043555,0.0,1.0,2309.279297, set /instrumentation/turn-indicator/serviceable false, takeoff
38.25375,-87.82373,-86.630287,2.82495,0.097945,2.82495,0.097945,-89.999855,-90.0,2.563654,10.719296,3.63764,296.936737,280.499634,0.001492,-1.923794,9.058875,-0.001346,0.056397,0.045271,0.0,1.0,2310.929199, set /instrumentation/turn-indicator/serviceable false, takeoff
39.171993,-87.807861,-86.614418,2.832244,0.102795,2.832244,0.102795,-89.999855,-90.0,2.582124,11.269668,3.743688,296.902802,280.850769,-5.87E-4,-2.00421,9.877116,-0.001399,0.056499,0.046512,0.0,1.0,2313.303711, set /instrumentation/turn-indicator/serviceable false, takeoff
39.782299,-87.796928,-86.603485,2.837196,0.106006,2.837196,0.106006,-89.999855,-90.0,2.594724,11.641328,3.799225,296.881226,281.142273,-0.001661,-2.051485,10.518852,-0.001469,0.056645,0.048209,0.0,1.0,2314.885742, set /instrumentation/turn-indicator/serviceable false, takeoff
40.669403,-87.780495,-86.587051,2.855731,0.1132,2.855731,0.1132,-89.999855,-90.0,2.614106,12.189894,4.267265,296.852051,281.639435,-0.00255,-2.112465,14.529963,-0.001514,0.056744,0.049287,0.0,1.0,2317.191162, set /instrumentation/turn-indicator/serviceable false, takeoff
41.275742,-87.768738,-86.575294,2.860551,0.117881,2.860551,0.117881,-89.999855,-90.0,2.628643,12.570405,4.407078,296.832947,282.023285,-0.003144,-2.149417,19.062565,-0.001617,0.057115,0.050746,0.0,1.0,2318.770752, set /instrumentation/turn-indicator/serviceable false, takeoff
42.20763,-87.74971,-86.556267,2.864593,0.122398,2.864593,0.122398,-89.999855,-90.0,2.651594,13.163704,4.520328,296.80545,282.67157,-0.003594,-2.199602,9.980685,-0.001684,0.057211,0.051701,0.0,1.0,2321.203857, set /instrumentation/turn-indicator/serviceable false, takeoff
42.759861,-87.737946,-86.544502,2.868185,0.12519,2.868185,0.12519,-89.999855,-90.0,2.665529,13.520191,4.597067,296.789398,283.083527,-0.003744,-2.225967,16.03595,-0.001749,0.057292,0.053076,0.0,1.0,2322.64917, set /instrumentation/turn-indicator/serviceable false, takeoff
43.712143,-87.716881,-86.52343,2.875408,0.130029,2.875408,0.130029,-89.999855,-90.0,2.690114,14.142218,4.722477,296.761597,283.829315,-0.003933,-2.266172,13.023678,-0.001788,0.057364,0.053879,0.0,1.0,2325.958984, set /instrumentation/turn-indicator/serviceable false, takeoff
44.285904,-87.703705,-86.510262,2.880142,0.133283,2.880142,0.133283,-89.999855,-90.0,2.705313,14.522438,4.791077,296.743469,284.295349,-0.00422,-2.287583,11.572766,-0.001858,0.057508,0.055269,0.0,1.0,2328.734619, set /instrumentation/turn-indicator/serviceable false, takeoff
45.157425,-87.682991,-86.489548,2.893517,0.138649,2.893517,0.138649,-89.999855,-90.0,2.730227,15.106234,5.386838,296.71405,285.015198,-0.004922,-2.316463,20.792494,-0.001904,0.057603,0.056175,0.0,1.0,2333.635742, set /instrumentation/turn-indicator/serviceable false, takeoff
45.753929,-87.668137,-86.474693,2.899618,0.143346,2.899618,0.143346,-89.999855,-90.0,2.748358,15.510065,5.492351,296.691711,285.510101,-0.005763,-2.333964,16.676563,-0.001981,0.05787,0.057646,0.0,1.0,2337.301514, set /instrumentation/turn-indicator/serviceable false, takeoff
46.672668,-87.644173,-86.450729,2.906369,0.148883,2.906369,0.148883,-89.999855,-90.0,2.776889,16.13806,5.610457,296.65448,286.264282,-0.007782,-2.357732,19.629734,-0.002048,0.057992,0.058763,0.0,1.0,2343.242188, set /instrumentation/turn-indicator/serviceable false, takeoff
47.293041,-87.627342,-86.433899,2.911177,0.152705,2.911177,0.152705,-89.999855,-90.0,2.796535,16.565996,5.69748,296.627197,286.761536,-0.009294,-2.371833,11.638183,-0.002127,0.058127,0.060625,0.0,1.0,2347.383057, set /instrumentation/turn-indicator/serviceable false, takeoff
48.185505,-87.602325,-86.408882,2.91818,0.157845,2.91818,0.157845,-89.999855,-90.0,2.825361,17.187185,5.824832,296.587219,287.450745,-0.011676,-2.38972,12.498455,-0.002181,0.058224,0.061989,0.0,1.0,2353.453613, set /instrumentation/turn-indicator/serviceable false, takeoff
48.779945,-87.585159,-86.391716,2.923081,0.161265,2.923081,0.161265,-89.999855,-90.0,2.844935,17.604475,5.910181,296.560272,287.887756,-0.013229,-2.400236,15.377078,-0.002255,0.058364,0.063988,0.0,1.0,2357.546143, set /instrumentation/turn-indicator/serviceable false, takeoff
49.670113,-87.55867,-86.365227,2.937997,0.174498,2.937997,0.174498,-89.999855,-90.0,2.876111,18.234999,6.805631,296.522064,288.502045,-0.014626,-2.414159,11.22154,-0.002304,0.058462,0.065335,0.0,1.0,2363.726318, set /instrumentation/turn-indicator/serviceable false, takeoff
50.262028,-87.540176,-86.346733,2.946051,0.179186,2.946051,0.179186,-89.999855,-90.0,2.899127,18.658314,6.941859,296.497345,288.880249,-0.015937,-2.422344,21.152502,-0.002493,0.05876,0.067245,0.0,1.0,2367.86377, set /instrumentation/turn-indicator/serviceable false, takeoff
51.149326,-87.511101,-86.31765,2.95217,0.183372,2.95217,0.183372,-89.999855,-90.0,2.934175,19.297588,7.071087,296.463043,289.394775,-0.016978,-2.433182,18.927324,-0.00256,0.058921,0.068481,0.0,1.0,2374.086914, set /instrumentation/turn-indicator/serviceable false, takeoff
51.74028,-87.490929,-86.297485,2.956474,0.186079,2.956474,0.186079,-89.999855,-90.0,2.957916,19.726559,7.164943,296.441376,289.700012,-0.01724,-2.439553,15.732849,-0.00262,0.059043,0.070197,0.0,1.0,2378.244141, set /instrumentation/turn-indicator/serviceable false, takeoff
52.625729,-87.459641,-86.266197,2.963216,0.189751,2.963216,0.189751,-89.999855,-90.0,2.994118,20.37406,7.307134,296.410797,290.097656,-0.016996,-2.447989,16.437542,-0.002658,0.059129,0.07128,0.0,1.0,2384.489258, set /instrumentation/turn-indicator/serviceable false, takeoff
53.215382,-87.438156,-86.244713,2.967962,0.192255,2.967962,0.192255,-89.999855,-90.0,3.018653,20.808346,7.403636,296.390442,290.321075,-0.016588,-2.452949,16.89146,-0.002711,0.059264,0.072809,0.0,1.0,2388.657959, set /instrumentation/turn-indicator/serviceable false, takeoff
54.098892,-87.405083,-86.211632,2.97478,0.195813,2.97478,0.195813,-89.999855,-90.0,3.056054,21.46357,7.546798,296.359497,290.592072,-0.01578,-2.459515,17.519186,-0.002747,0.059359,0.073827,0.0,1.0,2394.918213, set /instrumentation/turn-indicator/serviceable false, takeoff
54.687271,-87.3825,-86.189056,2.979422,0.198309,2.979422,0.198309,-89.999855,-90.0,3.081388,21.902843,7.643468,296.337372,290.729553,-0.015312,-2.463375,17.909494,-0.002797,0.059496,0.075374,0.0,1.0,2399.095947, set /instrumentation/turn-indicator/serviceable false, takeoff
55.569485,-87.347908,-86.154465,2.986044,0.2019,2.986044,0.2019,-89.999855,-90.0,3.119987,22.56531,7.787367,296.302094,290.871124,-0.014825,-2.468487,18.390474,-0.002833,0.059588,0.07648,0.0,1.0,2405.370605, set /instrumentation/turn-indicator/serviceable false, takeoff
56.156021,-87.324348,-86.130905,2.990619,0.204372,2.990619,0.204372,-89.999855,-90.0,3.146115,23.009254,7.881357,296.27655,290.922913,-0.014738,-2.471492,18.821991,-0.002884,0.059721,0.078244,0.0,1.0,2409.557129, set /instrumentation/turn-indicator/serviceable false, takeoff
57.035686,-87.28833,-86.094887,2.996973,0.208048,2.996973,0.208048,-89.999855,-90.0,3.185857,23.678501,7.962552,296.236633,290.938446,-0.014767,-2.47547,15.102139,-0.00292,0.059812,0.079521,0.0,1.0,2415.843994, set /instrumentation/turn-indicator/serviceable false, takeoff
57.621563,-87.263908,-86.070465,3.000633,0.211316,3.000633,0.211316,-89.999855,-90.0,3.212465,24.126816,8.013198,296.208649,290.908722,-0.015025,-2.477809,12.596266,-0.002972,0.059939,0.081517,0.0,1.0,2420.039551, set /instrumentation/turn-indicator/serviceable false, takeoff
58.49921,-87.226746,-86.033295,3.007097,0.21425,3.007097,0.21425,-89.999855,-90.0,3.25292,24.802401,8.158537,296.16687,290.807098,-0.015282,-2.480906,17.330816,-0.003019,0.060013,0.082916,0.0,1.0,2426.339844, set /instrumentation/turn-indicator/serviceable false, takeoff
59.0835,-87.201599,-86.008156,3.011597,0.216097,3.011597,0.216097,-89.999855,-90.0,3.280294,25.254799,8.254839,296.139221,290.7034,-0.015285,-2.482727,17.569582,-0.003061,0.060142,0.085005,0.0,1.0,2430.543945, set /instrumentation/turn-indicator/serviceable false, takeoff
59.95787,-87.163139,-85.969696,3.022714,0.216405,3.022714,0.216405,-89.999855,-90.0,3.323762,25.936291,8.847049,296.100189,290.498108,-0.014736,-2.485137,14.788693,-0.003087,0.060232,0.086388,0.0,1.0,2436.855469, set /instrumentation/turn-indicator/serviceable false, takeoff
60.539768,-87.136833,-85.94339,3.031024,0.217151,3.031024,0.217151,-89.999855,-90.0,3.353855,26.392481,9.580345,296.075439,290.33075,-0.013725,-2.486555,21.717196,-0.003091,0.060454,0.088339,0.0,1.0,2441.092041, set /instrumentation/turn-indicator/serviceable false, takeoff
61.409801,-87.095825,-85.902382,3.041615,0.218446,3.041615,0.218446,-89.999855,-90.0,3.403305,27.079433,9.956506,296.041351,290.038849,-0.011501,-2.488431,18.228575,-0.003102,0.06062,0.089577,0.0,1.0,2447.530273, set /instrumentation/turn-indicator/serviceable false, takeoff
61.989246,-87.067383,-85.87394,3.04537,0.219221,3.04537,0.219221,-89.999855,-90.0,3.436673,27.539122,10.053644,296.019562,289.820099,-0.009433,-2.489534,20.559759,-0.003121,0.060832,0.091281,0.0,1.0,2451.858887, set /instrumentation/turn-indicator/serviceable false, takeoff
62.857391,-87.023331,-85.829887,3.050583,0.219765,3.050583,0.219765,-89.999855,-90.0,3.48735,28.231133,10.207626,295.988251,289.461365,-0.005591,-2.490995,19.295397,-0.003132,0.060907,0.092371,0.0,1.0,2458.386475, set /instrumentation/turn-indicator/serviceable false, takeoff
63.435463,-86.993141,-85.799698,3.054501,0.219949,3.054501,0.219949,-89.999855,-90.0,3.521573,28.694073,10.314847,295.967163,289.20517,-0.00265,-2.491853,19.667215,-0.00314,0.061012,0.093936,0.0,1.0,2462.754395, set /instrumentation/turn-indicator/serviceable false, takeoff
64.300873,-86.946602,-85.753159,3.065531,0.224953,3.065531,0.224953,-89.999855,-90.0,3.575405,29.390781,11.041309,295.935394,288.801086,0.002196,-2.49299,19.598005,-0.003142,0.06109,0.094991,0.0,1.0,2469.322266, set /instrumentation/turn-indicator/serviceable false, fly_strait
64.878075,-86.914551,-85.721107,3.069623,0.231576,3.069623,0.231576,-89.999855,-90.0,3.612403,29.856737,11.146152,295.89447,288.521851,0.003212,-2.493659,20.09342,-0.003214,0.061311,0.0,0.0,1.0,2473.708984, set /instrumentation/turn-indicator/serviceable false, fly_strait
65.75869,-86.865112,-85.671669,3.070065,0.242819,3.070065,0.242819,-89.999855,-90.0,3.668524,30.55789,11.289248,295.501831,288.092712,-0.013045,-2.494544,20.740618,-0.003308,0.061392,0.002046,0.0,1.0,2480.328857, set /instrumentation/turn-indicator/serviceable false, fly_strait
66.354866,-86.831345,-85.637901,3.067786,0.233335,3.067786,0.233335,-89.999855,-90.0,3.706341,31.026819,11.391344,295.033386,287.800262,-0.040665,-2.495064,21.119097,-0.003469,0.061401,0.021678,0.0,1.0,2484.790527, set /instrumentation/turn-indicator/serviceable false, fly_strait
67.254936,-86.779594,-85.586151,3.071469,0.202757,3.071469,0.202757,-89.999855,-90.0,3.764924,31.732529,12.753729,294.196289,287.34967,-0.105042,-2.495753,21.694687,-0.003333,0.061356,0.0451,0.0,1.0,2491.560547, set /instrumentation/turn-indicator/serviceable false, fly_strait
67.855385,-86.743904,-85.550461,3.07523,0.176194,3.07523,0.176194,-89.999855,-90.0,3.807835,32.204597,12.934642,293.650513,287.039063,-0.15331,-2.496158,22.436514,-0.002897,0.061429,0.086955,0.0,1.0,2496.115479, set /instrumentation/turn-indicator/serviceable false, fly_strait
68.756348,-86.688271,-85.494827,3.0789,0.131057,3.0789,0.131057,-89.999855,-90.0,3.873091,32.91518,13.163353,293.063293,286.555054,-0.215112,-2.496694,23.422899,-0.002517,0.061505,0.114244,0.0,1.0,2502.996094, set /instrumentation/turn-indicator/serviceable false, fly_strait
69.354057,-86.649902,-85.456459,3.081287,0.097083,3.081287,0.097083,-89.999855,-90.0,3.918288,33.390476,14.070527,292.895813,286.220551,-0.242415,-2.497009,17.784449,-0.001872,0.061578,0.143605,0.0,1.0,2507.600098, set /instrumentation/turn-indicator/serviceable false, fly_strait
70.255203,-86.58979,-85.396347,3.035741,-0.034894,3.035741,-0.034894,-89.999855,-90.0,3.992119,34.105701,15.166485,293.055298,285.706177,-0.251659,-2.497427,19.480211,-0.001387,0.061626,0.151979,0.0,1.0,2514.531494, set /instrumentation/turn-indicator/serviceable false, fly_strait
70.850166,-86.547783,-85.35434,2.990774,-0.134752,2.990774,-0.134752,-89.999855,-90.0,4.042476,34.584049,14.904478,293.411804,285.36145,-0.232505,-2.497672,24.007587,4.98E-4,0.060715,0.144005,0.0,1.0,2519.167236, set /instrumentation/turn-indicator/serviceable false, fly_strait
71.711678,-86.482811,-85.289368,2.972999,-0.190957,2.972999,-0.190957,-89.999855,-90.0,4.114666,35.303593,14.034418,294.161896,284.857056,-0.169031,-2.497997,22.965899,0.001925,0.059815,0.12618,0.0,1.0,2526.06543, set /instrumentation/turn-indicator/serviceable false, fly_strait
72.264549,-86.438881,-85.245438,2.986041,-0.157101,2.986041,-0.157101,-89.999855,-90.0,4.162254,35.784393,14.936099,294.686981,284.538483,-0.111158,-2.498188,23.158298,0.002728,0.05946,0.088675,0.0,1.0,2530.580566, set /instrumentation/turn-indicator/serviceable false, fly_strait
73.082329,-86.370857,-85.177414,2.923231,0.089556,2.923231,0.089556,-89.999855,-90.0,4.246618,36.506802,18.220858,295.26651,284.101196,-0.020636,-2.498441,19.829216,0.002244,0.059721,0.062421,0.0,1.0,2537.217773, set /instrumentation/turn-indicator/serviceable false, fly_strait
73.635643,-86.322762,-85.129318,2.811724,0.351814,2.811724,0.351814,-89.999855,-90.0,4.307535,36.989044,17.966856,295.424225,283.842926,0.031657,-2.49859,20.917589,-0.001279,0.058465,0.033444,0.0,1.0,2541.596436, set /instrumentation/turn-indicator/serviceable false, fly_strait
74.490036,-86.247566,-85.054115,2.695853,0.711708,2.695853,0.711708,-89.999855,-90.0,4.392564,37.713364,16.288336,295.243591,283.511566,0.085986,-2.498786,18.49382,-0.005026,0.056234,0.025558,0.0,1.0,2548.190918, set /instrumentation/turn-indicator/serviceable false, fly_strait
75.074326,-86.19664,-85.003197,2.661702,0.813317,2.661702,0.813317,-89.999855,-90.0,4.447088,38.19796,16.510214,294.885223,283.327759,0.100944,-2.498902,19.050701,-0.010167,0.053917,0.03459,0.0,1.0,2552.644043, set /instrumentation/turn-indicator/serviceable false, fly_strait
75.960732,-86.118927,-84.925484,2.635032,0.603324,2.635032,0.603324,-79.999855,-80.0,4.537095,38.927929,20.344643,294.192291,283.102356,0.09445,-2.499055,21.503534,-0.011619,0.053234,0.052509,0.0,1.0,2559.430908, set /instrumentation/turn-indicator/serviceable false, fly_strait
76.549889,-86.064186,-84.870743,2.651691,0.230055,2.651691,0.230055,-79.999855,-80.0,4.614727,39.415607,26.525906,293.760498,282.981812,0.076366,-2.499146,25.631126,-0.008619,0.052701,0.087155,0.0,1.0,2564.012939, set /instrumentation/turn-indicator/serviceable false, fly_strait
77.420715,-85.969643,-84.776199,2.74414,-0.539104,2.74414,-0.539104,-79.999855,-80.0,4.786088,40.148659,43.13858,293.391052,282.840027,0.042523,-2.499265,21.712265,-0.003286,0.053034,0.108745,0.0,1.0,2570.931152, set /instrumentation/turn-indicator/serviceable false, fly_strait
77.985359,-85.890656,-84.697212,2.848879,-1.060387,2.848879,-1.060387,-79.999855,-80.0,4.957181,40.638195,59.539429,293.388641,282.769653,0.026198,-2.499335,26.720854,0.007701,0.054883,0.127217,0.0,1.0,2575.545166, set /instrumentation/turn-indicator/serviceable false, fly_strait
78.789299,-85.730637,-84.537193,3.047863,-1.580723,3.047863,-1.580723,-79.999855,-80.0,5.331797,41.373055,90.477707,293.730438,282.69986,0.020334,-2.499428,38.357388,0.015148,0.056978,0.127338,0.0,1.0,2582.396729, set /instrumentation/turn-indicator/serviceable false, fly_strait
79.285385,-85.584557,-84.391106,3.21163,-1.671924,3.21163,-1.671924,-79.999855,-80.0,5.674087,41.862785,114.401199,294.101685,282.677795,0.031819,-2.499482,48.901123,0.022582,0.060957,0.110248,0.0,1.0,2586.857422, set /instrumentation/turn-indicator/serviceable false, fly_strait
79.967644,-85.286301,-84.092857,3.438994,-1.369702,3.438994,-1.369702,-79.999855,-80.0,6.34482,42.596012,152.937088,294.635284,282.681824,0.066698,-2.499554,68.717155,0.023885,0.064233,0.091685,0.0,1.0,2593.062012, set /instrumentation/turn-indicator/serviceable false, fly_strait
80.390724,-85.024094,-83.83065,3.575267,-0.958135,3.575267,-0.958135,-79.999855,-80.0,6.898831,43.083256,178.423141,294.858337,282.707886,0.093975,-2.499597,84.158752,0.019567,0.06878,0.065006,0.0,1.0,2596.411377, set /instrumentation/turn-indicator/serviceable false, fly_strait
81.004868,-84.522034,-83.32859,3.707293,-0.265003,3.707293,-0.265003,-79.999855,-80.0,7.882288,43.810844,212.887878,294.854767,282.776031,0.12825,-2.499653,109.641838,0.013688,0.071505,0.053853,0.0,1.0,2600.53833, set /instrumentation/turn-indicator/serviceable false, fly_strait
81.409996,-84.110542,-82.917091,3.773173,0.11124,3.773173,0.11124,-79.999855,-80.0,8.627092,44.293369,232.910324,294.633636,282.835449,0.138133,-2.499686,127.392212,0.003786,0.074146,0.054031,0.0,1.0,2602.878906, set /instrumentation/turn-indicator/serviceable false, fly_strait
81.95845,-83.376648,-82.183205,3.858686,0.331771,3.858686,0.331771,-79.999855,-80.0,9.860054,45.013084,258.607635,294.117371,282.934479,0.130077,-2.49973,154.138077,-0.001589,0.075463,0.065088,0.0,1.0,2605.961182, set /instrumentation/turn-indicator/serviceable false, fly_strait
82.304352,-82.811333,-81.617889,3.924376,0.239347,3.924376,0.239347,-79.999855,-80.0,10.748232,45.490128,273.580811,293.76944,283.00058,0.111765,-2.499756,171.577774,-0.00474,0.077174,0.090901,0.0,1.0,2607.785645, set /instrumentation/turn-indicator/serviceable false, fly_strait
82.810013,-81.854561,-80.66111,4.022006,-0.172519,4.022006,-0.172519,-79.999855,-80.0,12.170919,46.20142,294.63681,293.468262,283.090637,0.0768,-2.49979,196.760193,-0.003419,0.078488,0.108298,0.0,1.0,2610.282715, set /instrumentation/turn-indicator/serviceable false, fly_strait
83.133926,-81.147423,-79.953979,4.096662,-0.500546,4.096662,-0.500546,-79.999855,-80.0,13.176466,46.672592,308.177002,293.479156,283.141632,0.058863,-2.49981,212.853622,0.002465,0.08044,0.123357,0.0,1.0,2611.82666, set /instrumentation/turn-indicator/serviceable false, fly_strait
83.58873,-79.987579,-78.794136,4.218475,-0.821351,4.218475,-0.821351,-79.999855,-80.0,14.773787,47.374252,331.08075,293.804504,283.203644,0.049989,-2.499836,236.098587,0.007151,0.081933,0.122812,0.0,1.0,2613.994629, set /instrumentation/turn-indicator/serviceable false, fly_strait
83.862953,-79.149055,-77.955612,4.324699,-0.838904,4.324699,-0.838904,-79.999855,-80.0,15.908832,47.8382,349.722443,294.148438,283.236572,0.05931,-2.499852,251.362152,0.011734,0.08437,0.106545,0.0,1.0,2615.347656, set /instrumentation/turn-indicator/serviceable false, fly_strait
84.229973,-77.789703,-76.59626,4.493951,-0.523446,4.493951,-0.523446,-79.999855,-80.0,17.739569,48.527519,382.031097,294.63028,283.275909,0.090161,-2.499873,274.793213,0.011984,0.086494,0.089348,0.0,1.0,2617.23999, set /instrumentation/turn-indicator/serviceable false, fly_strait
84.454247,-76.811943,-75.6185,4.603281,-0.160641,4.603281,-0.160641,-79.999855,-80.0,19.048229,48.982224,402.054749,294.823486,283.295807,0.114109,-2.499885,291.102936,0.007478,0.089879,0.065256,0.0,1.0,2618.416992, set /instrumentation/turn-indicator/serviceable false, fly_strait
84.787399,-75.23497,-74.041527,4.687964,0.393455,4.687964,0.393455,-69.999855,-70.0,21.123177,49.65657,425.532043,294.806763,283.313995,0.142415,-2.499901,316.203217,0.002295,0.092066,0.055595,0.0,1.0,2620.085449, set /instrumentation/turn-indicator/serviceable false, fly_strait
85.016663,-74.112213,-72.91877,4.708101,0.653135,4.708101,0.653135,-69.999855,-70.0,22.562029,50.100983,437.037201,294.610474,283.31604,0.148058,-2.49991,332.748505,-0.005621,0.093759,0.056432,0.0,1.0,2621.15625, set /instrumentation/turn-indicator/serviceable false, fly_strait
85.370468,-72.329559,-71.136116,4.725774,0.712723,4.725774,0.712723,-69.999855,-70.0,24.783525,50.76012,450.507385,294.189056,283.299042,0.135071,-2.499923,356.342224,-0.00933,0.094162,0.066246,0.0,1.0,2622.729736, set /instrumentation/turn-indicator/serviceable false, fly_strait
85.608749,-71.081497,-69.888054,4.752628,0.546445,4.752628,0.546445,-69.999855,-70.0,26.298759,51.194752,458.336121,293.933075,283.271698,0.115856,-2.49993,370.947418,-0.010182,0.094515,0.087317,0.0,1.0,2623.76416, set /instrumentation/turn-indicator/serviceable true, fly_strait
85.962173,-69.129555,-67.936111,4.813423,0.107921,4.813423,0.107921,-69.999855,-70.0,28.622622,51.839672,471.175262,293.770599,283.203949,0.083446,-2.461752,391.08075,-0.007806,0.095053,0.100116,0.0,1.0,2625.29541, set /instrumentation/turn-indicator/serviceable true, fly_strait
86.189133,-67.778877,-66.585434,4.867924,-0.191453,4.867924,-0.191453,-69.999855,-70.0,30.210293,52.264889,481.291626,293.848572,283.141113,0.069085,-2.356896,403.508575,-0.001542,0.096268,0.10824,0.0,1.0,2626.298828, set /instrumentation/turn-indicator/serviceable true, fly_strait
86.504082,-65.681778,-64.488335,4.961976,-0.433659,4.961976,-0.433659,-69.999855,-70.0,32.66103,52.895306,498.933258,294.194855,283.023956,0.065841,-2.102761,421.206299,0.002735,0.097358,0.104341,0.0,1.0,2627.763184, set /instrumentation/turn-indicator/serviceable true, fly_strait
86.692467,-64.236298,-63.04285,5.037977,-0.409164,5.037977,-0.409164,-59.999859,-60.0,34.346745,53.310379,512.213745,294.494232,282.933746,0.076928,-1.897839,432.710205,0.006195,0.09924,0.087027,0.0,1.0,2628.700684, set /instrumentation/turn-indicator/serviceable true, fly_strait
86.951012,-61.994804,-60.801361,5.136351,-0.101898,5.136351,-0.101898,-59.999859,-60.0,36.962631,53.924728,533.654114,294.844788,282.785614,0.105523,-1.59826,450.016052,0.005845,0.10076,0.072058,0.0,1.0,2630.038086, set /instrumentation/turn-indicator/serviceable true, fly_strait
87.117058,-60.449814,-59.256367,5.192243,0.192923,5.192243,0.192923,-59.999859,-60.0,38.766457,54.328606,548.084778,294.935974,282.680328,0.123904,-1.429976,461.774567,0.001456,0.102727,0.05453,0.0,1.0,2630.88916, set /instrumentation/turn-indicator/serviceable true, fly_strait
87.371468,-58.053818,-56.860374,5.2491,0.560586,5.2491,0.560586,-59.999859,-60.0,41.559788,54.92585,568.131042,294.809692,282.513428,0.139722,-1.244869,479.828888,-0.002756,0.103845,0.049971,0.0,1.0,2632.126953, set /instrumentation/turn-indicator/serviceable true, fly_strait
87.546738,-56.403847,-55.210403,5.284284,0.669727,5.284284,0.669727,-59.999859,-60.0,43.473907,55.318424,579.710876,294.594543,282.395325,0.137188,-1.158697,492.038025,-0.008008,0.104982,0.056285,0.0,1.0,2632.94043, set /instrumentation/turn-indicator/serviceable true, fly_strait
87.814804,-53.851887,-52.65844,5.334062,0.54295,5.334062,0.54295,-49.999859,-50.0,46.413731,55.89925,595.53186,294.242126,282.205353,0.116222,-1.054197,510.275208,-0.009568,0.105686,0.067043,0.0,1.0,2634.155762, set /instrumentation/turn-indicator/serviceable true, fly_strait
87.993805,-52.101044,-50.907597,5.373736,0.310224,5.373736,0.310224,-49.999859,-50.0,48.41642,56.281296,605.717041,294.081177,282.069122,0.096652,-0.983524,522.220764,-0.007756,0.106681,0.084663,0.0,1.0,2634.964844, set /instrumentation/turn-indicator/serviceable true, fly_strait
88.255287,-49.403339,-48.209896,5.441321,-0.101576,5.441321,-0.101576,-49.999859,-50.0,51.485397,56.846737,621.583618,294.072357,281.850677,0.070673,-0.854081,539.702454,-0.004432,0.107475,0.092711,0.0,1.0,2636.172363, set /instrumentation/turn-indicator/serviceable true, fly_strait
88.418205,-47.558254,-46.364811,5.501379,-0.315769,5.501379,-0.315769,-49.999859,-50.0,53.576939,57.218548,633.077454,294.222198,281.697449,0.063268,-0.752281,551.094971,0.001451,0.108826,0.093152,0.0,1.0,2636.966064, set /instrumentation/turn-indicator/serviceable true, fly_strait
88.636452,-44.720737,-43.527294,5.599738,-0.391007,5.599738,-0.391007,-39.999859,-40.0,56.790565,57.768234,652.139221,294.575317,281.461304,0.069884,-0.592999,567.977966,0.004511,0.110028,0.08566,0.0,1.0,2638.120361, set /instrumentation/turn-indicator/serviceable true, fly_strait
88.764496,-42.781502,-41.588058,5.670736,-0.276051,5.670736,-0.276051,-39.999859,-40.0,58.987926,58.129116,665.904114,294.808197,281.302948,0.083844,-0.496993,579.24646,0.005586,0.111995,0.068004,0.0,1.0,2638.856201, set /instrumentation/turn-indicator/serviceable true, fly_strait
88.943199,-39.798622,-38.605179,5.752234,0.060974,5.752234,0.060974,-39.999859,-40.0,62.3717,58.661758,686.821533,294.99231,281.068359,0.109301,-0.393338,596.403992,0.003944,0.113415,0.05636,0.0,1.0,2639.906738, set /instrumentation/turn-indicator/serviceable true, fly_strait
89.061775,-37.759308,-36.565861,5.79721,0.298089,5.79721,0.298089,-39.999859,-40.0,64.683846,59.011021,699.849182,294.967316,280.915192,0.121004,-0.355614,608.068298,-8.71E-4,0.115045,0.047154,0.0,1.0,2640.579834, set /instrumentation/turn-indicator/serviceable true, fly_strait
89.246758,-34.623695,-33.430248,5.84551,0.492176,5.84551,0.492176,-29.999857,-30.0,68.229019,59.526329,717.184448,294.738647,280.690002,0.123734,-0.338713,625.799438,-0.004258,0.115944,0.048404,0.0,1.0,2641.568359, set /instrumentation/turn-indicator/serviceable true, fly_strait
89.374718,-32.483147,-31.289701,5.877441,0.471968,5.877441,0.471968,-29.999857,-30.0,70.637192,59.864342,727.202332,294.526886,280.541901,0.11418,-0.340677,637.630737,-0.007031,0.11691,0.059837,0.0,1.0,2642.222412, set /instrumentation/turn-indicator/serviceable true, fly_strait
89.569847,-29.20047,-28.007025,5.924126,0.222161,5.924126,0.222161,-29.999857,-30.0,74.309166,60.363422,740.992371,294.284943,280.320923,0.089349,-0.334909,655.105896,-0.006742,0.117549,0.070425,0.0,1.0,2643.202637, set /instrumentation/turn-indicator/serviceable true, fly_strait
89.698532,-26.966372,-25.772928,5.962697,-0.017098,5.962697,-0.017098,-29.999857,-30.0,76.794548,60.690987,749.932678,294.238403,280.174103,0.073148,-0.314536,666.452271,-0.003174,0.118483,0.082523,0.0,1.0,2643.85498, set /instrumentation/turn-indicator/serviceable true, fly_strait
89.880356,-23.55007,-22.356625,6.029352,-0.31172,6.029352,-0.31172,-19.999857,-20.0,80.579994,61.174606,764.003479,294.378204,279.956268,0.058826,-0.253205,682.935791,2.44E-4,0.119254,0.08485,0.0,1.0,2644.822998, set /instrumentation/turn-indicator/serviceable true, fly_strait
89.988365,-21.230274,-20.036829,6.085494,-0.396299,6.085494,-0.396299,-19.999857,-20.0,83.144066,61.491764,774.201111,294.572876,279.814697,0.060266,-0.199192,693.600037,0.004453,0.120587,0.077859,0.0,1.0,2645.452393, set /instrumentation/turn-indicator/serviceable true, fly_strait
90.128929,-17.687634,-16.49419,6.165516,-0.289389,6.165516,-0.289389,-19.999857,-20.0,87.057053,61.959339,790.639282,294.875305,279.612213,0.07642,-0.122138,709.267029,0.005661,0.12171,0.068126,0.0,1.0,2646.356445, set /instrumentation/turn-indicator/serviceable true, fly_strait
90.212914,-15.283498,-14.090054,6.215788,-0.105734,6.215788,-0.105734,-19.999857,-20.0,89.71183,62.265469,801.829834,295.008331,279.48587,0.091196,-0.08584,719.600342,0.004134,0.12331,0.053004,0.0,1.0,2646.929199, set /instrumentation/turn-indicator/serviceable true, fly_strait
90.337555,-11.612942,-10.419497,6.265924,0.2003,6.265924,0.2003,-9.999858,-10.0,93.762573,62.716206,817.624573,295.013428,279.311035,0.109504,-0.068146,735.055054,0.00151,0.124316,0.046353,0.0,1.0,2647.750977, set /instrumentation/turn-indicator/serviceable true, fly_strait
90.424805,-9.123167,-7.929723,6.292412,0.342081,6.292412,0.342081,-9.999858,-10.0,96.504044,63.011162,826.748535,294.894653,279.20401,0.112871,-0.078153,745.323669,-0.002861,0.125318,0.046098,0.0,1.0,2648.27417, set /instrumentation/turn-indicator/serviceable true, fly_strait
90.563583,-5.326549,-4.133104,6.322906,0.347471,6.322906,0.347471,-9.999858,-10.0,100.668877,63.445618,838.453552,294.631561,279.055603,0.103146,-0.108318,760.532104,-0.004887,0.125848,0.052037,0.0,1.0,2649.033936, set /instrumentation/turn-indicator/serviceable true, fly_strait
90.659859,-2.756244,-1.562799,6.345116,0.221935,6.345116,0.221935,1.42E-4,0.0,103.475655,63.730156,845.285828,294.474304,278.963257,0.089413,-0.125315,770.427002,-0.004964,0.126458,0.065192,0.0,1.0,2649.532471, set /instrumentation/turn-indicator/serviceable true, fly_strait
90.804634,1.269389,2.462833,6.381939,-0.072517,6.381939,-0.072517,1.42E-4,0.0,107.727539,64.149597,855.169861,294.389221,278.832947,0.066952,-0.125633,784.739136,-0.003171,0.126902,0.073054,0.0,1.0,2650.273193, set /instrumentation/turn-indicator/serviceable true, fly_strait
90.896538,4.040473,5.233917,6.415566,-0.258656,6.415566,-0.258656,1.42E-4,0.0,110.589859,64.424355,862.047974,294.454498,278.751587,0.057726,-0.106303,793.885437,0.001036,0.127639,0.077309,0.0,1.0,2650.760254, set /instrumentation/turn-indicator/serviceable true, fly_strait
91.019066,8.248758,9.442203,6.474029,-0.380911,6.474029,-0.380911,10.000142,10.0,114.928802,64.829117,873.411926,294.6875,278.639648,0.057327,-0.056663,807.05072,0.003695,0.128311,0.074045,0.0,1.0,2651.470215, set /instrumentation/turn-indicator/serviceable true, fly_strait
91.088455,11.088179,12.281623,6.518782,-0.336762,6.518782,-0.336762,10.000142,10.0,117.854462,65.093903,881.777893,294.87027,278.573303,0.066054,-0.021047,815.533447,0.005442,0.129481,0.062395,0.0,1.0,2651.921875, set /instrumentation/turn-indicator/serviceable true, fly_strait
91.180374,15.398508,16.591953,6.571842,-0.112536,6.571842,-0.112536,20.000143,20.0,122.296829,65.483322,894.720398,295.050415,278.488342,0.085876,0.0138,827.987854,0.004811,0.130376,0.053256,0.0,1.0,2652.560791, set /instrumentation/turn-indicator/serviceable true, fly_strait
91.239815,18.306595,19.500038,6.600281,0.072452,6.600281,0.072452,20.000143,20.0,125.293427,65.737732,902.855652,295.065186,278.441833,0.09694,0.018167,836.189575,0.001608,0.131437,0.044249,0.0,1.0,2652.9646, set /instrumentation/turn-indicator/serviceable true, fly_strait
91.334755,22.720291,23.913734,6.625779,0.258752,6.625779,0.258752,20.000143,20.0,129.83606,66.111694,913.478333,294.925354,278.386017,0.103304,-0.003279,848.372864,-0.001035,0.132006,0.04351,0.0,1.0,2653.551025, set /instrumentation/turn-indicator/serviceable true, fly_strait
91.403419,25.696136,26.88958,6.63986,0.277086,6.63986,0.277086,30.000143,30.0,132.891251,66.356094,919.2901,294.768463,278.356476,0.098206,-0.02773,856.372253,-0.003696,0.132516,0.050502,0.0,1.0,2653.9375, set /instrumentation/turn-indicator/serviceable true, fly_strait
91.512444,30.206839,31.400284,6.659616,0.123993,6.659616,0.123993,30.000143,30.0,137.507553,66.715691,926.827087,294.563812,278.320526,0.08049,-0.05821,868.046631,-0.003958,0.132797,0.058347,0.0,1.0,2654.519775, set /instrumentation/turn-indicator/serviceable true, fly_strait
91.586418,33.24313,34.436573,6.67725,-0.049038,6.67725,-0.049038,30.000143,30.0,140.605179,66.950928,931.575439,294.504364,278.300629,0.067411,-0.065089,875.537537,-0.001771,0.133192,0.068579,0.0,1.0,2654.910156, set /instrumentation/turn-indicator/serviceable true, fly_strait
91.692177,37.83807,39.031513,6.711644,-0.285556,6.711644,-0.285556,40.000141,40.0,145.28215,67.297142,939.12915,294.578491,278.27594,0.054074,-0.047888,886.272766,7.01E-4,0.133545,0.071552,0.0,1.0,2655.494629, set /instrumentation/turn-indicator/serviceable true, fly_strait
91.754524,40.927124,42.120567,6.743434,-0.368069,6.743434,-0.368069,40.000141,40.0,148.422241,67.523506,944.810791,294.714783,278.263275,0.053644,-0.022758,893.10968,0.004079,0.134233,0.067845,0.0,1.0,2655.876709, set /instrumentation/turn-indicator/serviceable true, fly_strait
91.832893,45.598629,46.792076,6.791701,-0.312362,6.791701,-0.312362,50.000141,50.0,153.170441,67.856209,954.330688,294.945892,278.251526,0.064764,0.017718,902.987976,0.005258,0.134869,0.061031,0.0,1.0,2656.426025, set /instrumentation/turn-indicator/serviceable true, fly_strait
91.877548,48.738487,49.931931,6.822656,-0.182354,6.822656,-0.182354,50.000141,50.0,156.363037,68.073357,961.010071,295.056915,278.249237,0.076288,0.036211,909.404114,0.004462,0.135834,0.049475,0.0,1.0,2656.772217, set /instrumentation/turn-indicator/serviceable true, fly_strait
91.942635,53.487278,54.680721,6.851659,0.05232,6.851659,0.05232,50.000141,50.0,161.193085,68.39209,970.482666,295.077637,278.254272,0.091723,0.0382,918.893066,0.002605,0.136453,0.043924,0.0,1.0,2657.265381, set /instrumentation/turn-indicator/serviceable true, fly_strait
91.989288,56.67918,57.872623,6.864764,0.169036,6.864764,0.169036,60.000141,60.0,164.437469,68.599998,975.831299,294.994598,278.26236,0.095414,0.023356,925.15387,-7.47E-4,0.137033,0.042888,0.0,1.0,2657.58374, set /instrumentation/turn-indicator/serviceable true, fly_strait
92.066803,61.504753,62.6982,6.876692,0.188499,6.876692,0.188499,60.000141,60.0,169.334183,68.905296,982.363403,294.794983,278.278839,0.089165,-0.010783,934.394653,-0.002415,0.137295,0.04704,0.0,1.0,2658.057617, set /instrumentation/turn-indicator/serviceable true, fly_strait
92.122757,64.745476,65.938919,6.88521,0.100423,6.88521,0.100423,60.000141,60.0,172.615036,69.10466,985.949097,294.669952,278.290924,0.078823,-0.031239,940.391846,-0.002693,0.137534,0.057021,0.0,1.0,2658.375977, set /instrumentation/turn-indicator/serviceable true, fly_strait
92.208763,69.639023,70.832466,6.902349,-0.120936,6.902349,-0.120936,70.000145,70.0,177.557877,69.39772,991.048767,294.594696,278.308167,0.061138,-0.041953,949.03479,-0.001435,0.137704,0.063272,0.0,1.0,2658.858887, set /instrumentation/turn-indicator/serviceable true, fly_strait
92.263535,72.921455,74.114899,6.920643,-0.264851,6.920643,-0.264851,70.000145,70.0,180.86763,69.589172,994.723022,294.638794,278.318512,0.053592,-0.033241,954.528381,0.001728,0.138047,0.067035,0.0,1.0,2659.181641, set /instrumentation/turn-indicator/serviceable true, fly_strait
92.335136,77.873512,79.066956,6.955599,-0.362653,6.955599,-0.362653,80.000145,80.0,185.857254,69.87043,1001.124268,294.812714,278.332733,0.052806,-0.002644,962.383423,0.003784,0.138413,0.06483,0.0,1.0,2659.657227, set /instrumentation/turn-indicator/serviceable true, fly_strait
92.374077,81.193565,82.387009,6.983375,-0.330974,6.983375,-0.330974,80.000145,80.0,189.202698,70.053917,1006.047974,294.952026,278.342194,0.059541,0.02064,967.411926,0.005181,0.139112,0.056134,0.0,1.0,2659.961914, set /instrumentation/turn-indicator/serviceable true, fly_strait
92.423416,86.202202,87.395645,7.01595,-0.159744,7.01595,-0.159744,90.000145,90.0,194.253021,70.322983,1013.826477,295.089569,278.357483,0.075189,0.04216,974.760925,0.004728,0.139667,0.049168,0.0,1.0,2660.394287, set /instrumentation/turn-indicator/serviceable true, fly_strait
92.454933,89.560822,90.754265,7.032079,-0.017615,7.032079,-0.017615,90.000145,90.0,197.641006,70.498245,1018.720825,295.099609,278.368591,0.083992,0.042322,979.590515,0.002282,0.140319,0.042291,0.0,1.0,2660.667725, set /instrumentation/turn-indicator/serviceable true, fly_strait
92.507057,94.628235,95.821678,7.043298,0.124249,7.043298,0.124249,90.000145,90.0,202.751251,70.755135,1024.899048,294.989014,278.385498,0.089072,0.021405,986.768066,2.52E-4,0.140642,0.041789,0.0,1.0,2661.066162, set /instrumentation/turn-indicator/serviceable true, fly_strait
92.546394,98.025589,99.219032,7.048081,0.136228,7.048081,0.136228,100.000145,100.0,206.173248,70.922554,1028.070313,294.866638,278.395691,0.085026,3.7E-5,991.486084,-0.001775,0.140866,0.047319,0.0,1.0,2661.330078, set /instrumentation/turn-indicator/serviceable true, fly_strait
92.610909,103.148148,104.341599,7.055538,0.014658,7.055538,0.014658,100.000145,100.0,211.323975,71.168213,1031.993286,294.709717,278.406982,0.071045,-0.026308,998.371887,-0.001946,0.140962,0.053438,0.0,1.0,2661.730469, set /instrumentation/turn-indicator/serviceable true, fly_strait
92.655327,106.57943,107.772873,7.064137,-0.11955,7.064137,-0.11955,110.000145,110.0,214.768204,71.328484,1034.458496,294.666748,278.410828,0.060874,-0.032894,1002.78302,-2.09E-4,0.141111,0.061284,0.0,1.0,2662.001221, set /instrumentation/turn-indicator/serviceable true, fly_strait
92.718163,111.74855,112.941994,7.084512,-0.297877,7.084512,-0.297877,110.000145,110.0,219.950806,71.563744,1038.588745,294.729492,278.410645,0.050864,-0.021028,1009.084534,0.001708,0.141283,0.063432,0.0,1.0,2662.408936, set /instrumentation/turn-indicator/serviceable true, fly_strait
92.753967,115.20871,116.402153,7.104591,-0.355554,7.104591,-0.355554,110.000145,110.0,223.418365,71.71714,1041.909302,294.837036,278.407135,0.051,-0.002627,1013.083801,0.004255,0.14169,0.060295,0.0,1.0,2662.67627, set /instrumentation/turn-indicator/serviceable true, fly_strait
92.796677,120.419868,121.613312,7.135154,-0.301992,7.135154,-0.301992,120.000145,120.0,228.642502,71.941933,1047.684814,295.013092,278.398468,0.060399,0.026376,1018.851135,0.005079,0.142092,0.054918,0.0,1.0,2663.060791, set /instrumentation/turn-indicator/serviceable true, fly_strait
92.819824,123.90831,125.101753,7.154144,-0.19657,7.154144,-0.19657,120.000145,120.0,232.14183,72.088219,1051.780151,295.092773,278.391327,0.069624,0.038595,1022.598389,0.004314,0.142703,0.046115,0.0,1.0,2663.303711, set /instrumentation/turn-indicator/serviceable true, fly_strait
92.853615,129.163254,130.356705,7.170018,-0.015928,7.170018,-0.015928,130.000137,130.0,237.415863,72.302269,1057.477295,295.096069,278.379242,0.081438,0.036681,1028.154419,0.002808,0.143083,0.042131,0.0,1.0,2663.649902, set /instrumentation/turn-indicator/serviceable true, fly_strait
92.878937,132.681549,133.875,7.175689,0.068282,7.175689,0.068282,130.000137,130.0,240.946259,72.441483,1060.541992,295.024139,278.369995,0.083801,0.023207,1031.831543,2.28E-4,0.1434,0.041966,0.0,1.0,2663.874268, set /instrumentation/turn-indicator/serviceable true, fly_strait
92.923187,137.980591,139.174026,7.179039,0.069362,7.179039,0.069362,140.000137,140.0,246.258514,72.645302,1064.046143,294.86557,278.352936,0.077982,-0.00474,1037.268311,-9.75E-4,0.143514,0.045563,0.0,1.0,2664.209961, set /instrumentation/turn-indicator/serviceable true, fly_strait
92.956245,141.526642,142.720078,7.181741,-0.007243,7.181741,-0.007243,140.000137,140.0,249.808517,72.778023,1065.848267,294.772339,278.338531,0.069542,-0.020455,1040.795288,-9.91E-4,0.143581,0.053491,0.0,1.0,2664.436768, set /instrumentation/turn-indicator/serviceable true, fly_strait
93.007423,146.863647,148.057098,7.190559,-0.182274,7.190559,-0.182274,150.000137,150.0,255.144348,72.972565,1068.439575,294.726593,278.311401,0.055909,-0.027299,1045.862793,1.03E-4,0.143635,0.058153,0.0,1.0,2664.782715, set /instrumentation/turn-indicator/serviceable true, fly_strait
93.039337,150.432556,151.626007,7.201915,-0.288805,7.201915,-0.288805,150.000137,150.0,258.709229,73.099297,1070.460205,294.770203,278.289795,0.050668,-0.0194,1049.06897,0.002604,0.143811,0.06044,0.0,1.0,2665.014893, set /instrumentation/turn-indicator/serviceable true, fly_strait
93.078987,155.8013,156.994751,7.224786,-0.348179,7.224786,-0.348179,160.000137,160.0,264.070892,73.284897,1074.251221,294.912537,278.253448,0.051431,0.004922,1053.634766,0.004126,0.144038,0.05826,0.0,1.0,2665.356689, set /instrumentation/turn-indicator/serviceable true, fly_strait
93.099007,159.390717,160.584152,7.242671,-0.311281,7.242671,-0.311281,160.000137,160.0,267.656891,73.405579,1077.290161,295.018433,278.227753,0.057452,0.022212,1056.552002,0.004974,0.144496,0.051143,0.0,1.0,2665.575684, set /instrumentation/turn-indicator/serviceable true, fly_strait
93.123085,164.790878,165.984329,7.262143,-0.167727,7.262143,-0.167727,160.000137,160.0,273.055725,73.581947,1082.07019,295.111359,278.188751,0.070079,0.036091,1060.822266,0.004447,0.144853,0.045848,0.0,1.0,2665.886475, set /instrumentation/turn-indicator/serviceable true, fly_strait
93.138763,168.402145,169.595581,7.270642,-0.058325,7.270642,-0.058325,170.000137,170.0,276.667725,73.696434,1084.958496,295.106384,278.162964,0.076554,0.033857,1063.638184,0.002396,0.145243,0.041202,0.0,1.0,2666.083984, set /instrumentation/turn-indicator/serviceable true, fly_strait
93.166634,173.835907,175.029343,7.274423,0.037706,7.274423,0.037706,170.000137,170.0,282.101868,73.86367,1088.383301,295.005585,278.124451,0.079212,0.014959,1067.834106,8.33E-4,0.145413,0.041451,0.0,1.0,2666.373535, set /instrumentation/turn-indicator/serviceable true, fly_strait
93.189178,177.469223,178.662659,7.274781,0.033392,7.274781,0.033392,180.000137,180.0,285.732697,73.972305,1089.97522,294.907471,278.098267,0.075143,-0.002169,1070.592529,-5.39E-4,0.145488,0.04649,0.0,1.0,2666.56665, set /instrumentation/turn-indicator/serviceable true, fly_strait
93.227592,182.933823,184.127274,7.276442,-0.077138,7.276442,-0.077138,180.000137,180.0,291.187439,74.131226,1091.799561,294.794098,278.057159,0.063463,-0.021185,1074.60376,-4.77E-4,0.145496,0.051396,0.0,1.0,2666.861816, set /instrumentation/turn-indicator/serviceable true, fly_strait
93.254173,186.585617,187.779053,7.280749,-0.184697,7.280749,-0.184697,190.000137,190.0,294.828796,74.234581,1092.97644,294.772583,278.028198,0.05575,-0.024341,1077.15625,0.001102,0.145529,0.057065,0.0,1.0,2667.0625, set /instrumentation/turn-indicator/serviceable true, fly_strait
93.290527,192.074905,193.268356,7.293989,-0.312927,7.293989,-0.312927,190.000137,190.0,300.299072,74.385811,1095.199219,294.838928,277.982941,0.049232,-0.012317,1080.772339,0.002639,0.145615,0.058141,0.0,1.0,2667.365234, set /instrumentation/turn-indicator/serviceable true, fly_strait
93.309868,195.741791,196.935226,7.30747,-0.343878,7.30747,-0.343878,200.000137,200.0,303.953064,74.48407,1097.184204,294.928802,277.952362,0.050466,0.002885,1083.050903,0.00447,0.14588,0.054823,0.0,1.0,2667.563721, set /instrumentation/turn-indicator/serviceable true, fly_strait
93.330894,201.253296,202.446747,7.327057,-0.281209,7.327057,-0.281209,200.000137,200.0,309.447998,74.627518,1100.762939,295.061066,277.907715,0.059143,0.024395,1086.328125,0.004913,0.146149,0.05033,0.0,1.0,2667.849365, set /instrumentation/turn-indicator/serviceable true, fly_strait
93.341576,204.935516,206.128967,7.338204,-0.190902,7.338204,-0.190902,200.000137,200.0,313.121552,74.72049,1103.275146,295.111633,277.879669,0.066538,0.031871,1088.461792,0.004017,0.146541,0.043716,0.0,1.0,2668.030029, set /instrumentation/turn-indicator/serviceable true, fly_strait
93.358086,210.47139,211.664841,7.345437,-0.053979,7.345437,-0.053979,210.000137,210.0,318.646912,74.855995,1106.603394,295.093018,277.84079,0.07492,0.026784,1091.640381,0.002727,0.146764,0.041188,0.0,1.0,2668.289551, set /instrumentation/turn-indicator/serviceable true, fly_strait
93.371895,214.17041,215.363861,7.346458,3.6E-5,7.346458,3.6E-5,210.000137,210.0,322.338531,74.943779,1108.230469,295.02597,277.816833,0.075701,0.014522,1093.752075,7.71E-4,0.146909,0.042119,0.0,1.0,2668.459229, set /instrumentation/turn-indicator/serviceable true, fly_strait
93.398003,219.730896,220.924332,7.345187,-0.021728,7.345187,-0.021728,220.000137,220.0,327.884277,75.071838,1109.878906,294.899323,277.782837,0.069573,-0.007541,1096.873047,-1.0E-6,0.146929,0.045471,0.0,1.0,2668.715576, set /instrumentation/turn-indicator/serviceable true, fly_strait
93.418228,223.445053,224.638489,7.345125,-0.093444,7.345125,-0.093444,220.000137,220.0,331.585236,75.15493,1110.645142,294.834198,277.760834,0.062506,-0.018383,1098.887695,3.1E-4,0.146904,0.051804,0.0,1.0,2668.890137, set /instrumentation/turn-indicator/serviceable true, fly_strait
93.449287,229.025528,230.218964,7.350082,-0.232986,7.350082,-0.232986,230.000137,230.0,337.141418,75.276299,1111.848145,294.818237,277.728271,0.052322,-0.020278,1101.75708,0.001335,0.146903,0.05506,0.0,1.0,2669.157959, set /instrumentation/turn-indicator/serviceable true, turn_+45
93.467468,232.751328,233.944778,7.357985,-0.314273,7.357985,-0.314273,230.000137,230.0,340.849426,75.355057,1112.977295,294.875702,277.707092,0.043234,-0.009799,1103.554932,0.001109,0.147002,0.1,0.0,1.0,2669.337402, set /instrumentation/turn-indicator/serviceable false, turn_+45
93.478821,238.347855,239.541306,7.382112,-0.368596,7.382112,-0.368596,240.000137,240.0,346.420227,75.46981,1115.481934,295.190796,277.677673,0.040455,-0.235563,1106.099609,0.001497,0.14716,0.1,0.0,1.0,2669.596436, set /instrumentation/turn-indicator/serviceable false, turn_+45
93.469376,242.084396,243.277832,7.408427,-0.274226,7.408427,-0.274226,240.000137,240.0,350.142883,75.543884,1118.181519,295.49585,277.661835,0.052633,-0.45148,1107.732056,0.001755,0.147642,0.1,0.0,1.0,2669.749512, set /instrumentation/turn-indicator/serviceable false, turn_+45
93.430557,247.697174,248.89061,7.443392,0.095352,7.443392,0.095352,250.000137,250.0,355.747375,75.650948,1123.635986,295.946228,277.64798,0.084724,-0.737375,1110.101196,0.001306,0.148169,0.1,0.0,1.0,2669.931396, set /instrumentation/turn-indicator/serviceable false, turn_+45
93.395561,251.44928,252.642715,7.458699,0.458075,7.458699,0.458075,250.000137,250.0,359.499573,75.719429,1127.532471,296.174713,277.647491,0.109126,-0.905444,1111.885864,-4.54E-4,0.148868,0.1,0.0,1.0,2670.018555, set /instrumentation/turn-indicator/serviceable false, turn_+45
93.343605,257.092407,258.285828,7.46076,1.056448,7.46076,1.056448,260.000153,260.0,365.150482,75.817696,1132.337402,296.357574,277.661713,0.140415,-1.127983,1114.78125,-0.002181,0.149174,0.1,0.0,1.0,2670.110352, set /instrumentation/turn-indicator/serviceable false, turn_+45
93.315102,260.865051,262.058502,7.455738,1.43104,7.455738,1.43104,260.000153,260.0,368.928558,75.880302,1134.264404,296.380219,277.681122,0.153612,-1.258807,1116.856445,-0.005031,0.149215,0.1,0.0,1.0,2670.157471, set /instrumentation/turn-indicator/serviceable false, turn_+45
93.284607,266.538818,267.732269,7.447002,1.86037,7.447002,1.86037,270.000153,270.0,374.603668,75.970169,1135.431152,296.324799,277.723602,0.159809,-1.43203,1120.081909,-0.006814,0.149115,0.1,0.0,1.0,2670.226318, set /instrumentation/turn-indicator/serviceable false, turn_+45
93.271599,270.329742,271.523193,7.441144,2.04629,7.441144,2.04629,270.000153,270.0,378.388336,76.027618,1135.273315,296.275146,277.75943,0.156131,-1.533863,1122.215576,-0.008859,0.14894,0.1,0.0,1.0,2670.278076, set /instrumentation/turn-indicator/serviceable false, turn_+45
93.259735,276.025391,277.218842,7.433646,2.182837,7.433646,2.182837,280.000153,280.0,384.062195,76.110481,1134.185059,296.253845,277.822205,0.144103,-1.668699,1125.229126,-0.009744,0.148823,0.1,0.0,1.0,2670.370117, set /instrumentation/turn-indicator/serviceable false, turn_+45
93.254509,279.82666,281.020081,7.428473,2.21346,7.428473,2.21346,280.000153,280.0,387.841187,76.163696,1133.215698,296.301575,277.869232,0.135316,-1.747965,1127.035889,-0.010394,0.148673,0.1,0.0,1.0,2670.440918, set /instrumentation/turn-indicator/serviceable false, turn_+45
93.246262,285.531738,286.725189,7.422991,2.231709,7.422991,2.231709,280.000153,280.0,393.503693,76.240669,1131.900635,296.476288,277.947327,0.125958,-1.85292,1129.361084,-0.01054,0.148569,0.1,0.0,1.0,2670.556152, set /instrumentation/turn-indicator/serviceable false, turn_+45
93.238197,289.335938,290.529388,7.42076,2.259681,7.42076,2.259681,290.000153,290.0,397.275665,76.290123,1131.355103,296.648987,278.004913,0.12388,-1.91462,1130.640381,-0.010627,0.14846,0.1,0.0,1.0,2670.63501, set /instrumentation/turn-indicator/serviceable false, turn_+45
93.220184,295.042236,296.235657,7.420199,2.359374,7.420199,2.359374,290.000153,290.0,402.931671,76.361504,1131.178467,296.952454,278.100983,0.127131,-1.996317,1132.183472,-0.01076,0.148415,0.1,0.0,1.0,2670.748535, set /instrumentation/turn-indicator/serviceable false, turn_+45
93.204521,298.846191,300.039612,7.420307,2.468441,7.420307,2.468441,300.000153,300.0,406.702667,76.407188,1131.436523,297.15863,278.172455,0.132376,-2.044344,1133.001831,-0.011235,0.148404,0.1,0.0,1.0,2670.818115, set /instrumentation/turn-indicator/serviceable false, turn_+45
93.17807,304.552002,305.745453,7.41945,2.67596,7.41945,2.67596,300.000153,300.0,412.361359,76.472839,1132.036255,297.43988,278.292023,0.141884,-2.107936,1133.997681,-0.011754,0.148406,0.1,0.0,1.0,2670.911621, set /instrumentation/turn-indicator/serviceable false, turn_+45
93.160393,308.356079,309.54953,7.417781,2.827176,7.417781,2.827176,310.000153,310.0,416.135437,76.514702,1132.360107,297.59906,278.380371,0.147521,-2.14532,1134.550415,-0.012743,0.148389,0.1,0.0,1.0,2670.968018, set /instrumentation/turn-indicator/serviceable false, turn_+45
