airspeed_indicator_indicated_speed_kt,altimeter_indicated_altitude_ft,altimeter_pressure_alt_ft,attitude_indicator_indicated_pitch_deg,attitude_indicator_indicated_roll_deg,attitude_indicator_internal_pitch_deg,attitude_indicator_internal_roll_deg,encoder_indicated_altitude_ft,encoder_pressure_alt_ft,gps_indicated_altitude_ft,gps_indicated_ground_speed_kt,gps_indicated_vertical_speed,indicated_heading_deg,magnetic_compass_indicated_heading_deg,slip_skid_ball_indicated_slip_skid,turn_indicator_indicated_turn_rate,vertical_speed_indicator_indicated_speed_fpm,flight_aileron,flight_elevator,flight_rudder,flight_flaps,engine_throttle,engine_rpm,Command_fault,Command
6.525526,-87.982544,-86.789101,2.968866,1.35255,2.590964,0.092877,-89.999855,-90.0,2.286516,0.0,0.007704,297.867828,278.051666,0.012377,-0.050891,-13.165772,-0.0,0.0,0.0,0.0,0.0,600.212585,, takeoff
6.586315,-87.992584,-86.799141,2.974481,1.370174,2.591237,0.092693,-89.999855,-90.0,2.286544,0.0,0.007838,297.867004,280.335571,0.012406,-0.046044,-9.398815,-0.0,0.0,0.0,0.0,0.0,600.24707,, takeoff
6.690599,-88.004677,-86.811234,2.765085,0.699805,2.582725,0.091937,-89.999855,-90.0,2.286546,4.0E-5,-0.011087,297.865631,283.794739,0.012325,-0.039492,-17.605227,-0.019574,0.051825,4.1E-5,0.0,1.0,676.619385,, takeoff
6.759832,-88.010574,-86.817131,2.634387,0.331467,2.562036,0.090295,-89.999855,-90.0,2.28648,1.45E-4,-0.031218,297.864655,285.884613,0.012236,-0.035948,-7.179806,-0.009997,0.051654,1.1E-4,0.0,1.0,784.606812,, takeoff
6.902297,-88.017921,-86.824478,2.509551,0.084432,2.509551,0.084432,-89.999855,-90.0,2.286311,7.5E-4,-0.01782,297.862946,289.026794,0.012216,-0.031151,-18.537884,-0.004735,0.051241,1.59E-4,0.0,1.0,1004.760498,, takeoff
7.048883,-88.02179,-86.828346,2.491788,0.077783,2.491788,0.077783,-89.999855,-90.0,2.286322,0.002354,0.022442,297.861664,291.015717,0.012691,-0.028414,-13.012076,-0.001206,0.050191,2.44E-4,0.0,1.0,1165.380981,, takeoff
7.376863,-88.026482,-86.833038,2.493441,0.064042,2.493441,0.064042,-89.999855,-90.0,2.286606,0.009092,0.08508,297.859131,293.886108,0.014734,-0.024871,-10.620462,-0.001111,0.049836,3.08E-4,0.0,1.0,1407.30249,, takeoff
7.646945,-88.028748,-86.835304,2.503633,0.054075,2.503633,0.054075,-89.999855,-90.0,2.286937,0.017319,0.121256,297.856659,295.536835,0.017055,-0.023109,-8.455222,-9.15E-4,0.049869,4.35E-4,0.0,1.0,1544.547241,, takeoff
8.175068,-88.031471,-86.838028,2.524704,0.037697,2.524704,0.037697,-89.999855,-90.0,2.287684,0.038975,0.177362,297.850494,297.894348,0.022024,-0.021057,-9.626606,-7.73E-4,0.050073,5.58E-4,0.0,1.0,1729.883179,, takeoff
8.593018,-88.032814,-86.839371,2.539738,0.026899,2.539738,0.026899,-89.999855,-90.0,2.28834,0.060769,0.215849,297.844086,299.302734,0.024754,-0.020217,-16.51882,-5.39E-4,0.050494,8.67E-4,0.0,1.0,1831.871826,, takeoff
9.078396,-88.033867,-86.840424,2.554563,0.016279,2.554563,0.016279,-89.999855,-90.0,2.289163,0.090799,0.256312,297.834961,300.623932,0.028702,-0.019812,-8.463346,-3.84E-4,0.050795,0.001187,0.0,1.0,1920.411377,, takeoff
9.078396,-88.033867,-86.840424,2.554563,0.016279,2.554563,0.016279,-89.999855,-90.0,2.289163,0.090799,0.256312,297.834961,300.623932,0.028702,-0.019812,-8.463346,-3.84E-4,0.050795,0.001187,0.0,1.0,1920.411377,, takeoff
10.691483,-88.035522,-86.842079,2.589741,-0.008371,2.589741,-0.008371,-89.999855,-90.0,2.292413,0.225549,0.388655,297.793091,303.561005,0.028993,-0.021051,-17.133671,-2.33E-4,0.051091,0.001643,0.0,1.0,2091.073975,, takeoff
11.282505,-88.035378,-86.841934,2.599179,-0.014375,2.599179,-0.014375,-89.999855,-90.0,2.293798,0.287866,0.438028,297.773315,304.247528,0.02909,-0.022208,-16.555923,1.2E-4,0.051795,0.003737,0.0,1.0,2126.648193,, takeoff
12.202358,-88.034729,-86.841286,2.609354,-0.021692,2.609354,-0.021692,-89.999855,-90.0,2.296188,0.398533,0.517347,297.743774,305.003082,0.029204,-0.02366,-13.6769,2.05E-4,0.051984,0.004726,0.0,1.0,2165.89917,, takeoff
12.804074,-88.034058,-86.840614,2.614965,-0.025495,2.614965,-0.025495,-89.999855,-90.0,2.297922,0.480184,0.566385,297.725098,305.315948,0.029338,-0.024418,-9.848392,3.1E-4,0.052187,0.006203,0.0,1.0,2184.014648,, takeoff
13.790548,-88.032578,-86.839134,2.622793,-0.030463,2.622793,-0.030463,-89.999855,-90.0,2.30106,0.629509,0.651197,297.698273,305.549194,0.02962,-0.024946,10.060354,3.64E-4,0.052299,0.007136,0.0,1.0,2204.788086,, takeoff
14.411169,-88.031418,-86.837975,2.627279,-0.032871,2.627279,-0.032871,-89.999855,-90.0,2.303233,0.733447,0.705327,297.683807,305.532104,0.029987,-0.024862,16.026913,4.35E-4,0.052456,0.008478,0.0,1.0,2214.628906,, takeoff
15.418765,-88.029175,-86.835732,2.633798,-0.035956,2.633798,-0.035956,-89.999855,-90.0,2.307091,0.918319,0.793723,297.666901,305.257813,0.030578,-0.023713,14.656636,4.7E-4,0.052546,0.009201,0.0,1.0,2227.401367,, takeoff
16.048599,-88.02755,-86.834106,2.637785,-0.037606,2.637785,-0.037606,-89.999855,-90.0,2.309718,1.044075,0.84812,297.660492,304.942627,0.031126,-0.022429,9.48058,5.14E-4,0.052676,0.010046,0.0,1.0,2233.840088,, takeoff
17.039783,-88.024651,-86.831207,2.643805,-0.040016,2.643805,-0.040016,-89.999855,-90.0,2.314186,1.257287,0.934976,297.657776,304.244324,0.032187,-0.019498,11.623796,5.37E-4,0.052756,0.010367,0.0,1.0,2242.17041,, takeoff
17.702826,-88.022476,-86.829033,2.647896,-0.041535,2.647896,-0.041535,-89.999855,-90.0,2.317408,1.410337,0.993426,297.660614,303.651367,0.033063,-0.017044,9.130638,5.72E-4,0.052876,0.010503,0.0,1.0,2246.794922,, takeoff
18.699846,-88.01886,-86.825417,2.653911,-0.043743,2.653911,-0.043743,-89.999855,-90.0,2.322607,1.65592,1.08132,297.671021,302.592194,0.034583,-0.01284,15.087266,5.93E-4,0.052958,0.010361,0.0,1.0,2252.683105,, takeoff
19.698734,-88.014816,-86.821373,2.660052,-0.045826,2.660052,-0.045826,-89.999855,-90.0,2.328247,1.920264,1.169348,297.687378,301.356812,0.036245,-0.00832,9.25648,6.25E-4,0.053078,0.00984,0.0,1.0,2257.624756,, takeoff
20.39344,-88.011749,-86.818306,2.664351,-0.047183,2.664351,-0.047183,-89.999855,-90.0,2.332422,2.114604,1.231851,297.70105,300.41214,0.037353,-0.005208,12.420047,6.55E-4,0.053201,0.009023,0.0,1.0,2260.640869,, takeoff
21.36656,-88.007118,-86.813675,2.67029,-0.048903,2.67029,-0.048903,-89.999855,-90.0,2.338626,2.401133,1.320248,297.720795,298.993561,0.038885,-0.001284,9.615939,6.74E-4,0.053287,0.008339,0.0,1.0,2264.435547,, takeoff
22.00493,-88.003853,-86.81041,2.674325,-0.049951,2.674325,-0.049951,-89.999855,-90.0,2.34293,2.598396,1.372635,297.733551,298.013336,0.039729,9.66E-4,13.495842,6.99E-4,0.053406,0.007352,0.0,1.0,2266.717285,, takeoff
23.005062,-87.998383,-86.804939,2.680609,-0.051359,2.680609,-0.051359,-89.999855,-90.0,2.350029,2.921073,1.461199,297.751404,296.425903,0.040674,0.00373,15.193714,7.14E-4,0.053486,0.006714,0.0,1.0,2270.0354,, takeoff
23.727184,-87.994171,-86.800728,2.685314,-0.052306,2.685314,-0.052306,-89.999855,-90.0,2.355431,3.164426,1.525009,297.762543,295.254608,0.041053,0.005214,10.545589,7.34E-4,0.053612,0.005821,0.0,1.0,2272.283203,, takeoff
24.393129,-87.990082,-86.796638,2.689622,-0.053076,2.689622,-0.053076,-89.999855,-90.0,2.360622,3.396542,1.58356,297.771118,294.166382,0.041224,0.006171,17.846712,7.47E-4,0.053706,0.005264,0.0,1.0,2274.272949,, takeoff
25.392017,-87.983589,-86.790146,2.6962,-0.054237,2.6962,-0.054237,-89.999855,-90.0,2.368778,3.757849,1.677215,297.780884,292.541016,0.041185,0.006965,12.200214,7.58E-4,0.053792,0.004835,0.0,1.0,2277.140137,, takeoff
26.029028,-87.979218,-86.785774,2.700605,-0.055012,2.700605,-0.055012,-89.999855,-90.0,2.37422,3.996732,1.733757,297.786011,291.51825,0.041012,0.007246,6.709133,7.75E-4,0.053924,0.004347,0.0,1.0,2278.914307,, takeoff
27.052038,-87.971817,-86.778366,2.707672,-0.056338,2.707672,-0.056338,-89.999855,-90.0,2.383353,4.393811,1.821215,297.793365,289.918518,0.040735,0.007516,18.755295,7.86E-4,0.054012,0.004091,0.0,1.0,2281.69873,, takeoff
27.687296,-87.96698,-86.773537,2.712673,-0.057309,2.712673,-0.057309,-89.999855,-90.0,2.389292,4.648394,1.910214,297.798309,288.962372,0.04062,0.007729,17.489052,8.05E-4,0.054153,0.003723,0.0,1.0,2283.395996,, takeoff
28.708048,-87.958755,-86.765312,2.725392,-0.052954,2.725392,-0.052954,-89.999855,-90.0,2.399913,5.07003,2.189973,297.807831,287.502563,0.040955,0.008418,19.182516,8.19E-4,0.054253,0.003476,0.0,1.0,2286.086426,, takeoff
29.340353,-87.9533,-86.759857,2.730705,-0.053655,2.730705,-0.053655,-89.999855,-90.0,2.406993,5.339447,2.242093,297.815308,286.651764,0.040723,0.00897,7.770113,7.56E-4,0.054508,0.003,0.0,1.0,2287.739258,, takeoff
30.329746,-87.944229,-86.750786,2.737437,-0.055661,2.737437,-0.055661,-89.999855,-90.0,2.418452,5.77207,2.336016,297.830017,285.419739,0.04117,0.010183,15.182759,7.67E-4,0.054614,0.002626,0.0,1.0,2290.304688,, takeoff
30.960716,-87.938118,-86.744675,2.742054,-0.057166,2.742054,-0.057166,-89.999855,-90.0,2.426024,6.055269,2.397046,297.841614,284.702087,0.041817,0.011214,18.809029,7.95E-4,0.054749,0.001891,0.0,1.0,2291.933105,, takeoff
32.001831,-87.927521,-86.734077,2.749865,-0.059632,2.749865,-0.059632,-89.999855,-90.0,2.438967,6.53442,2.50008,297.863556,283.644684,0.043165,0.013138,19.280119,8.17E-4,0.054841,0.001311,0.0,1.0,2294.610352,, takeoff
32.630589,-87.920799,-86.727356,2.754794,-0.061133,2.754794,-0.061133,-89.999855,-90.0,2.447063,6.831063,2.561679,297.878357,283.086273,0.044187,0.014392,15.101678,8.52E-4,0.054997,2.14E-4,0.0,1.0,2296.224365,, takeoff
33.640434,-87.909538,-86.716087,2.76258,-0.063336,2.76258,-0.063336,-89.999855,-90.0,2.460503,7.318428,2.660961,297.902344,282.322266,0.045684,0.016196,18.096205,8.73E-4,0.055096,-5.26E-4,0.0,1.0,2298.814209,, takeoff
34.294201,-87.901939,-86.708496,2.767762,-0.064688,2.767762,-0.064688,-89.999855,-90.0,2.469495,7.641071,2.72514,297.917847,281.917023,0.046558,0.01721,17.852669,9.05E-4,0.055252,-0.001726,0.0,1.0,2300.490723,, takeoff
35.245934,-87.890121,-86.696678,2.775317,-0.066031,2.775317,-0.066031,-89.999855,-90.0,2.483367,8.134337,2.818761,297.938721,281.443573,0.047712,0.018171,12.917416,9.24E-4,0.055355,-0.002501,0.0,1.0,2302.989746,, takeoff
35.843143,-87.882309,-86.688866,2.780607,-0.065809,2.780607,-0.065809,-89.999855,-90.0,2.492492,8.455169,2.926585,297.948944,281.225128,0.048274,0.018223,12.548999,9.43E-4,0.055506,-0.003545,0.0,1.0,2304.564941,, takeoff
36.776337,-87.86956,-86.676117,2.794383,-0.063731,2.794383,-0.063731,-89.999855,-90.0,2.508413,8.965967,3.305962,297.955383,281.012268,0.047782,0.016801,10.975216,9.4E-4,0.055612,-0.004056,0.0,1.0,2307.007813,, takeoff
37.681583,-87.856346,-86.662903,2.80109,-0.060268,2.80109,-0.060268,-89.999855,-90.0,2.524719,9.472357,3.397774,297.948792,280.951294,0.045219,0.013643,11.884407,9.1E-4,0.055888,-0.004378,0.0,1.0,2309.364746,, takeoff
38.301346,-87.846855,-86.653412,2.805358,-0.05741,2.805358,-0.05741,-89.999855,-90.0,2.536168,9.824996,3.467446,297.936981,280.988831,0.042403,0.010597,18.898823,8.61E-4,0.056022,-0.004048,0.0,1.0,2310.974609,, takeoff
38.919834,-87.837051,-86.643608,2.809758,-0.054418,2.809758,-0.054418,-89.999855,-90.0,2.547847,10.181909,3.535309,297.920349,281.087494,0.03893,0.007098,15.790911,8.2E-4,0.056107,-0.003458,0.0,1.0,2312.581055,, takeoff
39.846127,-87.821785,-86.628334,2.816747,-0.05003,2.816747,-0.05003,-89.999855,-90.0,2.565806,10.725064,3.641458,297.889923,281.342712,0.03309,0.00165,14.080393,7.77E-4,0.056195,-0.002626,0.0,1.0,2314.986572,, takeoff
40.488361,-87.810806,-86.617363,2.821892,-0.047216,2.821892,-0.047216,-89.999855,-90.0,2.578593,11.107596,3.718064,297.867218,281.589691,0.029258,-0.001904,16.443756,7.15E-4,0.056335,-0.001105,0.0,1.0,2316.655029,, takeoff
41.436546,-87.794006,-86.600563,2.82886,-0.043695,2.82886,-0.043695,-89.999855,-90.0,2.597927,11.68151,3.76258,297.837524,282.048859,0.024598,-0.005871,18.926756,6.75E-4,0.056438,3.0E-5,0.0,1.0,2319.122559,, takeoff
42.331436,-87.77755,-86.584106,2.841288,-0.038423,2.841288,-0.038423,-89.999855,-90.0,2.617309,12.232648,4.41016,297.817993,282.573181,0.02186,-0.007673,9.483479,6.24E-4,0.056577,0.001515,0.0,1.0,2321.455322,, takeoff
42.943413,-87.765739,-86.572296,2.847311,-0.033406,2.847311,-0.033406,-89.999855,-90.0,2.631953,12.615042,4.404365,297.810883,282.975739,0.020943,-0.007776,15.854923,5.49E-4,0.056826,0.002492,0.0,1.0,2323.061279,, takeoff
43.554413,-87.753479,-86.560036,2.852627,-0.033882,2.852627,-0.033882,-89.999855,-90.0,2.646792,13.000967,4.489981,297.80899,283.407928,0.02134,-0.007144,12.743236,4.77E-4,0.056946,0.002847,0.0,1.0,2325.20166,, takeoff
44.444187,-87.734879,-86.541435,2.859814,-0.033754,2.859814,-0.033754,-89.999855,-90.0,2.668927,13.569919,4.608054,297.814301,284.081818,0.023806,-0.005073,13.632417,4.84E-4,0.057053,0.002942,0.0,1.0,2329.461426,, takeoff
45.384052,-87.71431,-86.520866,2.867353,-0.032767,2.867353,-0.032767,-89.999855,-90.0,2.692945,14.17907,4.73065,297.82547,284.836273,0.027469,-0.002369,19.936693,4.82E-4,0.057196,0.002676,0.0,1.0,2334.854736,, takeoff
46.018864,-87.699936,-86.506493,2.872396,-0.031545,2.872396,-0.031545,-89.999855,-90.0,2.709527,14.595004,4.812314,297.832825,285.362366,0.029914,-8.22E-4,13.376402,4.68E-4,0.057347,0.002118,0.0,1.0,2338.807617,, takeoff
46.932384,-87.67849,-86.485046,2.885843,-0.028725,2.885843,-0.028725,-89.999855,-90.0,2.73551,15.19993,5.414104,297.837433,286.131531,0.032585,1.87E-4,14.004647,4.51E-4,0.057448,0.00175,0.0,1.0,2344.762451,, takeoff
47.541409,-87.663498,-86.470055,2.891243,-0.024854,2.891243,-0.024854,-89.999855,-90.0,2.753701,15.607039,5.535058,297.834534,286.645569,0.033244,-1.33E-4,10.14996,4.1E-4,0.057717,0.00152,0.0,1.0,2348.842285,, takeoff
48.45396,-87.640045,-86.446602,2.897645,-0.019882,2.897645,-0.019882,-89.999855,-90.0,2.781601,16.223291,5.638527,297.819397,287.408051,0.031882,-0.002273,11.08744,3.55E-4,0.057825,0.001665,0.0,1.0,2355.063965,, takeoff
49.037415,-87.624512,-86.431061,2.901874,-0.016452,2.901874,-0.016452,-89.999855,-90.0,2.799758,16.620438,5.720693,297.803009,287.88446,0.029554,-0.004525,20.259935,2.84E-4,0.057953,0.002422,0.0,1.0,2359.082031,, takeoff
49.950642,-87.599396,-86.405952,2.908587,-0.010963,2.908587,-0.010963,-89.999855,-90.0,2.828709,17.247286,5.851429,297.769897,288.60437,0.024353,-0.008771,21.036919,2.35E-4,0.058037,0.003241,0.0,1.0,2365.416016,, takeoff
50.559475,-87.582169,-86.388718,2.913334,-0.007299,2.913334,-0.007299,-89.999855,-90.0,2.848375,17.66865,5.939858,297.744507,289.061829,0.020205,-0.011762,12.44932,1.57E-4,0.058172,0.004897,0.0,1.0,2369.660889,, takeoff
51.472427,-87.555611,-86.362167,2.925384,0.002628,2.925384,0.002628,-89.999855,-90.0,2.879136,18.30575,6.558028,297.707458,289.706543,0.014732,-0.015359,21.340324,1.04E-4,0.058267,0.006166,0.0,1.0,2376.052979,, takeoff
52.080017,-87.537148,-86.343704,2.935783,0.010734,2.935783,0.010734,-89.999855,-90.0,2.902178,18.733763,6.981719,297.68512,290.104584,0.010548,-0.017114,19.482401,-3.8E-5,0.058508,0.008019,0.0,1.0,2380.326416,, takeoff
52.966614,-87.508904,-86.31546,2.942,0.01441,2.942,0.01441,-89.999855,-90.0,2.936434,19.362524,7.106794,297.660431,290.633789,0.006407,-0.018236,12.459981,-1.53E-4,0.058716,0.009135,0.0,1.0,2386.573975,, takeoff
53.599968,-87.4879,-86.294456,2.94634,0.016553,2.94634,0.016553,-89.999855,-90.0,2.961297,19.814884,7.205574,297.649231,290.97171,0.005029,-0.017953,11.644408,-2.06E-4,0.05884,0.01037,0.0,1.0,2391.047852,, takeoff
54.537632,-87.45565,-86.262199,2.953075,0.018971,2.953075,0.018971,-89.999855,-90.0,2.998736,20.489216,7.356373,297.642151,291.406616,0.005174,-0.016119,16.527206,-2.36E-4,0.058927,0.01093,0.0,1.0,2397.684082,, takeoff
55.146027,-87.434067,-86.240623,2.95769,0.020488,2.95769,0.020488,-89.999855,-90.0,3.02344,20.929634,7.455957,297.641937,291.645599,0.006477,-0.014416,16.994684,-2.71E-4,0.059062,0.011284,0.0,1.0,2401.998779,, takeoff
56.033489,-87.401749,-86.208305,2.964066,0.022808,2.964066,0.022808,-89.999855,-90.0,3.060059,21.576059,7.600258,297.643799,291.931824,0.009495,-0.011916,13.611417,-2.93E-4,0.059154,0.011295,0.0,1.0,2408.305908,, takeoff
56.667633,-87.378128,-86.184685,2.968663,0.02478,2.968663,0.02478,-89.999855,-90.0,3.086647,22.040733,7.706709,297.643799,292.090759,0.011646,-0.010577,18.015936,-3.26E-4,0.059281,0.011201,0.0,1.0,2412.82251,, takeoff
57.580261,-87.343277,-86.149834,2.974953,0.028183,2.974953,0.028183,-89.999855,-90.0,3.125561,22.71406,7.851948,297.637329,292.253204,0.014181,-0.009913,18.613243,-3.54E-4,0.059373,0.011201,0.0,1.0,2419.340332,, takeoff
58.189323,-87.319572,-86.126122,2.979239,0.030837,2.979239,0.030837,-89.999855,-90.0,3.151919,23.165632,7.960073,297.626984,292.318634,0.014942,-0.010479,20.41781,-4.03E-4,0.059499,0.011525,0.0,1.0,2423.696045,, takeoff
59.075439,-87.284325,-86.090881,2.984394,0.0362,2.984394,0.0362,-89.999855,-90.0,3.190695,23.827909,7.989081,297.602692,292.354126,0.014378,-0.01261,14.970388,-4.41E-4,0.059585,0.012042,0.0,1.0,2430.060547,, takeoff
59.708141,-87.258766,-86.065323,2.988855,0.039497,2.988855,0.039497,-89.999855,-90.0,3.218632,24.303604,8.093454,297.579102,292.337402,0.012755,-0.014937,17.325937,-5.17E-4,0.059688,0.013257,0.0,1.0,2434.615234,, takeoff
60.593006,-87.222366,-86.028923,2.995263,0.043894,2.995263,0.043894,-89.999855,-90.0,3.258353,24.973148,8.238928,297.541229,292.257751,0.008977,-0.018526,18.617245,-5.64E-4,0.059777,0.014436,0.0,1.0,2441.032227,, takeoff
61.224648,-87.195992,-86.002548,3.002257,0.046051,3.002257,0.046051,-89.999855,-90.0,3.287438,25.453871,8.90091,297.512787,292.162811,0.005857,-0.021014,22.304628,-6.27E-4,0.059905,0.01633,0.0,1.0,2445.682861,, takeoff
62.131836,-87.157059,-85.963615,3.011243,0.049093,3.011243,0.049093,-89.999855,-90.0,3.331821,26.149603,8.947169,297.475433,291.974396,0.001577,-0.023531,13.099977,-6.58E-4,0.060045,0.017752,0.0,1.0,2452.444336,, takeoff
62.736359,-87.130371,-85.936928,3.022644,0.051533,3.022644,0.051533,-89.999855,-90.0,3.363182,26.615644,9.945754,297.454376,291.817444,-8.9E-4,-0.02439,19.728165,-7.01E-4,0.060225,0.01962,0.0,1.0,2456.980469,, takeoff
63.639698,-87.0886,-85.895157,3.030618,0.054879,3.030618,0.054879,-89.999855,-90.0,3.41326,27.317898,10.081245,297.431335,291.539856,-0.00316,-0.024178,19.105465,-7.36E-4,0.060453,0.020673,0.0,1.0,2463.810791,, takeoff
64.216522,-87.060905,-85.867462,3.0343,0.05701,3.0343,0.05701,-89.999855,-90.0,3.44564,27.768505,10.185284,297.421661,291.338898,-0.003662,-0.023275,18.934978,-7.84E-4,0.060612,0.021825,0.0,1.0,2468.186768,, takeoff
65.118446,-87.01619,-85.822739,3.040148,0.063909,3.040148,0.063909,-89.999855,-90.0,3.49698,28.47673,10.344524,297.392059,290.992981,-0.00475,-0.024876,22.923048,-8.14E-4,0.060686,0.0,0.0,1.0,2475.049316,, fly_strait
65.694107,-86.986832,-85.793388,3.043559,0.067128,3.043559,0.067128,-89.999855,-90.0,3.530214,28.931026,10.457005,297.325226,290.754852,-0.0077,-0.033545,13.998375,-9.13E-4,0.060803,0.00148,0.0,1.0,2479.441162,, fly_strait
66.621727,-86.938431,-85.744987,3.052628,0.072393,3.052628,0.072393,-89.999855,-90.0,3.585749,29.664745,11.194721,297.152863,290.348724,-0.017449,-0.055677,19.781729,-9.59E-4,0.060871,0.004822,0.0,1.0,2486.521729,, fly_strait
67.222267,-86.905998,-85.712555,3.056297,0.070575,3.056297,0.070575,-89.999855,-90.0,3.623259,30.142534,11.303182,297.016602,290.072388,-0.027439,-0.072017,20.337776,-0.001034,0.061053,0.01344,0.0,1.0,2491.124023,, fly_strait
68.095345,-86.857338,-85.663895,3.061733,0.06495,3.061733,0.06495,-89.999855,-90.0,3.678652,30.84181,11.477696,296.831512,289.654694,-0.043888,-0.090534,15.855721,-0.001008,0.061126,0.020253,0.0,1.0,2497.842773,, fly_strait
68.71743,-86.821739,-85.628296,3.063701,0.053314,3.063701,0.053314,-89.999855,-90.0,3.719414,31.343012,12.146144,296.731049,289.348083,-0.054326,-0.097235,21.446171,-9.28E-4,0.061235,0.029507,0.0,1.0,2502.64502,, fly_strait
69.613213,-86.768288,-85.574844,3.033219,-0.049658,3.033219,-0.049658,-89.999855,-90.0,3.786359,32.067116,14.596281,296.666595,288.899353,-0.065459,-0.094967,22.752687,-7.62E-4,0.061274,0.034531,0.0,1.0,2509.564453,, fly_strait
70.21228,-86.730309,-85.536865,2.97929,-0.172419,2.97929,-0.172419,-89.999855,-90.0,3.836033,32.551365,15.074572,296.683594,288.599487,-0.066983,-0.085451,15.347981,7.09E-4,0.060664,0.037753,0.0,1.0,2514.188721,, fly_strait
71.113998,-86.669769,-85.476318,2.889652,-0.377776,2.889652,-0.377776,-89.999855,-90.0,3.911392,33.280003,14.967585,296.787933,288.157562,-0.058768,-0.061162,21.983215,0.002463,0.059586,0.036903,0.0,1.0,2521.153076,, fly_strait
71.737671,-86.625801,-85.432358,2.843008,-0.499975,2.843008,-0.499975,-89.999855,-90.0,3.963061,33.787567,14.751636,296.8927,287.862305,-0.047035,-0.04108,22.496954,0.005397,0.057793,0.031686,0.0,1.0,2526.00293,, fly_strait
72.602043,-86.562393,-85.36895,2.808898,-0.625274,2.808898,-0.625274,-89.999855,-90.0,4.034426,34.500141,14.71134,297.024231,287.473541,-0.024301,-0.018223,16.304398,0.007143,0.05686,0.026448,0.0,1.0,2532.785645,, fly_strait
73.192116,-86.517982,-85.324539,2.7864,-0.705688,2.7864,-0.705688,-89.999855,-90.0,4.083967,34.989998,14.976361,297.073578,287.227631,-0.008892,-0.011017,18.92507,0.008932,0.056178,0.019871,0.0,1.0,2537.42627,, fly_strait
74.076103,-86.449928,-85.256485,2.73876,-0.848343,2.73876,-0.848343,-89.999855,-90.0,4.160067,35.726517,15.469255,297.046143,286.89566,0.010631,-0.018161,19.468372,0.010081,0.055728,0.017404,0.0,1.0,2544.375244,, fly_strait
74.691895,-86.401611,-85.208168,2.69132,-0.977104,2.69132,-0.977104,-89.999855,-90.0,4.214497,36.239155,15.825922,296.951324,286.693542,0.019458,-0.035076,17.208082,0.012119,0.054775,0.018776,0.0,1.0,2549.201416,, fly_strait
75.555,-86.332253,-85.138809,2.619665,-1.188481,2.619665,-1.188481,-89.999855,-90.0,4.293292,36.95842,16.979561,296.740021,286.452118,0.025406,-0.068578,20.558159,0.013959,0.053826,0.023517,0.0,1.0,2555.970947,, fly_strait
76.146355,-86.283165,-85.089722,2.605547,-1.363719,2.605547,-1.363719,-89.999855,-90.0,4.352611,37.452682,18.875103,296.566803,286.315094,0.024318,-0.093784,21.304831,0.016978,0.052393,0.034082,0.0,1.0,2560.625244,, fly_strait
77.023376,-86.203979,-85.010536,2.690078,-1.68373,2.690078,-1.68373,-89.999855,-90.0,4.47238,38.19725,30.90535,296.324768,286.151978,0.019057,-0.125016,18.440979,0.019482,0.052111,0.042743,0.0,1.0,2567.609863,, fly_strait
77.595131,-86.141449,-84.948006,2.789648,-1.900188,2.789648,-1.900188,-79.999855,-80.0,4.60011,38.695438,45.945015,296.200775,286.069702,0.015288,-0.137266,21.081949,0.024053,0.053802,0.054845,0.0,1.0,2572.253662,, fly_strait
78.424355,-86.015343,-84.821899,2.953146,-2.15373,2.953146,-2.15373,-79.999855,-80.0,4.902668,39.443436,75.176361,296.105011,285.98175,0.01188,-0.13743,30.692528,0.027146,0.055793,0.061044,0.0,1.0,2579.168213,, fly_strait
78.953842,-85.89785,-84.704407,3.077795,-2.247961,3.077795,-2.247961,-79.999855,-80.0,5.190794,39.942215,97.123291,296.0961,285.944183,0.012969,-0.127258,39.958679,0.030768,0.059063,0.065833,0.0,1.0,2583.719971,, fly_strait
79.709892,-85.652084,-84.458633,3.261656,-2.237289,3.261656,-2.237289,-79.999855,-80.0,5.764808,40.689823,131.564514,296.132599,285.914825,0.019936,-0.102826,57.648792,0.032114,0.061556,0.066278,0.0,1.0,2590.393311,, fly_strait
80.207222,-85.422203,-84.22876,3.398248,-2.128961,3.398248,-2.128961,-79.999855,-80.0,6.264859,41.20808,155.626678,296.161224,285.910095,0.027525,-0.085423,71.862427,0.031961,0.065233,0.064453,0.0,1.0,2594.383545,, fly_strait
80.861671,-85.005287,-83.811844,3.563055,-1.879507,3.563055,-1.879507,-79.999855,-80.0,7.103853,41.931519,188.104431,296.159241,285.918976,0.040675,-0.068644,94.595276,0.030414,0.067965,0.063022,0.0,1.0,2598.92627,, fly_strait
81.289764,-84.65052,-83.457077,3.667281,-1.675224,3.667281,-1.675224,-79.999855,-80.0,7.766685,42.425678,208.80394,296.114319,285.93158,0.048434,-0.064707,111.011833,0.02685,0.071261,0.063121,0.0,1.0,2601.542969,, fly_strait
81.906372,-84.008179,-82.814735,3.794236,-1.395649,3.794236,-1.395649,-79.999855,-80.0,8.88926,43.1633,238.970596,295.985596,285.953217,0.056138,-0.069578,136.499542,0.023932,0.073346,0.065367,0.0,1.0,2604.949951,, fly_strait
82.319969,-83.482994,-82.289551,3.884981,-1.240786,3.884981,-1.240786,-79.999855,-80.0,9.754715,43.672604,258.763824,295.870758,285.965881,0.057939,-0.077229,154.344345,0.019938,0.075885,0.071803,0.0,1.0,2607.053467,, fly_strait
82.870964,-82.63662,-81.443176,4.004953,-1.107688,4.004953,-1.107688,-79.999855,-80.0,11.080617,44.381092,285.734161,295.726135,285.973938,0.056665,-0.085572,179.899307,0.017726,0.0777,0.077545,0.0,1.0,2609.743652,, fly_strait
83.235207,-81.982155,-80.788712,4.093122,-1.052657,4.093122,-1.052657,-79.999855,-80.0,12.064007,44.863575,303.579132,295.661316,285.969971,0.055065,-0.085821,197.272125,0.015824,0.080099,0.084776,0.0,1.0,2611.458252,, fly_strait
83.770432,-80.85656,-79.663116,4.219543,-0.986612,4.219543,-0.986612,-79.999855,-80.0,13.695093,45.601543,330.531158,295.64505,285.944489,0.054341,-0.073324,223.766479,0.015038,0.081862,0.088017,0.0,1.0,2613.940918,, fly_strait
84.086884,-80.085396,-78.891953,4.304807,-0.926466,4.304807,-0.926466,-79.999855,-80.0,14.781264,46.0564,349.094177,295.681824,285.915527,0.056645,-0.058759,240.228149,0.014094,0.084391,0.088831,0.0,1.0,2615.401367,, fly_strait
84.554047,-78.768066,-77.574623,4.445689,-0.776867,4.445689,-0.776867,-79.999855,-80.0,16.608204,46.761806,381.311401,295.777588,285.848724,0.064614,-0.031719,266.098083,0.013235,0.086096,0.086992,0.0,1.0,2617.578613,, fly_strait
84.844284,-77.812416,-76.618973,4.560136,-0.635615,4.560136,-0.635615,-79.999855,-80.0,17.918127,47.227287,403.437958,295.840912,285.789032,0.072214,-0.015259,283.783417,0.011098,0.088914,0.082204,0.0,1.0,2618.96167, set /instrumentation/slip-skid-ball/serviceable false, fly_strait
85.254227,-76.259239,-75.065796,4.703291,-0.393689,4.703291,-0.393689,-79.999855,-80.0,20.010817,47.917793,431.671875,295.889984,285.675385,0.076386,-3.41E-4,310.933746,0.00908,0.091203,0.079037,0.0,1.0,2620.94043, set /instrumentation/slip-skid-ball/serviceable false, fly_strait
85.516792,-75.144798,-73.951355,4.77128,-0.233982,4.77128,-0.233982,-69.999855,-70.0,21.47633,48.372776,446.887329,295.882111,285.582855,0.076386,0.001936,329.027557,0.005624,0.094066,0.076584,0.0,1.0,2622.202637, set /instrumentation/slip-skid-ball/serviceable false, fly_strait
85.903824,-73.360313,-72.16687,4.826429,-0.055998,4.826429,-0.055998,-69.999855,-70.0,23.765545,49.047012,467.608734,295.818481,285.418579,0.076386,-0.004417,355.417206,0.003343,0.095426,0.076977,0.0,1.0,2624.025635, set /instrumentation/slip-skid-ball/serviceable false, fly_strait
86.157211,-72.099503,-70.906059,4.868847,0.013086,4.868847,0.013086,-69.999855,-70.0,25.345722,49.490971,479.968872,295.759979,285.292297,0.076386,-0.011602,372.281738,8.0E-4,0.096529,0.080159,0.0,1.0,2625.201904, set /instrumentation/slip-skid-ball/serviceable false, fly_strait
86.528465,-70.108727,-68.915283,4.949417,0.034773,4.949417,0.034773,-69.999855,-70.0,27.793724,50.148548,498.845459,295.6922,285.078552,0.076386,-0.019451,396.326477,-1.87E-4,0.097377,0.083084,0.0,1.0,2626.915283, set /instrumentation/slip-skid-ball/serviceable false, fly_strait
86.7827,-68.660248,-67.466805,5.015965,0.016116,5.015965,0.016116,-69.999855,-70.0,29.550749,50.599228,512.883301,295.678986,284.913666,0.076386,-0.019518,412.092072,-4.97E-4,0.098988,0.086473,0.0,1.0,2628.071045, set /instrumentation/slip-skid-ball/serviceable false, fly_strait
87.113754,-66.541656,-65.348213,5.102349,-0.01371,5.102349,-0.01371,-69.999855,-70.0,32.095581,51.22179,533.598145,295.72049,284.66217,0.076386,-0.010235,433.70285,-2.3E-4,0.100319,0.087134,0.0,1.0,2629.642578, set /instrumentation/slip-skid-ball/serviceable false, fly_strait
87.333862,-65.029854,-63.836414,5.166659,-0.012387,5.166659,-0.012387,-59.999859,-60.0,33.899078,51.642944,547.996216,295.781464,284.477448,0.076386,8.77E-4,448.125336,1.96E-4,0.102047,0.085059,0.0,1.0,2630.688721, set /instrumentation/slip-skid-ball/serviceable false, fly_strait
87.6493,-62.672482,-61.479038,5.257568,0.045416,5.257568,0.045416,-59.999859,-60.0,36.695187,52.265732,569.818848,295.885498,284.18515,0.076386,0.018449,469.435394,1.77E-4,0.103333,0.08201,0.0,1.0,2632.209473, set /instrumentation/slip-skid-ball/serviceable false, fly_strait
87.864227,-60.973305,-59.779861,5.323825,0.118416,5.323825,0.118416,-59.999859,-60.0,38.701302,52.691811,585.210266,295.943451,283.973572,0.076386,0.027441,483.959198,-6.49E-4,0.105151,0.076808,0.0,1.0,2633.232422, set /instrumentation/slip-skid-ball/serviceable false, fly_strait
88.142632,-58.505722,-57.312279,5.405475,0.232272,5.405475,0.232272,-59.999859,-60.0,41.599934,53.279373,606.572144,295.973999,283.668457,0.076386,0.030658,504.499481,-0.001692,0.106477,0.07391,0.0,1.0,2634.62207, set /instrumentation/slip-skid-ball/serviceable false, fly_strait
88.332214,-56.755451,-55.562008,5.462644,0.296072,5.462644,0.296072,-59.999859,-60.0,43.646328,53.676212,620.703064,295.959106,283.454742,0.076386,0.026659,518.485779,-0.003318,0.108109,0.072383,0.0,1.0,2635.550293, set /instrumentation/slip-skid-ball/serviceable false, fly_strait
88.61071,-54.041656,-52.848213,5.539872,0.332755,5.539872,0.332755,-49.999859,-50.0,46.803856,54.262249,641.585754,295.902313,283.129211,0.076386,0.014875,539.340149,-0.00423,0.109253,0.073128,0.0,1.0,2636.910156, set /instrumentation/slip-skid-ball/serviceable false, fly_strait
88.792007,-52.17411,-50.980667,5.595752,0.316074,5.595752,0.316074,-49.999859,-50.0,48.966137,54.64682,655.27478,295.861786,282.909973,0.076386,0.006817,553.140076,-0.004754,0.110797,0.075967,0.0,1.0,2637.798096, set /instrumentation/slip-skid-ball/serviceable false, fly_strait
89.055855,-49.286335,-48.092892,5.675738,0.244925,5.675738,0.244925,-49.999859,-50.0,52.295246,55.214535,675.714478,295.834747,282.579773,0.076386,7.05E-4,573.662048,-0.004515,0.111915,0.077994,0.0,1.0,2639.103027, set /instrumentation/slip-skid-ball/serviceable false, fly_strait
89.224815,-47.304066,-46.110622,5.734983,0.189031,5.734983,0.189031,-49.999859,-50.0,54.571125,55.586922,689.338196,295.850159,282.360138,0.076386,0.002263,587.223206,-0.003499,0.113515,0.079346,0.0,1.0,2639.954346, set /instrumentation/slip-skid-ball/serviceable false, fly_strait
89.466141,-44.24577,-43.052326,5.81892,0.135834,5.81892,0.135834,-39.999859,-40.0,58.070843,56.136326,709.914185,295.919373,282.034241,0.076386,0.012138,607.403931,-0.0027,0.1147,0.078575,0.0,1.0,2641.200439, set /instrumentation/slip-skid-ball/serviceable false, fly_strait
89.630875,-42.063526,-40.870083,5.881752,0.133196,5.881752,0.133196,-39.999859,-40.0,60.561501,56.511322,724.233032,295.984802,281.812378,0.076386,0.021488,621.193787,-0.00194,0.116378,0.075114,0.0,1.0,2642.041992, set /instrumentation/slip-skid-ball/serviceable false, fly_strait
89.835152,-38.924259,-37.730816,5.960056,0.180045,5.960056,0.180045,-39.999859,-40.0,64.132156,57.027237,744.131104,296.062592,281.510681,0.076386,0.031675,640.682556,-0.001903,0.117635,0.071843,0.0,1.0,2643.185303, set /instrumentation/slip-skid-ball/serviceable false, fly_strait
89.97361,-36.717018,-35.523575,6.014797,0.230372,6.014797,0.230372,-39.999859,-40.0,66.635612,57.374851,757.421387,296.091217,281.311279,0.076386,0.034231,653.935974,-0.002572,0.119201,0.067953,0.0,1.0,2643.946777, set /instrumentation/slip-skid-ball/serviceable false, fly_strait
90.175262,-33.323231,-32.129784,6.086297,0.295086,6.086297,0.295086,-29.999857,-30.0,70.472855,57.886887,776.705811,296.084534,281.025146,0.076386,0.029548,673.681274,-0.003291,0.120296,0.066522,0.0,1.0,2645.057861, set /instrumentation/slip-skid-ball/serviceable false, fly_strait
90.306648,-31.006161,-29.812717,6.134992,0.313643,6.134992,0.313643,-29.999857,-30.0,73.083168,58.222031,788.97821,296.054871,280.843719,0.076386,0.022389,686.726318,-0.004216,0.121726,0.066856,0.0,1.0,2645.781006, set /instrumentation/slip-skid-ball/serviceable false, fly_strait
90.499748,-27.450552,-26.257107,6.199285,0.287101,6.199285,0.287101,-29.999857,-30.0,77.073906,58.71553,806.596191,296.003296,280.586151,0.076386,0.010876,706.045898,-0.004481,0.1227,0.068339,0.0,1.0,2646.843018, set /instrumentation/slip-skid-ball/serviceable false, fly_strait
90.625175,-25.028078,-23.834633,6.244986,0.241366,6.244986,0.241366,-19.999857,-20.0,79.782059,59.038452,817.846619,295.982544,280.424438,0.076386,0.005802,718.717773,-0.004101,0.123986,0.070918,0.0,1.0,2647.537109, set /instrumentation/slip-skid-ball/serviceable false, fly_strait
90.806686,-21.318638,-20.125193,6.308815,0.161624,6.308815,0.161624,-19.999857,-20.0,83.913986,59.513809,834.336975,295.994598,280.197632,0.076386,0.005759,737.354858,-0.003448,0.1249,0.071956,0.0,1.0,2648.557373, set /instrumentation/slip-skid-ball/serviceable false, fly_strait
90.922066,-18.796503,-17.603058,6.355395,0.120235,6.355395,0.120235,-19.999857,-20.0,86.713806,59.824718,845.157654,296.031586,280.057465,0.076386,0.010516,749.515991,-0.002309,0.126176,0.071353,0.0,1.0,2649.221924, set /instrumentation/slip-skid-ball/serviceable false, fly_strait
91.086006,-14.941534,-13.74809,6.419418,0.105108,6.419418,0.105108,-9.999858,-10.0,90.981239,60.282082,861.263794,296.108856,279.865021,0.076386,0.021055,767.363708,-0.001718,0.127108,0.069504,0.0,1.0,2650.193115, set /instrumentation/slip-skid-ball/serviceable false, fly_strait
91.189499,-12.324702,-11.131258,6.464069,0.125173,6.464069,0.125173,-9.999858,-10.0,93.870369,60.58099,871.817566,296.158112,279.749115,0.076386,0.027393,779.011658,-0.001502,0.128388,0.06564,0.0,1.0,2650.821777, set /instrumentation/slip-skid-ball/serviceable false, fly_strait
91.33844,-8.330772,-7.137328,6.52132,0.182977,6.52132,0.182977,-9.999858,-10.0,98.269493,61.020355,887.216003,296.19812,279.594513,0.076386,0.030859,796.128906,-0.001788,0.129281,0.063177,0.0,1.0,2651.717285, set /instrumentation/slip-skid-ball/serviceable false, fly_strait
91.446503,-5.51127,-4.317825,6.560874,0.222,6.560874,0.222,-9.999858,-10.0,101.368492,61.319157,897.40448,296.196014,279.500671,0.076386,0.028224,807.644714,-0.002614,0.130426,0.061177,0.0,1.0,2652.309082, set /instrumentation/slip-skid-ball/serviceable false, fly_strait
91.57737,-1.497671,-0.304226,6.60753,0.243072,6.60753,0.243072,1.42E-4,0.0,105.765083,61.728897,910.88385,296.160431,279.387268,0.076386,0.019233,823.675842,-0.003171,0.131217,0.061282,0.0,1.0,2653.105957, set /instrumentation/slip-skid-ball/serviceable false, fly_strait
91.671188,1.417933,2.611378,6.640432,0.228662,6.640432,0.228662,1.42E-4,0.0,108.81646,62.004166,919.566895,296.128479,279.321014,0.076386,0.012103,834.365601,-0.003472,0.132151,0.063061,0.0,1.0,2653.635742, set /instrumentation/slip-skid-ball/serviceable false, fly_strait
91.80925,5.877374,7.070818,6.68596,0.169499,6.68596,0.169499,10.000142,10.0,113.446754,62.408531,932.067139,296.099731,279.237915,0.076386,0.005096,849.952942,-0.003267,0.132809,0.064659,0.0,1.0,2654.410156, set /instrumentation/slip-skid-ball/serviceable false, fly_strait
91.898445,8.891187,10.084631,6.719267,0.120265,6.719267,0.120265,10.000142,10.0,116.567665,62.672497,940.171143,296.104309,279.19281,0.076386,0.004585,860.033691,-0.002421,0.133719,0.066096,0.0,1.0,2654.914063, set /instrumentation/slip-skid-ball/serviceable false, fly_strait
92.026268,13.470785,14.66423,6.765952,0.066129,6.765952,0.066129,10.000142,10.0,121.299591,63.060093,952.190552,296.148804,279.139862,0.076386,0.010204,874.689758,-0.001718,0.134385,0.065868,0.0,1.0,2655.650391, set /instrumentation/slip-skid-ball/serviceable false, fly_strait
92.106834,16.561922,17.755367,6.79972,0.053885,6.79972,0.053885,20.000143,20.0,124.487259,63.312958,960.122925,296.194061,279.114044,0.076386,0.016376,884.164001,-9.45E-4,0.135319,0.063643,0.0,1.0,2656.127197, set /instrumentation/slip-skid-ball/serviceable true, fly_strait
92.221298,21.254028,22.447472,6.84465,0.078518,6.84465,0.078518,20.000143,20.0,129.318344,63.683971,971.880249,296.255646,279.08905,0.07997,0.024257,897.966187,-7.7E-4,0.135994,0.06138,0.0,1.0,2656.820557, set /instrumentation/slip-skid-ball/serviceable true, fly_strait
92.305443,24.548893,25.742338,6.876119,0.113457,6.876119,0.113457,20.000143,20.0,132.707199,63.935806,979.805298,296.279877,279.080872,0.083388,0.026429,907.163818,-0.001122,0.136893,0.058301,0.0,1.0,2657.286865, set /instrumentation/slip-skid-ball/serviceable true, fly_strait
92.401085,29.216103,30.409548,6.912351,0.158391,6.912351,0.158391,30.000143,30.0,137.496948,64.280457,990.369202,296.276245,279.080841,0.086813,0.023077,919.950684,-0.001621,0.137522,0.057089,0.0,1.0,2657.920654, set /instrumentation/slip-skid-ball/serviceable true, fly_strait
92.471581,32.449516,33.64296,6.936919,0.172008,6.936919,0.172008,30.000143,30.0,140.809967,64.511528,997.147766,296.253479,279.087585,0.086949,0.017546,928.451477,-0.002263,0.138247,0.057271,0.0,1.0,2658.345215, set /instrumentation/slip-skid-ball/serviceable true, fly_strait
92.576599,37.348667,38.54211,6.969383,0.151319,6.969383,0.151319,40.000141,40.0,145.820755,64.850273,1006.75354,296.211823,279.106079,0.084177,0.008362,940.829224,-0.002457,0.138738,0.058409,0.0,1.0,2658.969727, set /instrumentation/slip-skid-ball/serviceable true, fly_strait
92.622368,40.646202,41.839649,6.992716,0.115282,6.992716,0.115282,40.000141,40.0,149.187042,65.070969,1012.728882,296.193817,279.122894,0.081071,0.004149,948.822876,-0.002162,0.139388,0.060492,0.0,1.0,2659.368652, set /instrumentation/slip-skid-ball/serviceable true, fly_strait
92.681091,45.637344,46.830788,7.025016,0.048526,7.025016,0.048526,50.000141,50.0,154.2724,65.394463,1021.040527,296.202545,279.153259,0.076318,0.00403,960.404175,-0.001647,0.139854,0.061392,0.0,1.0,2659.916748, set /instrumentation/slip-skid-ball/serviceable true, fly_strait
92.718002,48.993233,50.186676,7.04795,0.010843,7.04795,0.010843,50.000141,50.0,157.684967,65.605179,1026.287598,296.233673,279.17627,0.074602,0.008085,967.838745,-6.93E-4,0.1405,0.060956,0.0,1.0,2660.255859, set /instrumentation/slip-skid-ball/serviceable true, fly_strait
92.769089,54.067421,55.260864,7.078262,-0.008847,7.078262,-0.008847,50.000141,50.0,162.83606,65.91391,1033.842041,296.301422,279.214203,0.074993,0.017376,978.549927,-1.55E-4,0.140959,0.059399,0.0,1.0,2660.732422, set /instrumentation/slip-skid-ball/serviceable true, fly_strait
92.800453,57.475857,58.6693,7.098841,0.002727,7.098841,0.002727,60.000141,60.0,166.290527,66.114876,1038.643311,296.3461,279.241486,0.076888,0.023157,985.397888,1.26E-4,0.141565,0.056012,0.0,1.0,2661.03125, set /instrumentation/slip-skid-ball/serviceable true, fly_strait
92.8452,62.624935,63.818378,7.123642,0.044307,7.123642,0.044307,60.000141,60.0,171.501556,66.409126,1045.442261,296.384705,279.284729,0.080462,0.02669,995.238403,-3.9E-5,0.141977,0.053778,0.0,1.0,2661.456543, set /instrumentation/slip-skid-ball/serviceable true, fly_strait
92.874702,66.080772,67.274216,7.138875,0.071467,7.138875,0.071467,70.000145,70.0,174.993591,66.600571,1049.582886,296.385925,279.314575,0.081812,0.024863,1001.515076,-6.33E-4,0.142473,0.051848,0.0,1.0,2661.727539, set /instrumentation/slip-skid-ball/serviceable true, fly_strait
92.92009,71.297066,72.490509,7.156164,0.083127,7.156164,0.083127,70.000145,70.0,180.256256,66.880798,1055.175171,296.357452,279.35968,0.08114,0.017146,1010.501709,-0.001021,0.142778,0.051787,0.0,1.0,2662.121338, set /instrumentation/slip-skid-ball/serviceable true, fly_strait
92.951363,74.79496,75.988403,7.167342,0.065347,7.167342,0.065347,70.000145,70.0,183.779312,67.06311,1058.486938,296.33075,279.38916,0.078716,0.010972,1016.200867,-0.001188,0.143123,0.05321,0.0,1.0,2662.377686, set /instrumentation/slip-skid-ball/serviceable true, fly_strait
92.999046,80.069962,81.263405,7.182572,0.00594,7.182572,0.00594,80.000145,80.0,189.08371,67.330017,1063.070313,296.306671,279.431183,0.073489,0.004792,1024.298218,-9.34E-4,0.143347,0.054546,0.0,1.0,2662.756836, set /instrumentation/slip-skid-ball/serviceable true, fly_strait
93.030441,83.604095,84.797539,7.194327,-0.042401,7.194327,-0.042401,80.000145,80.0,192.632339,67.50367,1065.994019,296.311005,279.457214,0.070314,0.004248,1029.393555,-8.5E-5,0.143651,0.055749,0.0,1.0,2663.006104, set /instrumentation/slip-skid-ball/serviceable true, fly_strait
93.075218,88.92955,90.122993,7.212128,-0.097052,7.212128,-0.097052,90.000145,90.0,197.973633,67.757851,1070.393311,296.349731,279.492828,0.067615,0.008952,1036.596558,6.06E-4,0.143887,0.055533,0.0,1.0,2663.373779, set /instrumentation/slip-skid-ball/serviceable true, fly_strait
93.111671,92.642075,93.835518,7.226089,-0.1128,7.226089,-0.1128,90.000145,90.0,201.695862,67.92997,1073.509277,296.39032,279.515076,0.067762,0.014359,1041.192993,0.001386,0.144243,0.053597,0.0,1.0,2663.623291, set /instrumentation/slip-skid-ball/serviceable true, fly_strait
93.141075,97.864433,99.057877,7.243136,-0.09814,7.243136,-0.09814,100.000145,100.0,206.925293,68.164932,1077.878418,296.440521,279.542816,0.070169,0.020593,1047.514282,0.001611,0.144522,0.051567,0.0,1.0,2663.963379, set /instrumentation/slip-skid-ball/serviceable true, fly_strait
93.165367,101.458794,102.652237,7.254291,-0.074057,7.254291,-0.074057,100.000145,100.0,210.523254,68.322052,1080.772705,296.459167,279.55957,0.072053,0.022102,1051.600586,0.001402,0.144863,0.049057,0.0,1.0,2664.19043, set /instrumentation/slip-skid-ball/serviceable true, fly_strait
93.201607,106.870529,108.063972,7.266881,-0.041857,7.266881,-0.041857,110.000145,110.0,215.937759,68.55175,1084.824707,296.453552,279.580902,0.073609,0.018708,1057.437012,0.001058,0.145086,0.048125,0.0,1.0,2664.522949, set /instrumentation/slip-skid-ball/serviceable true, fly_strait
93.22641,110.491287,111.684731,7.274454,-0.035779,7.274454,-0.035779,110.000145,110.0,219.558105,68.700981,1087.257324,296.432373,279.592346,0.072901,0.013699,1061.147339,5.98E-4,0.145338,0.048405,0.0,1.0,2664.741211, set /instrumentation/slip-skid-ball/serviceable true, fly_strait
93.264862,115.940727,117.134171,7.283789,-0.061619,7.283789,-0.061619,120.000145,120.0,225.003082,68.919136,1090.568115,296.39566,279.604614,0.069473,0.005714,1066.45166,5.11E-4,0.145489,0.049464,0.0,1.0,2665.065674, set /instrumentation/slip-skid-ball/serviceable true, fly_strait
93.290909,119.58519,120.778633,7.290848,-0.096869,7.290848,-0.096869,120.000145,120.0,228.641876,69.06089,1092.619263,296.380432,279.609283,0.066405,0.002201,1069.814941,8.8E-4,0.145676,0.0513,0.0,1.0,2665.281006, set /instrumentation/slip-skid-ball/serviceable true, fly_strait
93.329163,125.067986,126.261429,7.302254,-0.154821,7.302254,-0.154821,120.000145,120.0,234.112839,69.268112,1095.674683,296.387054,279.61084,0.062351,0.002145,1074.604248,0.001384,0.145817,0.052061,0.0,1.0,2665.602295, set /instrumentation/slip-skid-ball/serviceable true, fly_strait
93.353203,128.733368,129.926819,7.311676,-0.184119,7.311676,-0.184119,130.000137,130.0,237.768707,69.402725,1097.784424,296.410522,279.608337,0.061098,0.005289,1077.635254,0.002212,0.146045,0.05173,0.0,1.0,2665.814209, set /instrumentation/slip-skid-ball/serviceable true, fly_strait
93.386185,134.246124,135.43956,7.325548,-0.194698,7.325548,-0.194698,130.000137,130.0,243.266113,69.599396,1101.093384,296.458435,279.599915,0.061708,0.012029,1081.966675,0.00263,0.146234,0.050557,0.0,1.0,2666.126709, set /instrumentation/slip-skid-ball/serviceable true, fly_strait
93.406281,137.930862,139.124313,7.335197,-0.181605,7.335197,-0.181605,140.000137,140.0,246.940308,69.727043,1103.345703,296.48703,279.591492,0.063325,0.015792,1084.731079,0.002781,0.146511,0.048161,0.0,1.0,2666.330322, set /instrumentation/slip-skid-ball/serviceable true, fly_strait
93.434868,143.472122,144.665573,7.346379,-0.145545,7.346379,-0.145545,140.000137,140.0,252.465622,69.913391,1106.634644,296.505127,279.575226,0.066051,0.017107,1088.726929,0.002594,0.146704,0.046732,0.0,1.0,2666.628418, set /instrumentation/slip-skid-ball/serviceable true, fly_strait
93.462563,147.32811,148.521545,7.353112,-0.123463,7.353112,-0.123463,150.000137,150.0,256.31192,70.039238,1108.73999,296.497284,279.561523,0.066884,0.014633,1091.296021,0.002079,0.146928,0.045827,0.0,1.0,2666.831299, set /instrumentation/slip-skid-ball/serviceable true, fly_strait
93.483109,152.743301,153.936737,7.359895,-0.117344,7.359895,-0.117344,150.000137,150.0,261.708405,70.210655,1111.380127,296.466949,279.539032,0.065917,0.008093,1095.008789,0.001764,0.147062,0.046219,0.0,1.0,2667.112305, set /instrumentation/slip-skid-ball/serviceable true, fly_strait
93.503502,156.464523,157.657959,7.364554,-0.13255,7.364554,-0.13255,160.000137,160.0,265.415833,70.325066,1112.999146,296.443604,279.521332,0.063869,0.003416,1097.436401,0.001676,0.147198,0.047736,0.0,1.0,2667.303955, set /instrumentation/slip-skid-ball/serviceable true, fly_strait
93.534401,162.058411,163.251862,7.371917,-0.176987,7.371917,-0.176987,160.000137,160.0,270.986816,70.49205,1115.307007,296.425568,279.491394,0.059924,-4.34E-4,1100.933472,0.001894,0.147291,0.048903,0.0,1.0,2667.590576, set /instrumentation/slip-skid-ball/serviceable true, fly_strait
93.554459,165.795288,166.988739,7.378294,-0.209748,7.378294,-0.209748,170.000137,170.0,274.707184,70.600357,1116.859863,296.430817,279.469299,0.057835,-9.0E-6,1103.166748,0.002528,0.147438,0.049805,0.0,1.0,2667.78125, set /instrumentation/slip-skid-ball/serviceable true, fly_strait
93.58242,171.411499,172.60495,7.388677,-0.240232,7.388677,-0.240232,170.000137,170.0,280.29776,70.758354,1119.316772,296.462219,279.433624,0.056592,0.004604,1106.377197,0.002996,0.147566,0.049542,0.0,1.0,2668.064209, set /instrumentation/slip-skid-ball/serviceable true, fly_strait
93.599243,175.16272,176.356155,7.396658,-0.242716,7.396658,-0.242716,170.000137,170.0,284.031799,70.860756,1121.051147,296.490723,279.4086,0.057289,0.00881,1108.434937,0.003432,0.147774,0.047972,0.0,1.0,2668.25, set /instrumentation/slip-skid-ball/serviceable true, fly_strait
93.621918,180.798843,181.992294,7.406888,-0.219297,7.406888,-0.219297,180.000137,180.0,289.643921,71.009987,1123.704468,296.523895,279.370026,0.059777,0.013307,1111.358765,0.003467,0.147933,0.046547,0.0,1.0,2668.522461, set /instrumentation/slip-skid-ball/serviceable true, fly_strait
93.645142,184.719315,185.91275,7.413328,-0.194318,7.413328,-0.194318,180.000137,180.0,293.548889,71.110573,1125.485962,296.531769,279.342957,0.061395,0.013791,1113.286133,0.003133,0.148138,0.044888,0.0,1.0,2668.70752, set /instrumentation/slip-skid-ball/serviceable true, fly_strait
93.658218,190.221741,191.415176,7.419418,-0.168223,7.419418,-0.168223,190.000137,190.0,299.025818,71.247299,1127.758057,296.517975,279.304993,0.062497,0.010303,1116.141235,0.002776,0.148267,0.044495,0.0,1.0,2668.962646, set /instrumentation/slip-skid-ball/serviceable true, fly_strait
93.673416,194.000885,195.194336,7.42299,-0.164623,7.42299,-0.164623,190.000137,190.0,302.787415,71.338356,1129.125366,296.497314,279.278992,0.061794,0.006179,1118.014526,0.002403,0.148388,0.045184,0.0,1.0,2669.135742, set /instrumentation/slip-skid-ball/serviceable true, fly_strait
93.697166,199.679092,200.872543,7.427758,-0.186648,7.427758,-0.186648,200.000137,200.0,308.437897,71.470955,1130.975464,296.46759,279.240051,0.059021,4.75E-4,1120.733032,0.002352,0.14846,0.046217,0.0,1.0,2669.394775, set /instrumentation/slip-skid-ball/serviceable true, fly_strait
93.721939,203.626633,204.820084,7.431942,-0.214542,7.431942,-0.214542,200.000137,200.0,312.367096,71.560295,1132.199097,296.457733,279.213165,0.056805,-0.001502,1122.438477,0.002666,0.148555,0.047704,0.0,1.0,2669.574463, set /instrumentation/slip-skid-ball/serviceable true, fly_strait
93.736252,209.165176,210.358627,7.438802,-0.252306,7.438802,-0.252306,210.000137,210.0,317.875183,71.681702,1133.947876,296.467621,279.175934,0.054277,-1.58E-4,1124.957642,0.003065,0.148639,0.048196,0.0,1.0,2669.825195, set /instrumentation/slip-skid-ball/serviceable true, fly_strait
93.750473,212.967819,214.16127,7.444785,-0.267988,7.444785,-0.267988,210.000137,210.0,321.657196,71.762505,1135.233154,296.487946,279.151031,0.05387,0.002969,1126.586426,0.003604,0.148776,0.047702,0.0,1.0,2669.995605, set /instrumentation/slip-skid-ball/serviceable false, fly_strait
93.769424,218.679657,219.873093,7.453585,-0.264604,7.453585,-0.264604,220.000137,220.0,327.338623,71.88002,1137.287598,296.523956,279.115295,0.054043,0.008437,1128.937134,0.003828,0.148896,0.046686,0.0,1.0,2670.247314, set /instrumentation/slip-skid-ball/serviceable false, fly_strait
93.780746,222.492783,223.686218,7.459462,-0.247937,7.459462,-0.247937,220.000137,220.0,331.132019,71.955925,1138.688599,296.542328,279.092865,0.054043,0.010987,1130.4552,0.00378,0.149072,0.044885,0.0,1.0,2670.411865, set /instrumentation/slip-skid-ball/serviceable false, fly_strait
93.796913,228.220352,229.413788,7.465693,-0.215575,7.465693,-0.215575,230.000137,230.0,336.830719,72.066177,1140.69519,296.548096,279.061737,0.054043,0.011033,1132.677124,0.003542,0.149189,0.043967,0.0,1.0,2670.654053, set /instrumentation/slip-skid-ball/serviceable false, fly_strait
93.807861,232.043945,233.237396,7.468999,-0.199461,7.468999,-0.199461,230.000137,230.0,340.635132,72.137329,1141.887451,296.53717,279.042755,0.054043,0.008626,1134.127319,0.00308,0.149314,0.043678,0.0,1.0,2670.812988, set /instrumentation/slip-skid-ball/serviceable false, fly_strait
93.824806,237.783569,238.977005,7.472381,-0.198422,7.472381,-0.198422,240.000137,240.0,346.348724,72.240623,1143.449707,296.508972,279.016754,0.054043,0.003185,1136.096313,0.002849,0.14938,0.044225,0.0,1.0,2671.049561, set /instrumentation/slip-skid-ball/serviceable false, fly_strait
93.84584,241.775452,242.968903,7.474874,-0.21387,7.474874,-0.21387,240.000137,240.0,350.32077,72.310005,1144.4104,296.490662,279.000366,0.054043,-2.01E-4,1137.479736,0.002835,0.149448,0.045634,0.0,1.0,2671.213867, set /instrumentation/slip-skid-ball/serviceable false, fly_strait
93.855278,247.371933,248.565369,7.479051,-0.248211,7.479051,-0.248211,250.000137,250.0,355.887115,72.404007,1145.696411,296.48172,278.979553,0.054043,-0.001934,1139.441895,0.003055,0.149497,0.04655,0.0,1.0,2671.443848, set /instrumentation/slip-skid-ball/serviceable false, fly_strait
93.867279,251.215012,252.408447,7.483071,-0.270799,7.483071,-0.270799,250.000137,250.0,359.707672,72.466393,1146.623291,296.489746,278.966766,0.054043,-7.2E-4,1140.805786,0.003546,0.149581,0.046997,0.0,1.0,2671.601318, set /instrumentation/slip-skid-ball/serviceable false, fly_strait
93.881294,256.985321,258.178772,7.491341,-0.312276,7.491341,-0.312276,260.000153,260.0,365.444672,72.556854,1148.145874,296.578857,278.950043,0.054043,0.014497,1142.737427,0.00129,0.149661,0.1,0.0,1.0,2671.834961, set /instrumentation/slip-skid-ball/serviceable false, turn_+45
93.88092,260.835999,262.029449,7.505415,-0.320031,7.505415,-0.320031,260.000153,260.0,369.273956,72.615013,1149.462158,296.787354,278.941284,0.054043,0.047658,1143.964478,0.001487,0.149827,0.1,0.0,1.0,2671.98291, set /instrumentation/slip-skid-ball/serviceable false, turn_+45
93.856468,266.618256,267.811676,7.538053,-0.146853,7.538053,-0.146853,270.000153,270.0,375.029175,72.698761,1152.828125,297.221985,278.935028,0.054043,0.113598,1145.762329,0.001524,0.150108,0.1,0.0,1.0,2672.174316, set /instrumentation/slip-skid-ball/serviceable false, turn_+45
93.82515,270.47821,271.671661,7.559901,0.108781,7.559901,0.108781,270.000153,270.0,378.877228,72.752007,1156.000366,297.510803,278.937683,0.054043,0.154619,1146.98877,6.99E-4,0.150761,0.1,0.0,1.0,2672.271973, set /instrumentation/slip-skid-ball/serviceable false, turn_+45
93.766922,276.278442,277.471893,7.573098,0.63845,7.573098,0.63845,280.000153,280.0,384.669983,72.827675,1160.804321,297.837433,278.954895,0.054043,0.194814,1148.987427,-5.18E-4,0.151198,0.1,0.0,1.0,2672.371094, set /instrumentation/slip-skid-ball/serviceable false, turn_+45
93.735229,280.312927,281.506348,7.572365,1.048404,7.572365,1.048404,280.000153,280.0,388.705292,72.877167,1163.304565,297.960083,278.97702,0.054043,0.203746,1150.416748,-0.00304,0.151462,0.1,0.0,1.0,2672.414307, set /instrumentation/slip-skid-ball/serviceable false, turn_+45
93.680138,285.977295,287.170715,7.563439,1.565159,7.563439,1.565159,290.000153,290.0,394.365845,72.942352,1165.223755,298.001709,279.021545,0.054043,0.19339,1152.834839,-0.004992,0.151447,0.1,0.0,1.0,2672.458008, set /instrumentation/slip-skid-ball/serviceable false, turn_+45
93.655869,289.868469,291.06192,7.556009,1.844824,7.556009,1.844824,290.000153,290.0,398.250549,72.984459,1165.457397,297.975891,279.06015,0.054043,0.177204,1154.523926,-0.007453,0.151269,0.1,0.0,1.0,2672.487061, set /instrumentation/slip-skid-ball/serviceable false, turn_+45
93.629829,295.714203,296.907654,7.547108,2.112699,7.547108,2.112699,300.000153,300.0,404.076202,73.044014,1164.639038,297.928345,279.128021,0.054043,0.151594,1157.002808,-0.008785,0.15112,0.1,0.0,1.0,2672.540283, set /instrumentation/slip-skid-ball/serviceable false, turn_+45
93.625267,299.776093,300.969543,7.540825,2.208899,7.540825,2.208899,300.000153,300.0,408.118256,73.083069,1163.565186,297.930969,279.180786,0.054043,0.139878,1158.483521,-0.01006,0.150942,0.1,0.0,1.0,2672.587158, set /instrumentation/slip-skid-ball/serviceable false, turn_+45
93.602257,305.469574,306.663025,7.533195,2.263552,7.533195,2.263552,300.000153,300.0,413.770081,73.13485,1161.811157,298.022888,279.261139,0.054043,0.137623,1160.49939,-0.010519,0.150817,0.1,0.0,1.0,2672.665771, set /instrumentation/slip-skid-ball/serviceable false, turn_+45
93.591888,309.372437,310.565887,7.528343,2.284516,7.528343,2.284516,310.000153,310.0,417.640839,73.16851,1160.714966,298.149506,279.320557,0.054043,0.145898,1161.558105,-0.010779,0.150664,0.1,0.0,1.0,2672.72583, set /instrumentation/slip-skid-ball/serviceable false, turn_+45
93.572838,315.227509,316.420929,7.523903,2.341989,7.523903,2.341989,310.000153,310.0,423.441071,73.216255,1159.533325,298.415222,279.417145,0.054043,0.169026,1162.884644,-0.010879,0.150567,0.1,0.0,1.0,2672.818604, set /instrumentation/slip-skid-ball/serviceable false, turn_+45
93.556557,319.129333,320.322784,7.521903,2.415892,7.521903,2.415892,320.000153,320.0,427.30545,73.246231,1159.142578,298.6203,279.487335,0.054043,0.187598,1163.530151,-0.011152,0.150478,0.1,0.0,1.0,2672.87793, set /instrumentation/slip-skid-ball/serviceable false, turn_+45
93.527458,324.979584,326.173004,7.519575,2.583046,7.519575,2.583046,320.000153,320.0,433.100616,73.288383,1158.995239,298.929199,279.602936,0.054043,0.213316,1164.20752,-0.011504,0.150438,0.1,0.0,1.0,2672.95874, set /instrumentation/slip-skid-ball/serviceable false, turn_+45
93.506424,328.878174,330.071625,7.517323,2.722888,7.517323,2.722888,330.000153,330.0,436.963989,73.31459,1159.021973,299.117828,279.6875,0.054043,0.226195,1164.510376,-0.0123,0.150392,0.1,0.0,1.0,2673.006348, set /instrumentation/slip-skid-ball/serviceable false, turn_+45
93.475433,334.724091,335.917542,7.512721,2.941642,7.512721,2.941642,330.000153,330.0,442.758972,73.351082,1158.911011,299.360779,279.826233,0.054043,0.237124,1164.807617,-0.012966,0.150346,0.1,0.0,1.0,2673.070557, set /instrumentation/slip-skid-ball/serviceable false, turn_+45
93.46402,338.780457,339.973907,7.508451,3.083548,7.508451,3.083548,340.000153,340.0,446.78244,73.374481,1158.580933,299.503418,279.930908,0.054043,0.239514,1164.818237,-0.014008,0.150254,0.1,0.0,1.0,2673.113281, set /instrumentation/slip-skid-ball/serviceable false, turn_+45
93.431862,344.461182,345.654633,7.502176,3.242795,7.502176,3.242795,340.000153,340.0,452.412384,73.404709,1157.688354,299.682861,280.088379,0.054043,0.238556,1164.956909,-0.014684,0.150169,0.1,0.0,1.0,2673.174561, set /instrumentation/slip-skid-ball/serviceable false, turn_+45
93.417984,348.354309,349.54776,7.497145,3.323314,7.497145,3.323314,350.000153,350.0,456.269897,73.423828,1156.825806,299.804596,280.203247,0.054043,0.237229,1164.945068,-0.015442,0.150044,0.1,0.0,1.0,2673.219971, set /instrumentation/slip-skid-ball/serviceable false, turn_+45
93.399971,354.190491,355.383942,7.489714,3.402578,7.489714,3.402578,350.000153,350.0,462.05014,73.450226,1155.281616,300.004059,280.385345,0.054043,0.237319,1164.790527,-0.015825,0.149943,0.1,0.0,1.0,2673.293945, set /instrumentation/slip-skid-ball/serviceable false, turn_+45
93.396805,358.238342,359.431793,7.484038,3.439055,7.484038,3.439055,360.000153,360.0,466.059509,73.467026,1154.147705,300.161835,280.518341,0.054043,0.240034,1164.467285,-0.016203,0.149794,0.1,0.0,1.0,2673.349365, set /instrumentation/slip-skid-ball/serviceable false, turn_+45
93.372849,363.904236,365.097687,7.477108,3.480334,7.477108,3.480334,360.000153,360.0,471.666077,73.488564,1152.630859,300.411438,280.713226,0.054043,0.247641,1164.09082,-0.016376,0.149681,0.1,0.0,1.0,2673.431641, set /instrumentation/slip-skid-ball/serviceable false, turn_+45
93.361725,367.785278,368.978699,7.472349,3.511603,7.472349,3.511603,370.000153,370.0,475.506592,73.502029,1151.7229,300.598328,280.852722,0.054043,0.254757,1163.70166,-0.016573,0.149542,0.1,0.0,1.0,2673.48999, set /instrumentation/slip-skid-ball/serviceable false, turn_+45
93.343918,373.600983,374.794403,7.466393,3.571321,7.466393,3.571321,370.000153,370.0,481.262146,73.520287,1150.575806,300.891876,281.070953,0.054043,0.266425,1162.983521,-0.016722,0.149447,0.1,0.0,1.0,2673.577637, set /instrumentation/slip-skid-ball/serviceable false, turn_+45
93.331406,377.474243,378.667694,7.462433,3.621186,7.462433,3.621186,380.000153,380.0,485.096283,73.531189,1149.938477,301.089355,281.222443,0.054043,0.273726,1162.433716,-0.017006,0.149328,0.1,0.0,1.0,2673.635498, set /instrumentation/slip-skid-ball/serviceable false, turn_+45
93.312317,383.278595,384.472046,7.457336,3.704993,7.457336,3.704993,380.000153,380.0,490.84375,73.545685,1149.081787,301.379242,281.458527,0.054043,0.282537,1161.536499,-0.017244,0.149249,0.1,0.0,1.0,2673.721436, set /instrumentation/slip-skid-ball/serviceable false, turn_+45
93.299828,387.144623,388.338074,7.453713,3.762908,7.453713,3.762908,390.000153,390.0,494.673065,73.554131,1148.526367,301.565704,281.621582,0.054043,0.28667,1160.907104,-0.017643,0.149147,0.1,0.0,1.0,2673.77832, set /instrumentation/slip-skid-ball/serviceable true, turn_+45
93.28212,392.938538,394.131989,7.448626,3.842401,7.448626,3.842401,390.000153,390.0,500.413422,73.565063,1147.628052,301.835876,281.874146,0.072691,0.290507,1159.9375,-0.017919,0.149074,0.1,0.0,1.0,2673.864258, set /instrumentation/slip-skid-ball/serviceable true, turn_+45
93.272133,396.476349,397.6698,7.445147,3.884452,7.445147,3.884452,400.000153,400.0,503.919128,73.570755,1147.02417,301.997589,282.032837,0.085285,0.291919,1159.335938,-0.018297,0.148973,0.1,0.0,1.0,2673.917725, set /instrumentation/slip-skid-ball/serviceable true, turn_+45
93.255951,402.578888,403.772308,7.439401,3.941046,7.439401,3.941046,400.000153,400.0,509.969788,73.578918,1145.877319,302.277161,282.313751,0.104048,0.293806,1158.170044,-0.018497,0.148903,0.1,0.0,1.0,2674.012695, set /instrumentation/slip-skid-ball/serviceable true, turn_+45
93.225334,408.357513,409.550934,7.433564,3.978756,7.433564,3.978756,410.000153,410.0,515.696106,73.584816,1144.59314,302.549194,282.586884,0.115221,0.296155,1157.220215,-0.018767,0.148788,0.1,0.0,1.0,2674.100098, set /instrumentation/slip-skid-ball/serviceable true, turn_+45
93.193062,412.206238,413.399689,7.429797,3.992727,7.429797,3.992727,410.000153,410.0,519.509399,73.587837,1143.385742,302.739685,282.772308,0.119807,0.298774,1156.55603,-0.018946,0.148671,0.1,0.0,1.0,2674.138916, set /instrumentation/slip-skid-ball/serviceable true, turn_+45
93.146461,417.973206,419.166626,7.42326,3.998314,7.42326,3.998314,420.000153,420.0,525.22113,73.59111,1141.321899,303.047333,283.05484,0.124379,0.305369,1155.491577,-0.019013,0.148596,0.1,0.0,1.0,2674.174561, set /instrumentation/slip-skid-ball/serviceable true, turn_+45
93.116074,421.813263,423.006714,7.417069,3.999031,7.417069,3.999031,420.000153,420.0,529.022949,73.592514,1139.820679,303.2677,283.246033,0.126887,0.311581,1154.722412,-0.01904,0.148465,0.1,0.0,1.0,2674.188232, set /instrumentation/slip-skid-ball/serviceable true, turn_+45
