airspeed_indicator_indicated_speed_kt,altimeter_indicated_altitude_ft,altimeter_pressure_alt_ft,attitude_indicator_indicated_pitch_deg,attitude_indicator_indicated_roll_deg,attitude_indicator_internal_pitch_deg,attitude_indicator_internal_roll_deg,encoder_indicated_altitude_ft,encoder_pressure_alt_ft,gps_indicated_altitude_ft,gps_indicated_ground_speed_kt,gps_indicated_vertical_speed,indicated_heading_deg,magnetic_compass_indicated_heading_deg,slip_skid_ball_indicated_slip_skid,turn_indicator_indicated_turn_rate,vertical_speed_indicator_indicated_speed_fpm,flight_aileron,flight_elevator,flight_rudder,flight_flaps,engine_throttle,engine_rpm,Command_fault,Command
6.364725,-87.979362,-86.785919,2.975585,1.374765,2.591548,0.094643,-89.999855,-90.0,2.286482,0.0,0.005694,297.867401,277.573822,0.012296,-0.046639,-15.043396,-0.0,0.0,0.0,0.0,0.0,600.128662,, takeoff
6.415333,-87.994553,-86.801109,2.933403,1.233581,2.591861,0.095107,-89.999855,-90.0,2.286512,0.0,0.002378,297.86618,280.996948,0.012219,-0.040118,-11.70915,-0.019639,0.051831,0.0,0.0,1.0,608.501343,, takeoff
6.455064,-88.002472,-86.809021,2.776839,0.736072,2.584548,0.095102,-89.999855,-90.0,2.286494,3.4E-5,-0.012427,297.865295,283.240753,0.012094,-0.036307,-12.15995,-0.017623,0.051837,6.1E-5,0.0,1.0,672.632385,, takeoff
6.526064,-88.012054,-86.818611,2.575702,0.195926,2.544748,0.092745,-89.999855,-90.0,2.28635,2.38E-4,-0.04321,297.863739,286.597443,0.011837,-0.031221,-7.227852,-0.010515,0.051691,1.05E-4,0.0,1.0,858.719604,, takeoff
6.598277,-88.016754,-86.823311,2.511756,0.08901,2.511756,0.08901,-89.999855,-90.0,2.286242,7.35E-4,-0.019997,297.86261,288.601044,0.011743,-0.028511,-18.389322,-0.002799,0.050895,1.83E-4,0.0,1.0,1004.483826,, takeoff
6.793892,-88.022614,-86.82917,2.492907,0.079281,2.492907,0.079281,-89.999855,-90.0,2.286303,0.003803,0.042373,297.860596,291.578156,0.011146,-0.024888,-9.222897,-0.001272,0.050235,2.4E-4,0.0,1.0,1245.61438,, takeoff
6.989982,-88.025681,-86.83223,2.497796,0.070742,2.497796,0.070742,-89.999855,-90.0,2.286513,0.008748,0.082065,297.858673,293.438782,0.010474,-0.022901,-12.291026,-0.001133,0.049858,3.4E-4,0.0,1.0,1401.355591,, takeoff
7.404254,-88.029335,-86.835892,2.518256,0.055734,2.518256,0.055734,-89.999855,-90.0,2.287088,0.023646,0.138607,297.853516,296.086609,0.009431,-0.020599,-17.208712,-0.001011,0.049956,4.36E-4,0.0,1.0,1616.689209,, takeoff
7.728915,-88.031059,-86.837616,2.534174,0.046012,2.534174,0.046012,-89.999855,-90.0,2.287595,0.038808,0.177797,297.848022,297.585938,0.009165,-0.019721,-13.631252,-7.96E-4,0.050365,6.94E-4,0.0,1.0,1730.984619,, takeoff
8.331722,-88.033066,-86.839622,2.559115,0.03147,2.559115,0.03147,-89.999855,-90.0,2.288617,0.073961,0.235444,297.83432,299.690094,0.00646,-0.019304,-10.603178,-6.57E-4,0.050683,9.69E-4,0.0,1.0,1878.057495,, takeoff
8.331722,-88.033066,-86.839622,2.559115,0.03147,2.559115,0.03147,-89.999855,-90.0,2.288617,0.073961,0.235444,297.83432,299.690094,0.00646,-0.019304,-10.603178,-6.57E-4,0.050683,9.69E-4,0.0,1.0,1878.057495,, takeoff
9.502055,-88.035194,-86.841743,2.594052,0.012909,2.594052,0.012909,-89.999855,-90.0,2.290911,0.16576,0.33198,297.793671,302.419189,0.009102,-0.02148,-7.554499,-4.5E-4,0.051182,0.001654,0.0,1.0,2041.816772,, takeoff
10.083836,-88.035393,-86.841949,2.606682,0.006562,2.606682,0.006562,-89.999855,-90.0,2.292202,0.22277,0.381855,297.766907,303.367645,0.012547,-0.023562,-9.179775,-1.84E-4,0.051881,0.003687,0.0,1.0,2091.742188,, takeoff
10.93658,-88.035179,-86.841736,2.619556,1.5E-4,2.619556,1.5E-4,-89.999855,-90.0,2.294293,0.319068,0.453202,297.724884,304.39563,0.015934,-0.026792,-7.463242,-9.4E-5,0.052134,0.005025,0.0,1.0,2142.852295,, takeoff
11.525854,-88.034744,-86.841301,2.626709,-0.002772,2.626709,-0.002772,-89.999855,-90.0,2.295895,0.394766,0.505255,297.693481,304.8974,0.017634,-0.029193,1.571146,-2.0E-6,0.052391,0.007126,0.0,1.0,2167.745605,, takeoff
12.458991,-88.033653,-86.84021,2.635706,-0.005554,2.635706,-0.005554,-89.999855,-90.0,2.298705,0.529734,0.586416,297.643188,305.387817,0.019418,-0.032671,12.214631,4.0E-5,0.052534,0.008696,0.0,1.0,2195.298584,, takeoff
13.074709,-88.032677,-86.839233,2.640781,-0.006474,2.640781,-0.006474,-89.999855,-90.0,2.300755,0.629148,0.640344,297.609589,305.526764,0.020286,-0.034783,16.729372,7.9E-5,0.052714,0.011211,0.0,1.0,2207.762451,, takeoff
14.009204,-88.030846,-86.837402,2.647246,-0.006838,2.647246,-0.006838,-89.999855,-90.0,2.304173,0.79565,0.723716,297.562042,305.481445,0.021163,-0.037071,13.568334,9.2E-5,0.052816,0.012891,0.0,1.0,2220.866943,, takeoff
14.610626,-88.029442,-86.835999,2.651047,-0.00644,2.651047,-0.00644,-89.999855,-90.0,2.306577,0.912815,0.777511,297.533722,305.300262,0.021637,-0.038022,5.414327,9.8E-5,0.052945,0.015268,0.0,1.0,2227.530273,, takeoff
15.583224,-88.02681,-86.833366,2.656708,-0.005101,2.656708,-0.005101,-89.999855,-90.0,2.310807,1.118636,0.865203,297.494812,304.776001,0.022211,-0.038288,6.344128,9.2E-5,0.053021,0.016684,0.0,1.0,2236.484863,, takeoff
16.163809,-88.025032,-86.831589,2.660114,-0.004046,2.660114,-0.004046,-89.999855,-90.0,2.313538,1.250984,0.918362,297.475037,304.337341,0.022574,-0.0379,16.7038,7.3E-5,0.053134,0.018629,0.0,1.0,2240.966064, set /instrumentation/altimeter/serviceable false, takeoff
17.142916,-88.023819,-86.830376,2.665709,-0.002109,2.665709,-0.002109,-89.999855,-90.0,2.318496,1.489975,1.007294,297.448944,303.406219,0.023351,-0.036185,6.742926,5.8E-5,0.053202,0.019618,0.0,1.0,2247.394531, set /instrumentation/altimeter/serviceable false, takeoff
17.80584,-88.023819,-86.830376,2.669613,-6.19E-4,2.669613,-6.19E-4,-89.999855,-90.0,2.322106,1.662872,1.068056,297.435364,302.653259,0.023896,-0.03454,6.143765,3.0E-5,0.053314,0.020923,0.0,1.0,2251.108154, set /instrumentation/altimeter/serviceable false, takeoff
18.761616,-88.023819,-86.830376,2.675141,0.001684,2.675141,0.001684,-89.999855,-90.0,2.327674,1.927628,1.155078,297.421326,301.417084,0.024739,-0.031596,15.249545,9.0E-6,0.053392,0.021602,0.0,1.0,2255.772705, set /instrumentation/altimeter/serviceable false, takeoff
19.372675,-88.023819,-86.830376,2.678779,0.003324,2.678779,0.003324,-89.999855,-90.0,2.33146,2.106319,1.210682,297.414581,300.546448,0.025282,-0.029589,16.225679,-2.4E-5,0.053503,0.022304,0.0,1.0,2258.418701, set /instrumentation/altimeter/serviceable false, takeoff
20.329592,-88.023819,-86.830376,2.684457,0.006151,2.684457,0.006151,-89.999855,-90.0,2.337744,2.400566,1.299647,297.405914,299.080566,0.025956,-0.026534,14.261962,-4.7E-5,0.053576,0.022641,0.0,1.0,2262.159912, set /instrumentation/altimeter/serviceable false, takeoff
20.96711,-88.023819,-86.830376,2.688367,0.008262,2.688367,0.008262,-89.999855,-90.0,2.342177,2.606376,1.356792,297.399902,298.047455,0.026225,-0.024785,17.572525,-8.8E-5,0.053689,0.023074,0.0,1.0,2264.439697, set /instrumentation/altimeter/serviceable false, takeoff
21.950583,-88.023819,-86.830376,2.694333,0.011857,2.694333,0.011857,-89.999855,-90.0,2.349391,2.938376,1.449643,297.38858,296.392731,0.026217,-0.022735,19.170916,-1.18E-4,0.053767,0.023375,0.0,1.0,2267.70166, set /instrumentation/altimeter/serviceable false, takeoff
22.561268,-88.023819,-86.830376,2.698181,0.014326,2.698181,0.014326,-89.999855,-90.0,2.354109,3.153533,1.505045,297.379303,295.339539,0.025899,-0.021971,13.145665,-1.69E-4,0.053887,0.023941,0.0,1.0,2269.60791, set /instrumentation/altimeter/serviceable false, takeoff
23.51586,-88.023819,-86.830376,2.704131,0.018433,2.704131,0.018433,-89.999855,-90.0,2.361852,3.503437,1.590058,297.360962,293.675842,0.024907,-0.021504,17.361666,-2.05E-4,0.053964,0.024405,0.0,1.0,2272.450439, set /instrumentation/altimeter/serviceable false, takeoff
24.152092,-88.023819,-86.830376,2.708262,0.021354,2.708262,0.021354,-89.999855,-90.0,2.367258,3.745395,1.648342,297.345764,292.569153,0.023949,-0.021695,13.801199,-2.63E-4,0.054083,0.025322,0.0,1.0,2274.27124, set /instrumentation/altimeter/serviceable false, takeoff
25.106003,-88.023819,-86.830376,2.714446,0.025821,2.714446,0.025821,-89.999855,-90.0,2.375732,4.120997,1.73925,297.319672,290.933716,0.022151,-0.022443,8.464806,-3.05E-4,0.054165,0.026082,0.0,1.0,2276.918457, set /instrumentation/altimeter/serviceable false, takeoff
25.766706,-88.023819,-86.830376,2.718931,0.028999,2.718931,0.028999,-89.999855,-90.0,2.381875,4.390544,1.796997,297.299438,289.827515,0.020817,-0.023231,7.189697,-3.69E-4,0.054289,0.027386,0.0,1.0,2278.710693, set /instrumentation/altimeter/serviceable false, takeoff
26.717365,-88.023819,-86.830376,2.727914,0.035306,2.727914,0.035306,-89.999855,-90.0,2.391344,4.790867,2.011405,297.269501,288.295624,0.019203,-0.024279,19.185947,-4.14E-4,0.054379,0.028398,0.0,1.0,2281.242676, set /instrumentation/altimeter/serviceable false, takeoff
27.349831,-88.023819,-86.830376,2.735738,0.042446,2.735738,0.042446,-89.999855,-90.0,2.39828,5.065519,2.160865,297.249176,287.323883,0.017752,-0.024898,7.030107,-5.04E-4,0.054558,0.029895,0.0,1.0,2282.905273, set /instrumentation/altimeter/serviceable false, takeoff
28.271168,-88.023819,-86.830376,2.742476,0.047112,2.742476,0.047112,-89.999855,-90.0,2.40901,5.476863,2.253013,297.221161,285.991516,0.015576,-0.025538,11.308934,-6.06E-4,0.054715,0.030911,0.0,1.0,2285.303223, set /instrumentation/altimeter/serviceable false, takeoff
28.900946,-88.023819,-86.830376,2.746787,0.049927,2.746787,0.049927,-89.999855,-90.0,2.416623,5.766147,2.312837,297.203278,285.143158,0.014579,-0.025729,15.552157,-6.73E-4,0.05485,0.032312,0.0,1.0,2286.933105, set /instrumentation/altimeter/serviceable false, takeoff
29.870953,-88.023819,-86.830376,2.753653,0.053959,2.753653,0.053959,-89.999855,-90.0,2.428777,6.223285,2.41165,297.178986,283.950592,0.013627,-0.025475,12.846261,-7.13E-4,0.054936,0.033206,0.0,1.0,2289.428711, set /instrumentation/altimeter/serviceable false, takeoff
30.498947,-88.023819,-86.830376,2.758399,0.056614,2.758399,0.056614,-89.999855,-90.0,2.436935,6.526847,2.476498,297.164673,283.257202,0.013267,-0.025112,19.087688,-7.71E-4,0.055073,0.034421,0.0,1.0,2291.039063, set /instrumentation/altimeter/serviceable false, takeoff
31.386864,-88.023819,-86.830376,2.765086,0.060362,2.765086,0.060362,-89.999855,-90.0,2.448859,6.966089,2.567675,297.14624,282.38913,0.013021,-0.024364,17.556297,-8.09E-4,0.055168,0.035136,0.0,1.0,2293.311523, set /instrumentation/altimeter/serviceable false, takeoff
32.038464,-88.023819,-86.830376,2.770149,0.063291,2.770149,0.063291,-89.999855,-90.0,2.457902,7.295751,2.635169,297.133026,281.839233,0.012824,-0.023837,16.391998,-8.62E-4,0.055302,0.036058,0.0,1.0,2294.977539, set /instrumentation/altimeter/serviceable false, takeoff
33.000763,-88.023819,-86.830376,2.777545,0.067815,2.777545,0.067815,-89.999855,-90.0,2.471713,7.793729,2.734284,297.112854,281.166168,0.01246,-0.023255,10.336353,-9.04E-4,0.055403,0.036719,0.0,1.0,2297.4375, set /instrumentation/altimeter/serviceable false, takeoff
33.598289,-88.023819,-86.830376,2.78226,0.070861,2.78226,0.070861,-89.999855,-90.0,2.480555,8.109173,2.800339,297.098846,280.833099,0.011985,-0.023177,8.569021,-9.69E-4,0.055551,0.037727,0.0,1.0,2298.964111, set /instrumentation/altimeter/serviceable false, takeoff
34.53019,-88.023819,-86.830376,2.793499,0.075748,2.793499,0.075748,-89.999855,-90.0,2.494985,8.611685,3.388462,297.074371,280.442535,0.010831,-0.023454,17.235424,-0.001012,0.055645,0.038428,0.0,1.0,2301.350342, set /instrumentation/altimeter/serviceable false, takeoff
35.17519,-88.023819,-86.830376,2.801871,0.079441,2.801871,0.079441,-89.999855,-90.0,2.50632,8.966763,3.301172,297.054718,280.263641,0.009674,-0.024049,8.871406,-0.001082,0.05587,0.039651,0.0,1.0,2303.005371, set /instrumentation/altimeter/serviceable false, takeoff
36.076656,-88.023819,-86.830376,2.808242,0.084589,2.808242,0.084589,-89.999855,-90.0,2.522601,9.472005,3.393386,297.024445,280.136383,0.007554,-0.025196,9.397882,-0.001135,0.056037,0.040634,0.0,1.0,2305.320068, set /instrumentation/altimeter/serviceable false, takeoff
36.719173,-88.023819,-86.830376,2.812877,0.088399,2.812877,0.088399,-89.999855,-90.0,2.534518,9.838529,3.464633,297.000946,280.130066,0.00591,-0.026212,18.508736,-0.001208,0.056165,0.042148,0.0,1.0,2306.972168, set /instrumentation/altimeter/serviceable false, takeoff
37.590889,-88.023819,-86.830376,2.819468,0.093378,2.819468,0.093378,-89.999855,-90.0,2.55113,10.344289,3.564116,296.968201,280.228394,0.003681,-0.027539,10.091213,-0.001263,0.056258,0.043323,0.0,1.0,2309.217773, set /instrumentation/altimeter/serviceable false, takeoff
38.255859,-88.023819,-86.830376,2.824836,0.097215,2.824836,0.097215,-89.999855,-90.0,2.564152,10.736543,3.640956,296.942657,280.381622,0.001749,-0.028515,14.053624,-0.001334,0.056389,0.04496,0.0,1.0,2310.934082, set /instrumentation/altimeter/serviceable false, takeoff
39.148632,-88.023819,-86.830376,2.831965,0.101975,2.831965,0.101975,-89.999855,-90.0,2.582119,11.27184,3.743722,296.909302,280.685852,-3.52E-4,-0.029499,12.573233,-0.001389,0.056497,0.046237,0.0,1.0,2313.24292, set /instrumentation/altimeter/serviceable false, takeoff
39.784649,-88.023819,-86.830376,2.837034,0.105338,2.837034,0.105338,-89.999855,-90.0,2.595247,11.659137,3.799325,296.886383,280.965851,-0.001505,-0.029975,15.278748,-0.001457,0.056639,0.047905,0.0,1.0,2314.891113, set /instrumentation/altimeter/serviceable false, takeoff
40.646534,-88.023819,-86.830376,2.855459,0.112479,2.855459,0.112479,-89.999855,-90.0,2.614105,12.192235,4.268739,296.857361,281.420868,-0.002456,-0.030141,15.332333,-0.001505,0.056741,0.049051,0.0,1.0,2317.131104, set /instrumentation/altimeter/serviceable false, takeoff
41.304611,-88.023819,-86.830376,2.860447,0.117425,2.860447,0.117425,-89.999855,-90.0,2.629872,12.604688,4.414179,296.836273,281.819305,-0.003309,-0.030112,12.847395,-0.001607,0.057109,0.050502,0.0,1.0,2318.843018, set /instrumentation/altimeter/serviceable false, takeoff
42.185158,-88.023819,-86.830376,2.864295,0.121701,2.864295,0.121701,-89.999855,-90.0,2.651601,13.166225,4.521635,296.809937,282.413635,-0.003825,-0.029799,13.010322,-0.001677,0.057209,0.051556,0.0,1.0,2321.144775, set /instrumentation/altimeter/serviceable false, takeoff
42.812992,-88.023819,-86.830376,2.86841,0.124821,2.86841,0.124821,-89.999855,-90.0,2.667454,13.571611,4.602695,296.791656,282.871735,-0.003993,-0.029528,13.696473,-0.001739,0.057286,0.052873,0.0,1.0,2322.787354, set /instrumentation/altimeter/serviceable false, takeoff
43.689915,-88.023819,-86.830376,2.875103,0.129225,2.875103,0.129225,-89.999855,-90.0,2.690126,14.144926,4.722946,296.766235,283.54892,-0.004114,-0.029169,15.656207,-0.001783,0.057368,0.053787,0.0,1.0,2325.861572, set /instrumentation/altimeter/serviceable false, takeoff
44.263706,-88.023819,-86.830376,2.87981,0.13241,2.87981,0.13241,-89.999855,-90.0,2.705326,14.52522,4.792115,296.748657,284.01059,-0.004276,-0.029108,14.550786,-0.001846,0.057502,0.055058,0.0,1.0,2328.619873, set /instrumentation/altimeter/serviceable false, takeoff
45.160233,-88.023819,-86.830376,2.893535,0.137911,2.893535,0.137911,-89.999855,-90.0,2.730995,15.125902,5.391829,296.71936,284.748688,-0.004782,-0.029284,14.888026,-0.001892,0.057596,0.055937,0.0,1.0,2333.652344, set /instrumentation/altimeter/serviceable false, takeoff
45.781765,-88.023819,-86.830376,2.899772,0.142662,2.899772,0.142662,-89.999855,-90.0,2.749909,15.546824,5.495131,296.696564,285.265533,-0.005688,-0.02977,13.764009,-0.00197,0.057871,0.057402,0.0,1.0,2337.47583, set /instrumentation/altimeter/serviceable false, takeoff
46.700821,-88.023819,-86.830376,2.906466,0.148149,2.906466,0.148149,-89.999855,-90.0,2.77848,16.175291,5.620372,296.659912,286.025421,-0.007395,-0.030877,17.255222,-0.002038,0.057995,0.058542,0.0,1.0,2343.425537, set /instrumentation/altimeter/serviceable false, takeoff
47.296375,-88.023819,-86.830376,2.911058,0.151781,2.911058,0.151781,-89.999855,-90.0,2.79736,16.586355,5.704113,296.634186,286.509003,-0.008832,-0.031818,17.80818,-0.002116,0.058129,0.060374,0.0,1.0,2347.403564, set /instrumentation/altimeter/serviceable false, takeoff
48.163876,-88.023819,-86.830376,2.917863,0.156793,2.917863,0.156793,-89.999855,-90.0,2.825397,17.190485,5.825335,296.596039,287.192139,-0.011125,-0.033108,15.847334,-0.002168,0.058221,0.061661,0.0,1.0,2353.304688, set /instrumentation/altimeter/serviceable false, takeoff
48.7584,-88.023819,-86.830376,2.922777,0.160239,2.922777,0.160239,-89.999855,-90.0,2.844973,17.607855,5.911051,296.569397,287.640533,-0.012648,-0.033969,17.587202,-0.00224,0.058357,0.063568,0.0,1.0,2357.396973, set /instrumentation/altimeter/serviceable false, takeoff
49.673645,-88.023819,-86.830376,2.938276,0.173994,2.938276,0.173994,-89.999855,-90.0,2.877109,18.256098,6.86445,296.529999,288.291748,-0.014365,-0.034639,18.041826,-0.002289,0.058456,0.0649,0.0,1.0,2363.749512, set /instrumentation/altimeter/serviceable false, takeoff
50.240734,-88.023819,-86.830376,2.945771,0.178295,2.945771,0.178295,-89.999855,-90.0,2.899179,18.6619,6.9433,296.505859,288.66806,-0.015699,-0.035082,13.09933,-0.002486,0.058766,0.06687,0.0,1.0,2367.714355, set /instrumentation/altimeter/serviceable false, takeoff
51.152916,-88.023819,-86.830376,2.952016,0.18268,2.952016,0.18268,-89.999855,-90.0,2.935216,19.319132,7.075944,296.469696,289.221283,-0.01689,-0.035318,12.511119,-0.002547,0.058915,0.068077,0.0,1.0,2374.111084, set /instrumentation/altimeter/serviceable false, takeoff
51.719391,-88.023819,-86.830376,2.956157,0.185321,2.956157,0.185321,-89.999855,-90.0,2.957978,19.730352,7.165814,296.448242,289.530029,-0.017284,-0.035298,15.975765,-0.00261,0.05904,0.069885,0.0,1.0,2378.095703, set /instrumentation/altimeter/serviceable false, takeoff
52.629833,-88.023819,-86.830376,2.963102,0.189149,2.963102,0.189149,-89.999855,-90.0,2.9952,20.396038,7.315039,296.415955,289.965973,-0.017225,-0.034933,19.691839,-0.002647,0.059123,0.070958,0.0,1.0,2384.515625, set /instrumentation/altimeter/serviceable false, takeoff
53.194767,-88.023819,-86.830376,2.967663,0.191557,2.967663,0.191557,-89.999855,-90.0,3.018722,20.812351,7.404239,296.396027,290.197601,-0.016912,-0.034718,16.901798,-0.002702,0.059262,0.072572,0.0,1.0,2388.510986, set /instrumentation/altimeter/serviceable false, takeoff
54.078465,-88.023819,-86.830376,2.974488,0.195091,2.974488,0.195091,-89.999855,-90.0,3.056128,21.467707,7.548172,296.36499,290.497528,-0.016164,-0.034409,17.527649,-0.002737,0.059353,0.073569,0.0,1.0,2394.771729, set /instrumentation/altimeter/serviceable false, takeoff
54.691734,-88.023819,-86.830376,2.979332,0.197656,2.979332,0.197656,-89.999855,-90.0,3.082529,21.925415,7.651038,296.342194,290.660126,-0.015679,-0.034431,21.130169,-0.002787,0.05949,0.075121,0.0,1.0,2399.125, set /instrumentation/altimeter/serviceable false, takeoff
55.574055,-88.023819,-86.830376,2.985954,0.201185,2.985954,0.201185,-89.999855,-90.0,3.121156,22.588131,7.794,296.307556,290.828247,-0.015064,-0.034733,21.570873,-0.002824,0.059587,0.07626,0.0,1.0,2405.401123, set /instrumentation/altimeter/serviceable false, takeoff
56.160378,-88.023819,-86.830376,2.990481,0.20361,2.990481,0.20361,-89.999855,-90.0,3.147303,23.03224,7.887052,296.282593,290.8974,-0.014873,-0.035213,22.080513,-0.002874,0.059719,0.077992,0.0,1.0,2409.587646, set /instrumentation/altimeter/serviceable false, takeoff
57.015743,-88.023819,-86.830376,2.996615,0.207127,2.996615,0.207127,-89.999855,-90.0,3.185955,23.683081,7.963054,296.244751,290.937988,-0.014723,-0.03604,15.119699,-0.002909,0.05981,0.07924,0.0,1.0,2415.700195, set /instrumentation/altimeter/serviceable false, takeoff
57.601711,-88.023819,-86.830376,3.000328,0.210306,3.000328,0.210306,-89.999855,-90.0,3.21256,24.131487,8.014638,296.217438,290.925659,-0.01482,-0.036746,12.604095,-0.002959,0.059932,0.081133,0.0,1.0,2419.89624, set /instrumentation/altimeter/serviceable false, takeoff
58.504135,-88.023819,-86.830376,3.007012,0.213395,3.007012,0.213395,-89.999855,-90.0,3.254157,24.826033,8.166744,296.175079,290.845612,-0.014914,-0.037765,20.944466,-0.003004,0.060007,0.082498,0.0,1.0,2426.373047, set /instrumentation/altimeter/serviceable false, takeoff
59.088238,-88.023819,-86.830376,3.01151,0.215238,3.01151,0.215238,-89.999855,-90.0,3.281564,25.278589,8.365376,296.147369,290.756104,-0.014841,-0.038382,21.212246,-0.003049,0.06014,0.084616,0.0,1.0,2430.577637, set /instrumentation/altimeter/serviceable false, takeoff
59.93845,-88.023819,-86.830376,3.02226,0.215506,3.02226,0.215506,-89.999855,-90.0,3.32389,25.941334,8.85127,296.109161,290.576294,-0.014292,-0.03887,14.801262,-0.003075,0.06023,0.086002,0.0,1.0,2436.714355, set /instrumentation/altimeter/serviceable false, takeoff
60.520519,-88.023819,-86.830376,3.03046,0.216278,3.03046,0.216278,-89.999855,-90.0,3.353997,26.397621,9.586508,296.084045,290.421722,-0.013326,-0.038989,21.728264,-0.003079,0.060445,0.087912,0.0,1.0,2440.949707, set /instrumentation/altimeter/serviceable false, takeoff
61.415291,-88.023819,-86.830376,3.041079,0.217665,3.041079,0.217665,-89.999855,-90.0,3.404863,27.103851,9.968966,296.048309,290.138519,-0.0112,-0.038671,22.077316,-0.00309,0.060609,0.089168,0.0,1.0,2447.567871, set /instrumentation/altimeter/serviceable false, takeoff
61.970539,-88.023819,-86.830376,3.044616,0.218425,3.044616,0.218425,-89.999855,-90.0,3.436857,27.54451,10.055721,296.026825,289.937927,-0.009225,-0.038392,19.356609,-0.00311,0.060822,0.090955,0.0,1.0,2451.717041, set /instrumentation/altimeter/serviceable true, takeoff
62.839035,-87.023239,-85.829796,3.049895,0.219005,3.049895,0.219005,-89.999855,-90.0,3.48754,28.236677,10.208899,295.994934,289.591614,-0.005541,-0.037754,18.940224,-0.00312,0.060892,0.092029,0.0,1.0,2458.245605, set /instrumentation/altimeter/serviceable true, takeoff
63.417309,-86.993034,-85.799583,3.053905,0.219217,3.053905,0.219217,-89.999855,-90.0,3.521767,28.699722,10.315919,295.973633,289.342102,-0.002694,-0.037399,19.324905,-0.003129,0.060998,0.093623,0.0,1.0,2462.614258, set /instrumentation/altimeter/serviceable true, takeoff
64.307304,-86.945198,-85.751755,3.06529,0.224271,3.06529,0.224271,-89.999855,-90.0,3.577144,29.415987,11.050454,295.94101,288.934357,0.002083,-0.036778,14.39061,-0.003132,0.061078,0.094688,0.0,1.0,2469.367188, set /instrumentation/altimeter/serviceable true, fly_strait
64.860329,-86.914459,-85.721016,3.069286,0.230902,3.069286,0.230902,-89.999855,-90.0,3.612611,29.862656,11.147693,295.901276,288.669922,0.002823,-0.040646,20.099911,-0.003204,0.061306,0.0,0.0,1.0,2473.572021, set /instrumentation/altimeter/serviceable true, fly_strait
65.740997,-86.865005,-85.671562,3.069825,0.242189,3.069825,0.242189,-89.999855,-90.0,3.668741,30.563972,11.290922,295.510376,288.243713,-0.014166,-0.099223,20.753855,-0.003299,0.061386,0.001987,0.0,1.0,2480.193115, set /instrumentation/altimeter/serviceable true, fly_strait
66.337166,-86.831223,-85.637779,3.067594,0.232818,3.067594,0.232818,-89.999855,-90.0,3.706566,31.03301,11.393956,295.043671,287.951752,-0.042332,-0.165645,21.131033,-0.00346,0.061396,0.021532,0.0,1.0,2484.654785, set /instrumentation/altimeter/serviceable true, fly_strait
67.237289,-86.77948,-85.586037,3.07102,0.20168,3.07102,0.20168,-89.999855,-90.0,3.765223,31.738882,12.763611,294.209381,287.499756,-0.106724,-0.272966,21.669285,-0.003326,0.061352,0.044867,0.0,1.0,2491.425537, set /instrumentation/altimeter/serviceable true, fly_strait
67.837662,-86.743797,-85.550354,3.074771,0.175559,3.074771,0.175559,-89.999855,-90.0,3.808125,32.21106,12.933537,293.665253,287.186951,-0.154944,-0.333073,22.446888,-0.002881,0.06142,0.086581,0.0,1.0,2495.980713, set /instrumentation/altimeter/serviceable true, fly_strait
68.738647,-86.688118,-85.494675,3.078721,0.131122,3.078721,0.131122,-89.999855,-90.0,3.873386,32.921799,13.164793,293.079407,286.697845,-0.216209,-0.374756,23.439711,-0.002508,0.061495,0.113788,0.0,1.0,2502.860596, set /instrumentation/altimeter/serviceable true, fly_strait
69.336372,-86.649727,-85.456284,3.081663,0.098468,3.081663,0.098468,-89.999855,-90.0,3.918512,33.397202,14.041619,292.911804,286.358826,-0.242862,-0.363747,17.791716,-0.001873,0.061574,0.14308,0.0,1.0,2507.464355, set /instrumentation/altimeter/serviceable true, fly_strait
70.237511,-86.589668,-85.396225,3.037533,-0.030766,3.037533,-0.030766,-89.999855,-90.0,3.992234,34.112583,15.158111,293.069183,285.836212,-0.250903,-0.286809,19.470938,-0.001407,0.061633,0.15146,0.0,1.0,2514.395752, set /instrumentation/altimeter/serviceable true, fly_strait
70.832481,-86.547699,-85.354256,2.99275,-0.130204,2.99275,-0.130204,-89.999855,-90.0,4.042594,34.591038,14.915096,293.423248,285.485107,-0.231025,-0.20324,24.006828,4.4E-4,0.060751,0.143591,0.0,1.0,2519.03125, set /instrumentation/altimeter/serviceable true, fly_strait
71.694344,-86.482735,-85.289291,2.973929,-0.188049,2.973929,-0.188049,-89.999855,-90.0,4.114875,35.310734,14.054416,294.169434,284.969849,-0.166907,-0.058773,22.977098,0.00186,0.059855,0.125888,0.0,1.0,2525.929932, set /instrumentation/altimeter/serviceable true, fly_strait
72.247566,-86.438782,-85.245331,2.986515,-0.156236,2.986515,-0.156236,-89.999855,-90.0,4.162463,35.791637,14.91369,294.692474,284.643372,-0.108978,0.030411,23.16939,0.002686,0.059479,0.088579,0.0,1.0,2530.445801, set /instrumentation/altimeter/serviceable true, fly_strait
73.065811,-86.370789,-85.177338,2.925256,0.085394,2.925256,0.085394,-89.999855,-90.0,4.246696,36.514206,18.208263,295.270844,284.193237,-0.018969,0.118571,19.811674,0.002232,0.05973,0.062427,0.0,1.0,2537.085205, set /instrumentation/altimeter/serviceable true, fly_strait
73.619133,-86.322731,-85.12928,2.814263,0.344235,2.814263,0.344235,-89.999855,-90.0,4.30762,36.996552,17.983269,295.42923,283.925995,0.032803,0.136092,20.918827,-0.00122,0.058505,0.033508,0.0,1.0,2541.465332, set /instrumentation/altimeter/serviceable true, fly_strait
74.473503,-86.247505,-85.054062,2.697502,0.700841,2.697502,0.700841,-89.999855,-90.0,4.392748,37.721031,16.301197,295.251343,283.580658,0.086239,0.093178,18.503738,-0.004918,0.056285,0.025589,0.0,1.0,2548.060547, set /instrumentation/altimeter/serviceable true, fly_strait
75.057709,-86.196556,-85.003113,2.663093,0.801975,2.663093,0.801975,-89.999855,-90.0,4.447283,38.205818,16.505457,294.895264,283.38736,0.100718,0.0281,19.060513,-0.010012,0.05395,0.034483,0.0,1.0,2552.513916, set /instrumentation/altimeter/serviceable true, fly_strait
75.944206,-86.118866,-84.925423,2.635085,0.593916,2.635085,0.593916,-79.999855,-80.0,4.536966,38.935936,20.219835,294.205048,283.147766,0.093823,-0.088593,21.473875,-0.011457,0.053262,0.052287,0.0,1.0,2559.300537, set /instrumentation/altimeter/serviceable true, fly_strait
76.53344,-86.064247,-84.870804,2.65027,0.223047,2.65027,0.223047,-79.999855,-80.0,4.613974,39.42371,26.275322,293.773926,283.017914,0.075704,-0.156479,25.587969,-0.008485,0.052702,0.086798,0.0,1.0,2563.882813, set /instrumentation/altimeter/serviceable true, fly_strait
77.404671,-85.970131,-84.776688,2.741457,-0.542424,2.741457,-0.542424,-79.999855,-80.0,4.783556,40.156914,42.689098,293.40332,282.862579,0.042168,-0.2059,21.600216,-0.003186,0.053005,0.108354,0.0,1.0,2570.801514, set /instrumentation/altimeter/serviceable true, fly_strait
77.969719,-85.89164,-84.698196,2.845818,-1.062051,2.845818,-1.062051,-79.999855,-80.0,4.952976,40.646549,58.994884,293.398834,282.783539,0.026148,-0.196525,26.543556,0.007749,0.054829,0.126885,0.0,1.0,2575.416016, set /instrumentation/altimeter/serviceable true, fly_strait
78.774681,-85.732826,-84.539383,3.044466,-1.582279,3.044466,-1.582279,-79.999855,-80.0,5.324639,41.381573,89.857422,293.736664,282.701416,0.020739,-0.124741,37.993942,0.015172,0.056916,0.127109,0.0,1.0,2582.269043, set /instrumentation/altimeter/serviceable true, fly_strait
79.271217,-85.588081,-84.394638,3.208007,-1.674879,3.208007,-1.674879,-79.999855,-80.0,5.664814,41.871418,113.75663,294.105469,282.671661,0.03243,-0.055193,48.556149,0.022604,0.060889,0.110217,0.0,1.0,2586.732422, set /instrumentation/altimeter/serviceable true, fly_strait
79.954628,-85.291779,-84.098335,3.43526,-1.376143,3.43526,-1.376143,-79.999855,-80.0,6.33227,42.604832,152.275269,294.637177,282.664978,0.067309,0.041253,68.339272,0.023927,0.06416,0.091777,0.0,1.0,2592.957031, set /instrumentation/altimeter/serviceable true, fly_strait
80.378433,-85.030983,-83.83754,3.571763,-0.966939,3.571763,-0.966939,-79.999855,-80.0,6.884084,43.092216,177.770065,294.860443,282.684479,0.094425,0.080921,83.742958,0.019659,0.068705,0.065192,0.0,1.0,2596.322998, set /instrumentation/altimeter/serviceable true, fly_strait
81.011314,-84.51577,-83.322327,3.707272,-0.257947,3.707272,-0.257947,-79.999855,-80.0,7.893991,43.840179,213.13916,294.853058,282.74588,0.128256,0.080595,109.740234,0.013813,0.071435,0.054028,0.0,1.0,2600.570557, set /instrumentation/altimeter/serviceable true, fly_strait
81.399078,-84.12252,-82.929077,3.770701,0.100507,3.770701,0.100507,-79.999855,-80.0,8.607176,44.302708,232.324036,294.640198,282.798096,0.137791,0.046005,126.690514,0.003685,0.074145,0.054398,0.0,1.0,2602.815918, set /instrumentation/altimeter/serviceable true, fly_strait
81.976234,-83.391548,-82.198105,3.856622,0.324415,3.856622,0.324415,-79.999855,-80.0,9.837639,45.022659,258.276001,294.126373,282.890564,0.129633,-0.036325,153.632996,-0.001436,0.075414,0.065041,0.0,1.0,2605.928467, set /instrumentation/altimeter/serviceable true, fly_strait
82.321991,-82.82756,-81.634117,3.923555,0.237038,3.923555,0.237038,-79.999855,-80.0,10.72514,45.499851,273.493195,293.777649,282.953003,0.111413,-0.089776,171.17186,-0.004635,0.077132,0.090732,0.0,1.0,2607.776123, set /instrumentation/altimeter/serviceable true, fly_strait
82.841881,-81.844521,-80.651077,4.026145,-0.182342,4.026145,-0.182342,-79.999855,-80.0,12.189326,46.231041,295.465393,293.469208,283.040894,0.076716,-0.13098,196.988495,-0.003386,0.078471,0.108168,0.0,1.0,2610.363525, set /instrumentation/altimeter/serviceable true, fly_strait
83.151154,-81.166832,-79.973389,4.098848,-0.494609,4.098848,-0.494609,-79.999855,-80.0,13.155048,46.682648,308.630066,293.479492,283.087494,0.05897,-0.122425,212.445709,0.002605,0.080523,0.12359,0.0,1.0,2611.851318, set /instrumentation/altimeter/serviceable true, fly_strait
83.604736,-80.007607,-78.814156,4.220634,-0.814966,4.220634,-0.814966,-79.999855,-80.0,14.754865,47.384487,331.59375,293.800629,283.147003,0.050344,-0.059393,235.982452,0.007066,0.081977,0.123076,0.0,1.0,2614.030273, set /instrumentation/altimeter/serviceable true, fly_strait
83.8787,-79.16864,-77.975197,4.327187,-0.834433,4.327187,-0.834433,-79.999855,-80.0,15.891628,47.848541,350.241516,294.143433,283.178802,0.059781,0.001335,251.400192,0.011642,0.084413,0.107019,0.0,1.0,2615.388428, set /instrumentation/altimeter/serviceable true, fly_strait
84.245842,-77.808632,-76.615189,4.497251,-0.522483,4.497251,-0.522483,-79.999855,-80.0,17.725046,48.53801,382.607361,294.626862,283.217194,0.090633,0.08255,274.867462,0.01192,0.086544,0.089879,0.0,1.0,2617.2854, set /instrumentation/altimeter/serviceable true, fly_strait
84.481216,-76.788849,-75.595406,4.611012,-0.144878,4.611012,-0.144878,-79.999855,-80.0,19.091814,49.011662,403.505768,294.827698,283.237671,0.114511,0.113533,291.777161,0.007464,0.089945,0.065707,0.0,1.0,2618.511963, set /instrumentation/altimeter/serviceable true, fly_strait
84.800583,-75.252724,-74.05928,4.692044,0.393173,4.692044,0.393173,-69.999855,-70.0,21.114401,49.667259,426.323029,294.811005,283.255737,0.142613,0.104647,316.365814,0.00207,0.09222,0.055666,0.0,1.0,2620.133789, set /instrumentation/altimeter/serviceable true, fly_strait
85.02906,-74.128502,-72.935059,4.711369,0.653473,4.711369,0.653473,-69.999855,-70.0,22.555882,50.111729,437.812164,294.617004,283.258667,0.148128,0.068437,333.054474,-0.005617,0.093841,0.0565,0.0,1.0,2621.20459, set /instrumentation/altimeter/serviceable true, fly_strait
85.393364,-72.292618,-71.099174,4.730227,0.712885,4.730227,0.712885,-69.999855,-70.0,24.843889,50.78912,451.591553,294.18512,283.242981,0.135001,-0.007591,357.319427,-0.009335,0.094227,0.0662,0.0,1.0,2622.820313, set /instrumentation/altimeter/serviceable true, fly_strait
85.631096,-71.040848,-69.847404,4.758055,0.54352,4.758055,0.54352,-69.999855,-70.0,26.362789,51.223621,459.459625,293.931458,283.216949,0.11571,-0.050315,371.938751,-0.010184,0.094605,0.087794,0.0,1.0,2623.853516, set /instrumentation/altimeter/serviceable true, fly_strait
85.972168,-69.139313,-67.945869,4.817061,0.117961,4.817061,0.117961,-69.999855,-70.0,28.626883,51.850533,471.990112,293.776825,283.153961,0.083451,-0.074326,391.554169,-0.007765,0.095161,0.100478,0.0,1.0,2625.340332, set /instrumentation/altimeter/serviceable true, fly_strait
86.198647,-67.785881,-66.592438,4.871069,-0.179645,4.871069,-0.179645,-69.999855,-70.0,30.21723,52.275753,482.078888,293.854492,283.093781,0.069355,-0.059871,404.130096,-0.001685,0.096341,0.108209,0.0,1.0,2626.342529, set /instrumentation/altimeter/serviceable true, fly_strait
86.513916,-65.685791,-64.492348,4.965145,-0.421594,4.965145,-0.421594,-69.999855,-70.0,32.671795,52.906158,499.686279,294.199585,282.980988,0.066566,-0.001073,421.774445,0.002566,0.097421,0.104326,0.0,1.0,2627.805176, set /instrumentation/altimeter/serviceable true, fly_strait
86.701912,-64.238029,-63.044586,5.041175,-0.398196,5.041175,-0.398196,-59.999859,-60.0,34.360016,53.321217,512.964233,294.498047,282.893921,0.077822,0.047446,433.307098,0.006023,0.099303,0.087071,0.0,1.0,2628.741455, set /instrumentation/altimeter/serviceable true, fly_strait
86.95903,-61.993729,-60.800285,5.139349,-0.093725,5.139349,-0.093725,-59.999859,-60.0,36.979633,53.935532,534.394653,294.847717,282.750763,0.106316,0.100649,450.609772,0.005689,0.100823,0.072148,0.0,1.0,2630.077393, set /instrumentation/altimeter/serviceable true, fly_strait
87.125946,-60.446907,-59.25346,5.195122,0.198981,5.195122,0.198981,-59.999859,-60.0,38.7859,54.339382,548.808228,294.938995,282.648956,0.124449,0.110943,462.325775,0.001339,0.102787,0.054665,0.0,1.0,2630.92749, set /instrumentation/altimeter/serviceable true, fly_strait
87.379852,-58.046932,-56.853489,5.251992,0.56414,5.251992,0.56414,-59.999859,-60.0,41.582775,54.936573,568.827087,294.813751,282.487396,0.139731,0.081716,480.477234,-0.002843,0.103902,0.050101,0.0,1.0,2632.163818, set /instrumentation/altimeter/serviceable true, fly_strait
87.553864,-56.393959,-55.200512,5.287215,0.672313,5.287215,0.672313,-59.999859,-60.0,43.499195,55.329105,580.395813,294.599762,282.372925,0.136883,0.041556,492.774628,-0.008059,0.10504,0.056363,0.0,1.0,2632.976318, set /instrumentation/altimeter/serviceable true, fly_strait
87.82151,-53.838902,-52.645458,5.336995,0.545398,5.336995,0.545398,-49.999859,-50.0,46.442425,55.909866,596.209961,294.248901,282.188416,0.115714,-0.021213,510.947632,-0.009604,0.105744,0.067062,0.0,1.0,2634.190186, set /instrumentation/altimeter/serviceable true, fly_strait
88.00013,-52.085758,-50.892315,5.376641,0.31317,5.376641,0.31317,-49.999859,-50.0,48.447365,56.291859,606.388855,294.088593,282.055817,0.096212,-0.048927,522.898743,-0.007791,0.10674,0.084605,0.0,1.0,2634.998291, set /instrumentation/altimeter/serviceable true, fly_strait
88.262321,-49.384483,-48.191036,5.444129,-0.097668,5.444129,-0.097668,-49.999859,-50.0,51.519669,56.857204,622.241272,294.079773,281.842743,0.07062,-0.049911,540.373291,-0.004474,0.107533,0.092621,0.0,1.0,2636.204346, set /instrumentation/altimeter/serviceable true, fly_strait
88.42392,-47.536591,-46.343147,5.504061,-0.3115,5.504061,-0.3115,-49.999859,-50.0,53.613377,57.228951,633.720764,294.229004,281.693024,0.063519,-0.024885,551.819763,0.001395,0.108883,0.093062,0.0,1.0,2636.997314, set /instrumentation/altimeter/serviceable true, fly_strait
88.641907,-44.696396,-43.502953,5.602175,-0.387136,5.602175,-0.387136,-39.999859,-40.0,56.830147,57.778534,652.752991,294.58075,281.461975,0.070462,0.032658,568.607239,0.00445,0.110081,0.0856,0.0,1.0,2638.150146, set /instrumentation/altimeter/serviceable true, fly_strait
88.76973,-42.755775,-41.562332,5.673003,-0.273054,5.673003,-0.273054,-39.999859,-40.0,59.02951,58.139339,666.493225,294.812805,281.306824,0.084468,0.068857,579.803711,0.005531,0.112043,0.068013,0.0,1.0,2638.885254, set /instrumentation/altimeter/serviceable true, fly_strait
88.955437,-39.685596,-38.492149,5.756251,0.072493,5.756251,0.072493,-39.999859,-40.0,62.511677,58.686512,687.925964,294.997681,281.070404,0.109668,0.093455,597.437683,0.003901,0.11346,0.05641,0.0,1.0,2639.963135, set /instrumentation/altimeter/serviceable true, fly_strait
89.06675,-37.727463,-36.534016,5.799232,0.297978,5.799232,0.297978,-39.999859,-40.0,64.730087,59.021057,700.381836,294.971649,280.926331,0.121071,0.084749,608.724854,-0.001036,0.115125,0.047166,0.0,1.0,2640.607422, set /instrumentation/altimeter/serviceable true, fly_strait
89.252754,-34.589634,-33.396191,5.847068,0.489871,5.847068,0.489871,-29.999857,-30.0,68.277771,59.536243,717.655701,294.743927,280.704926,0.123371,0.040299,626.343079,-0.004257,0.115985,0.048468,0.0,1.0,2641.594971, set /instrumentation/altimeter/serviceable true, fly_strait
89.37912,-32.448002,-31.254559,5.879134,0.469455,5.879134,0.469455,-29.999857,-30.0,70.687469,59.874176,727.646545,294.533051,280.559113,0.113635,0.002331,638.109802,-0.006998,0.116941,0.059854,0.0,1.0,2642.248535, set /instrumentation/altimeter/serviceable true, fly_strait
89.575157,-29.163603,-27.970158,5.926044,0.220697,5.926044,0.220697,-29.999857,-30.0,74.361664,60.373131,741.457458,294.292084,280.341187,0.088838,-0.039603,655.532898,-0.006706,0.117583,0.070398,0.0,1.0,2643.227539, set /instrumentation/altimeter/serviceable true, fly_strait
89.702477,-26.926805,-25.733362,5.964307,-0.017493,5.964307,-0.017493,-29.999857,-30.0,76.848686,60.700607,750.438721,294.245697,280.196136,0.072826,-0.047341,666.987244,-0.003153,0.118521,0.082446,0.0,1.0,2643.879395, set /instrumentation/altimeter/serviceable true, fly_strait
89.885658,-23.508469,-22.315025,6.030675,-0.310751,6.030675,-0.310751,-19.999857,-20.0,80.63662,61.184093,764.487244,294.384918,279.98056,0.058937,-0.023368,683.392761,2.5E-4,0.119286,0.084766,0.0,1.0,2644.846436, set /instrumentation/altimeter/serviceable true, fly_strait
89.991982,-21.187687,-19.994242,6.08689,-0.39488,6.08689,-0.39488,-19.999857,-20.0,83.202271,61.501163,774.665466,294.578827,279.84024,0.060621,0.008614,694.011047,0.004439,0.120614,0.077805,0.0,1.0,2645.475342, set /instrumentation/altimeter/serviceable true, fly_strait
90.13382,-17.642843,-16.4494,6.167041,-0.288288,6.167041,-0.288288,-19.999857,-20.0,87.117546,61.968597,791.090271,294.880035,279.63916,0.076899,0.056474,709.665466,0.005641,0.121738,0.068109,0.0,1.0,2646.378662, set /instrumentation/altimeter/serviceable true, fly_strait
90.216377,-15.236053,-14.042609,6.217313,-0.105325,6.217313,-0.105325,-19.999857,-20.0,89.773811,62.274632,802.272583,295.012573,279.513458,0.091581,0.075648,720.104675,0.004118,0.123341,0.053049,0.0,1.0,2646.950928, set /instrumentation/altimeter/serviceable true, fly_strait
90.341087,-11.561925,-10.368481,6.267396,0.19952,6.267396,0.19952,-9.999858,-10.0,93.826721,62.725231,818.047668,295.017731,279.339172,0.109516,0.070794,735.634583,0.001505,0.124346,0.046422,0.0,1.0,2647.772217, set /instrumentation/altimeter/serviceable true, fly_strait
90.42823,-9.070815,-7.87737,6.29388,0.340754,6.29388,0.340754,-9.999858,-10.0,96.56958,63.020096,827.157104,294.899475,279.232208,0.112607,0.047616,745.857788,-0.00285,0.125348,0.046164,0.0,1.0,2648.294922, set /instrumentation/altimeter/serviceable true, fly_strait
90.568161,-5.272786,-4.079341,6.324409,0.346158,6.324409,0.346158,-9.999858,-10.0,100.736412,63.454407,838.847412,294.637543,279.083496,0.102613,7.9E-5,760.958801,-0.004868,0.125878,0.052077,0.0,1.0,2649.053711, set /instrumentation/altimeter/serviceable true, fly_strait
90.71138,-1.402884,-0.20944,6.357955,0.130359,6.357955,0.130359,1.42E-4,0.0,104.956993,63.879593,849.009216,294.42868,278.945953,0.08117,-0.035999,775.781616,-0.004945,0.126488,0.065173,0.0,1.0,2649.799316, set /instrumentation/altimeter/serviceable true, fly_strait
90.807457,1.331359,2.524803,6.383,-0.072103,6.383,-0.072103,1.42E-4,0.0,107.7985,64.158142,855.611084,294.396332,278.859467,0.066655,-0.041067,785.269592,-0.003159,0.126932,0.073001,0.0,1.0,2650.291504, set /instrumentation/altimeter/serviceable true, fly_strait
90.942223,5.498833,6.692278,6.435125,-0.324479,6.435125,-0.324479,10.000142,10.0,112.103127,64.568672,866.165955,294.525299,278.738068,0.055624,-0.019005,798.731262,0.00103,0.12766,0.077234,0.0,1.0,2651.017822, set /instrumentation/altimeter/serviceable true, fly_strait
91.022804,8.312502,9.505946,6.474793,-0.381203,6.474793,-0.381203,10.000142,10.0,115.003677,64.837418,873.907104,294.692871,278.663879,0.057657,0.008877,807.429688,0.003689,0.128331,0.07399,0.0,1.0,2651.487061, set /instrumentation/altimeter/serviceable true, fly_strait
91.12262,12.585372,13.778816,6.539508,-0.278745,6.539508,-0.278745,10.000142,10.0,119.405273,65.232903,886.578064,294.952728,278.56543,0.072538,0.050177,820.191528,0.005446,0.129496,0.062407,0.0,1.0,2652.156494, set /instrumentation/altimeter/serviceable false, fly_strait
91.18293,12.585372,13.778816,6.572818,-0.114062,6.572818,-0.114062,20.000143,20.0,122.375587,65.491379,895.15918,295.054352,278.509521,0.08617,0.064587,828.501953,0.004821,0.130389,0.05331,0.0,1.0,2652.576904, set /instrumentation/altimeter/serviceable false, fly_strait
91.272919,12.585372,13.778816,6.6119,0.150391,6.6119,0.150391,20.000143,20.0,126.882576,65.8713,907.087769,295.04187,278.440491,0.100799,0.057976,840.74292,0.001629,0.131456,0.044333,0.0,1.0,2653.177734, set /instrumentation/altimeter/serviceable false, fly_strait
91.342857,12.585372,13.778816,6.627653,0.259066,6.627653,0.259066,20.000143,20.0,130.045349,66.129768,914.154114,294.924347,278.402069,0.103033,0.035304,849.095581,-0.001006,0.13203,0.04359,0.0,1.0,2653.583008, set /instrumentation/altimeter/serviceable false, fly_strait
91.441422,12.585372,13.778816,6.647567,0.245412,6.647567,0.245412,30.000143,30.0,134.510193,66.484543,922.330444,294.696289,278.358612,0.0929,-0.005399,860.797852,-0.003701,0.132553,0.050833,0.0,1.0,2654.146729, set /instrumentation/altimeter/serviceable false, fly_strait
91.514626,12.585372,13.778816,6.660856,0.123002,6.660856,0.123002,30.000143,30.0,137.593231,66.723267,927.208313,294.571411,278.333954,0.080041,-0.026893,868.546936,-0.00393,0.132824,0.058339,0.0,1.0,2654.534912, set /instrumentation/altimeter/serviceable false, fly_strait
91.624695,12.585372,13.778816,6.689003,-0.136967,6.689003,-0.136967,30.000143,30.0,142.247543,67.074638,934.382751,294.514771,278.302673,0.061507,-0.036021,879.573608,-0.001757,0.133217,0.06848,0.0,1.0,2655.120361, set /instrumentation/altimeter/serviceable false, fly_strait
91.695297,12.585372,13.778816,6.713119,-0.284402,6.713119,-0.284402,40.000141,40.0,145.370956,67.304466,939.504395,294.584351,278.285248,0.054145,-0.023764,886.62915,6.98E-4,0.133574,0.071445,0.0,1.0,2655.508789, set /instrumentation/altimeter/serviceable false, fly_strait
91.784286,12.585372,13.778816,6.761007,-0.372132,6.761007,-0.372132,40.000141,40.0,150.090286,67.642494,948.220947,294.798004,278.265198,0.056075,0.011832,896.873962,0.004063,0.134262,0.067833,0.0,1.0,2656.077148, set /instrumentation/altimeter/serviceable false, fly_strait
91.834709,12.585372,13.778816,6.792612,-0.312552,6.792612,-0.312552,50.000141,50.0,153.262115,67.863274,954.639465,294.948761,278.256805,0.065025,0.036037,903.438904,0.005242,0.134893,0.061093,0.0,1.0,2656.439453, set /instrumentation/altimeter/serviceable false, fly_strait
91.900826,12.585372,13.778816,6.835485,-0.104926,6.835485,-0.104926,50.000141,50.0,158.060837,68.187454,964.583191,295.088013,278.252777,0.082216,0.05631,912.986633,0.004465,0.135852,0.049612,0.0,1.0,2656.952881, set /instrumentation/altimeter/serviceable false, fly_strait
91.945869,12.585372,13.778816,6.852576,0.04968,6.852576,0.04968,50.000141,50.0,161.287048,68.398918,970.733276,295.081512,278.255707,0.091624,0.052589,919.238831,0.002625,0.13647,0.044069,0.0,1.0,2657.278564, set /instrumentation/altimeter/serviceable false, fly_strait
92.015823,12.585372,13.778816,6.870388,0.195615,6.870388,0.195615,60.000141,60.0,166.16124,68.709305,978.451965,294.938904,278.266754,0.094701,0.025351,928.646545,-7.1E-4,0.137052,0.042975,0.0,1.0,2657.754395, set /instrumentation/altimeter/serviceable false, fly_strait
92.068428,12.585372,13.778816,6.877719,0.187222,6.877719,0.187222,60.000141,60.0,169.430191,68.911888,982.606262,294.802032,278.276855,0.088789,9.13E-4,934.791321,-0.002377,0.137315,0.04706,0.0,1.0,2658.070068, set /instrumentation/altimeter/serviceable false, fly_strait
92.154312,12.585372,13.778816,6.891087,0.034027,6.891087,0.034027,70.000145,70.0,174.35704,69.209579,987.891724,294.634155,278.293091,0.072546,-0.027819,943.642029,-0.002675,0.137554,0.056949,0.0,1.0,2658.548096, set /instrumentation/altimeter/serviceable false, fly_strait
92.211426,12.585372,13.778816,6.903319,-0.118654,6.903319,-0.118654,70.000145,70.0,177.655899,69.404068,991.285034,294.601898,278.303345,0.061035,-0.032778,949.297302,-0.001438,0.137725,0.063171,0.0,1.0,2658.870361, set /instrumentation/altimeter/serviceable false, fly_strait
92.290192,12.585372,13.778816,6.932243,-0.313548,6.932243,-0.313548,70.000145,70.0,182.62645,69.689919,996.950867,294.69165,278.3172,0.051829,-0.017044,957.506714,0.001695,0.138066,0.066956,0.0,1.0,2659.352783, set /instrumentation/altimeter/serviceable false, fly_strait
92.336311,12.585372,13.778816,6.956271,-0.36,6.956271,-0.36,80.000145,80.0,185.957123,69.876534,1001.329163,294.817108,278.325806,0.053075,0.004078,962.710022,0.00374,0.13843,0.064801,0.0,1.0,2659.667969, set /instrumentation/altimeter/serviceable false, fly_strait
92.392654,12.585372,13.778816,6.996307,-0.285335,6.996307,-0.285335,80.000145,80.0,190.982605,70.150391,1008.820068,295.015137,278.339203,0.06457,0.035927,970.212341,0.005143,0.139125,0.056195,0.0,1.0,2660.119629, set /instrumentation/altimeter/serviceable false, fly_strait
92.426262,12.585372,13.778816,7.016454,-0.16011,7.016454,-0.16011,90.000145,90.0,194.354385,70.32885,1013.977234,295.092926,278.349091,0.075337,0.047201,975.011536,0.004705,0.139678,0.049274,0.0,1.0,2660.404297, set /instrumentation/altimeter/serviceable false, fly_strait
92.472816,12.585372,13.778816,7.037992,0.042132,7.037992,0.042132,90.000145,90.0,199.442947,70.590401,1021.098572,295.082031,278.365295,0.087002,0.042271,982.264893,0.002287,0.140329,0.042404,0.0,1.0,2660.811768, set /instrumentation/altimeter/serviceable false, fly_strait
92.508369,12.585372,13.778816,7.044119,0.12258,7.044119,0.12258,90.000145,90.0,202.853699,70.76078,1025.027954,294.994751,278.376251,0.08883,0.02567,987.042664,2.71E-4,0.140655,0.041867,0.0,1.0,2661.076172, set /instrumentation/altimeter/serviceable false, fly_strait
92.573387,12.585372,13.778816,7.051206,0.108618,7.051206,0.108618,100.000145,100.0,208.134079,71.017509,1029.703979,294.808258,278.391052,0.080933,-0.007256,994.037415,-0.001751,0.140882,0.047313,0.0,1.0,2661.483398, set /instrumentation/altimeter/serviceable false, fly_strait
92.613091,12.585372,13.778816,7.056254,0.015468,7.056254,0.015468,100.000145,100.0,211.427521,71.173637,1032.128662,294.716705,278.397614,0.070763,-0.022784,998.433105,-0.001931,0.140977,0.053378,0.0,1.0,2661.739746, set /instrumentation/altimeter/serviceable false, fly_strait
92.677795,12.585372,13.778816,7.070364,-0.185343,7.070364,-0.185343,110.000145,110.0,216.597672,71.41288,1035.882568,294.676819,278.402435,0.05633,-0.028863,1005.082031,-2.21E-4,0.141125,0.061215,0.0,1.0,2662.145996, set /instrumentation/altimeter/serviceable false, fly_strait
92.71891,12.585372,13.778816,7.084944,-0.296156,7.084944,-0.296156,110.000145,110.0,220.055435,71.568947,1038.70813,294.734283,278.401855,0.050859,-0.018598,1009.276428,0.001684,0.141295,0.063403,0.0,1.0,2662.41748, set /instrumentation/altimeter/serviceable false, fly_strait
92.770332,12.585372,13.778816,7.11563,-0.356057,7.11563,-0.356057,120.000145,120.0,225.261703,71.797852,1043.861938,294.902649,278.396393,0.053121,0.009638,1014.935791,0.004231,0.141699,0.060336,0.0,1.0,2662.814941, set /instrumentation/altimeter/serviceable false, fly_strait
92.79834,12.585372,13.778816,7.135649,-0.303389,7.135649,-0.303389,120.000145,120.0,228.748047,71.946922,1047.796509,295.017456,278.390717,0.060617,0.028163,1018.816162,0.005072,0.142101,0.05499,0.0,1.0,2663.068848, set /instrumentation/altimeter/serviceable false, fly_strait
92.831154,12.585372,13.778816,7.161513,-0.13619,7.161513,-0.13619,130.000137,130.0,234.002716,72.165138,1053.897339,295.115845,278.380585,0.074361,0.042485,1024.583374,0.004334,0.142713,0.046178,0.0,1.0,2663.428955, set /instrumentation/altimeter/serviceable false, fly_strait
92.853996,12.585372,13.778816,7.170444,-0.017483,7.170444,-0.017483,130.000137,130.0,237.522278,72.307053,1057.577026,295.102081,278.372986,0.081503,0.038319,1028.344727,0.002835,0.143091,0.042165,0.0,1.0,2663.657715, set /instrumentation/altimeter/serviceable false, fly_strait
92.893272,12.585372,13.778816,7.177665,0.085964,7.177665,0.085964,130.000137,130.0,242.821945,72.514725,1061.954102,294.98056,278.35965,0.083084,0.015711,1033.898438,2.5E-4,0.143409,0.041946,0.0,1.0,2663.993408, set /instrumentation/altimeter/serviceable false, fly_strait
92.925034,12.585372,13.778816,7.179499,0.069878,7.179499,0.069878,140.000137,140.0,246.365768,72.649872,1064.149536,294.872192,278.348572,0.077809,-0.003348,1037.448853,-9.64E-4,0.143523,0.045517,0.0,1.0,2664.217041, set /instrumentation/altimeter/serviceable false, fly_strait
92.973694,12.585372,13.778816,7.184236,-0.060695,7.184236,-0.060695,140.000137,140.0,251.693466,72.847916,1066.796021,294.748047,278.327118,0.064612,-0.024241,1042.737793,-9.98E-4,0.14359,0.053441,0.0,1.0,2664.55835, set /instrumentation/altimeter/serviceable false, fly_strait
93.007805,12.585372,13.778816,7.190886,-0.180851,7.190886,-0.180851,150.000137,150.0,255.252441,72.976936,1068.53418,294.731812,278.309143,0.055789,-0.026411,1046.094238,8.6E-5,0.143643,0.058124,0.0,1.0,2664.789551, set /instrumentation/altimeter/serviceable false, fly_strait
93.054298,12.585372,13.778816,7.209157,-0.323546,7.209157,-0.323546,150.000137,150.0,260.602875,73.166008,1071.700195,294.815033,278.277191,0.049618,-0.01174,1050.853882,0.002584,0.143818,0.06046,0.0,1.0,2665.136719, set /instrumentation/altimeter/serviceable false, fly_strait
93.080841,12.585372,13.778816,7.226123,-0.353104,7.226123,-0.353104,160.000137,160.0,264.179718,73.289063,1074.370728,294.918365,278.253418,0.051632,0.005586,1053.721558,0.004622,0.144183,0.056299,0.0,1.0,2665.363037, set /instrumentation/altimeter/serviceable false, fly_strait
93.107857,12.585372,13.778816,7.249781,-0.274512,7.249781,-0.274512,160.000137,160.0,269.563263,73.46904,1078.977295,295.064484,278.216034,0.061858,0.029142,1058.130493,0.005044,0.144522,0.051132,0.0,1.0,2665.687744, set /instrumentation/altimeter/serviceable false, fly_strait
93.123428,12.585372,13.778816,7.263237,-0.170152,7.263237,-0.170152,160.000137,160.0,273.165314,73.585922,1082.134766,295.11673,278.190918,0.070042,0.036675,1060.988281,0.003922,0.144996,0.043826,0.0,1.0,2665.892822, set /instrumentation/altimeter/serviceable false, fly_strait
93.147675,12.585372,13.778816,7.272652,-0.018236,7.272652,-0.018236,170.000137,170.0,278.58725,73.75663,1086.325073,295.088531,278.153564,0.078733,0.029649,1065.220459,0.002431,0.145265,0.041214,0.0,1.0,2666.187012, set /instrumentation/altimeter/serviceable false, fly_strait
93.168457,12.585372,13.778816,7.274891,0.03816,7.274891,0.03816,170.000137,170.0,282.212128,73.867462,1088.434937,295.010193,278.128693,0.079014,0.015345,1067.940674,2.61E-4,0.145453,0.042624,0.0,1.0,2666.379395, set /instrumentation/altimeter/serviceable false, fly_strait
93.201714,12.585372,13.778816,7.27531,0.006537,7.27531,0.006537,180.000137,180.0,287.660553,74.029488,1090.712646,294.8685,278.09024,0.071461,-0.009347,1072.086792,-5.45E-4,0.145498,0.046541,0.0,1.0,2666.669922, set /instrumentation/altimeter/serviceable false, fly_strait
93.227806,12.585372,13.778816,7.276716,-0.077157,7.276716,-0.077157,180.000137,180.0,291.298309,74.134834,1091.873413,294.798798,278.063263,0.063426,-0.020962,1074.750122,-9.3E-5,0.145506,0.053626,0.0,1.0,2666.867432, set /instrumentation/altimeter/serviceable false, fly_strait
93.26725,12.585372,13.778816,7.28437,-0.233474,7.28437,-0.233474,190.000137,190.0,296.762177,74.289001,1093.69397,294.78775,278.020447,0.052389,-0.021986,1078.540649,0.001102,0.145534,0.057111,0.0,1.0,2667.168945, set /instrumentation/altimeter/serviceable false, fly_strait
93.294968,12.585372,13.778816,7.295052,-0.316573,7.295052,-0.316573,190.000137,190.0,300.562592,74.393372,1095.344849,294.847565,277.98941,0.049386,-0.011508,1080.907959,0.003335,0.145687,0.057663,0.0,1.0,2667.378906, set /instrumentation/altimeter/serviceable false, fly_strait
93.317917,12.585372,13.778816,7.313889,-0.334209,7.313889,-0.334209,200.000137,200.0,305.89444,74.535736,1098.354004,294.980103,277.94577,0.052818,0.010813,1084.216064,0.004522,0.145901,0.054672,0.0,1.0,2667.666016, set /instrumentation/altimeter/serviceable false, fly_strait
93.331017,12.585372,13.778816,7.327785,-0.280992,7.327785,-0.280992,200.000137,200.0,309.559784,74.630775,1100.799561,295.06601,277.916748,0.059212,0.024618,1086.413452,0.004774,0.146278,0.048045,0.0,1.0,2667.854492, set /instrumentation/altimeter/serviceable false, fly_strait
93.347023,12.585372,13.778816,7.341171,-0.142369,7.341171,-0.142369,210.000137,210.0,315.073456,74.769341,1104.501953,295.121582,277.875885,0.0702,0.032223,1089.630127,0.004014,0.146556,0.04375,0.0,1.0,2668.122803, set /instrumentation/altimeter/serviceable false, fly_strait
93.358421,12.585372,13.778816,7.34587,-0.052605,7.34587,-0.052605,210.000137,210.0,318.758881,74.859093,1106.604736,295.097046,277.850708,0.074675,0.026886,1091.753662,0.002034,0.146823,0.040971,0.0,1.0,2668.294678, set /instrumentation/altimeter/serviceable false, fly_strait
93.379936,12.585372,13.778816,7.346274,0.004458,7.346274,0.004458,220.000137,220.0,324.29834,74.989937,1108.918945,294.990112,277.815582,0.074379,0.0074,1094.812744,7.52E-4,0.146917,0.042198,0.0,1.0,2668.549072, set /instrumentation/altimeter/serviceable false, fly_strait
93.398087,12.585372,13.778816,7.345269,-0.02089,7.345269,-0.02089,220.000137,220.0,327.996521,75.074783,1109.909546,294.904388,277.793274,0.069392,-0.00738,1096.919922,-6.4E-5,0.146925,0.047545,0.0,1.0,2668.720459, set /instrumentation/altimeter/serviceable false, fly_strait
93.428764,12.585372,13.778816,7.346256,-0.138065,7.346256,-0.138065,220.000137,220.0,333.549072,75.198669,1111.053467,294.824036,277.760529,0.058466,-0.020577,1099.944824,2.98E-4,0.146905,0.051831,0.0,1.0,2668.983643, set /instrumentation/altimeter/serviceable false, fly_strait
93.453499,12.585372,13.778816,7.350625,-0.23646,7.350625,-0.23646,230.000137,230.0,337.408447,75.282402,1111.940674,294.825653,277.738037,0.052474,-0.019826,1101.814575,0.001972,0.146925,0.055849,0.0,1.0,2669.169922, set /instrumentation/altimeter/serviceable false, turn_+45
93.474045,12.585372,13.778816,7.363748,-0.346793,7.363748,-0.346793,230.000137,230.0,342.817841,75.396461,1113.70105,294.956482,277.707458,0.039669,0.003208,1104.481812,0.001126,0.147013,0.1,0.0,1.0,2669.43042, set /instrumentation/altimeter/serviceable false, turn_+45
93.478821,12.585372,13.778816,7.382579,-0.365307,7.382579,-0.365307,240.000137,240.0,346.533142,75.47245,1115.526367,295.195068,277.688263,0.041185,0.04193,1106.176392,0.001651,0.147275,0.1,0.0,1.0,2669.60083, set /instrumentation/altimeter/serviceable false, turn_+45
93.459526,12.585372,13.778816,7.420578,-0.176325,7.420578,-0.176325,240.000137,240.0,352.121094,75.58268,1119.849121,295.657562,277.666046,0.063075,0.113156,1108.63501,0.00174,0.147652,0.1,0.0,1.0,2669.821533, set /instrumentation/altimeter/serviceable false, turn_+45
93.431053,12.585372,13.778816,7.445135,0.099094,7.445135,0.099094,250.000137,250.0,355.860382,75.65345,1123.674561,295.950073,277.658173,0.085821,0.155121,1110.295044,8.4E-4,0.148412,0.1,0.0,1.0,2669.936035, set /instrumentation/altimeter/serviceable false, turn_+45
93.377922,12.585372,13.778816,7.460467,0.655821,7.460467,0.655821,250.000137,250.0,361.493896,75.755196,1129.385986,296.262024,277.659973,0.121715,0.193388,1112.898315,-4.72E-4,0.148903,0.1,0.0,1.0,2670.058105, set /instrumentation/altimeter/serviceable false, turn_+45
93.343994,12.585372,13.778816,7.460934,1.06007,7.460934,1.06007,260.000153,260.0,365.263794,75.820061,1132.30542,296.36264,277.671173,0.141135,0.199591,1114.855347,-0.003123,0.149209,0.1,0.0,1.0,2670.11499, set /instrumentation/altimeter/serviceable false, turn_+45
93.303635,12.585372,13.778816,7.453181,1.59285,7.453181,1.59285,260.000153,260.0,370.932983,75.913078,1134.920166,296.375671,277.702576,0.157805,0.18491,1117.98877,-0.005048,0.149219,0.1,0.0,1.0,2670.18457, set /instrumentation/altimeter/serviceable false, turn_+45
93.286514,12.585372,13.778816,7.446691,1.863461,7.446691,1.863461,270.000153,270.0,374.717255,75.97242,1135.463379,296.331146,277.732178,0.159875,0.16638,1120.000488,-0.007585,0.149064,0.1,0.0,1.0,2670.230713, set /instrumentation/altimeter/serviceable false, turn_+45
93.266823,12.585372,13.778816,7.43891,2.108654,7.43891,2.108654,270.000153,270.0,380.393951,76.057838,1135.026367,296.264618,277.787231,0.15251,0.138918,1123.233765,-0.008874,0.148934,0.1,0.0,1.0,2670.311279, set /instrumentation/altimeter/serviceable true, turn_+45
93.259613,276.136993,277.330444,7.433523,2.185307,7.433523,2.185307,280.000153,280.0,384.176056,76.11261,1134.22168,296.260468,277.829803,0.143889,0.127482,1125.178223,-0.010041,0.148778,0.1,0.0,1.0,2670.374512, set /instrumentation/altimeter/serviceable true, turn_+45
93.251953,281.840515,283.033966,7.426621,2.221792,7.426621,2.221792,280.000153,280.0,389.843445,76.191788,1132.772583,296.352966,277.901245,0.131333,0.126219,1127.870361,-0.010406,0.14867,0.1,0.0,1.0,2670.482666, set /instrumentation/altimeter/serviceable true, turn_+45
93.247688,285.643372,286.836823,7.422817,2.233753,7.422817,2.233753,290.000153,290.0,393.617859,76.242683,1131.937622,296.482422,277.953949,0.125912,0.135838,1129.318481,-0.01058,0.148532,0.1,0.0,1.0,2670.560303, set /instrumentation/altimeter/serviceable true, turn_+45
93.23291,291.350647,292.544098,7.420518,2.286175,7.420518,2.286175,290.000153,290.0,399.275391,76.316238,1131.234741,296.75238,278.041565,0.124305,0.160907,1131.216431,-0.010637,0.148456,0.1,0.0,1.0,2670.677734, set /instrumentation/altimeter/serviceable true, turn_+45
93.220146,295.155304,296.348755,7.420233,2.361244,7.420233,2.361244,290.000153,290.0,403.046051,76.363411,1131.212158,296.958221,278.106598,0.127334,0.180374,1132.221558,-0.010887,0.14841,0.1,0.0,1.0,2670.752686, set /instrumentation/altimeter/serviceable true, turn_+45
93.195969,300.861816,302.055237,7.420217,2.533832,7.420217,2.533832,300.000153,300.0,408.703094,76.431297,1131.646729,297.263184,278.215668,0.135766,0.206562,1133.419922,-0.011244,0.148405,0.1,0.0,1.0,2670.854736, set /instrumentation/altimeter/serviceable true, turn_+45
93.179611,304.664734,305.858185,7.419509,2.67773,7.419509,2.67773,300.000153,300.0,412.475952,76.47464,1132.055054,297.445862,278.296692,0.142122,0.219201,1133.992188,-0.012066,0.148404,0.1,0.0,1.0,2670.915527, set /instrumentation/altimeter/serviceable true, turn_+45
93.151939,310.371674,311.565094,7.416728,2.900383,7.416728,2.900383,310.000153,310.0,418.137482,76.536812,1132.477295,297.676208,278.431305,0.149966,0.229211,1134.834351,-0.012751,0.14839,0.1,0.0,1.0,2670.999268, set /instrumentation/altimeter/serviceable true, turn_+45
93.136414,314.176483,315.369934,7.413767,3.037402,7.413767,3.037402,310.000153,310.0,421.912476,76.576431,1132.478516,297.803955,278.529602,0.152979,0.230813,1135.30835,-0.013811,0.148335,0.1,0.0,1.0,2671.052734, set /instrumentation/altimeter/serviceable true, turn_+45
