airspeed_indicator_indicated_speed_kt,altimeter_indicated_altitude_ft,altimeter_pressure_alt_ft,attitude_indicator_indicated_pitch_deg,attitude_indicator_indicated_roll_deg,attitude_indicator_internal_pitch_deg,attitude_indicator_internal_roll_deg,encoder_indicated_altitude_ft,encoder_pressure_alt_ft,gps_indicated_altitude_ft,gps_indicated_ground_speed_kt,gps_indicated_vertical_speed,indicated_heading_deg,magnetic_compass_indicated_heading_deg,slip_skid_ball_indicated_slip_skid,turn_indicator_indicated_turn_rate,vertical_speed_indicator_indicated_speed_fpm,flight_aileron,flight_elevator,flight_rudder,flight_flaps,engine_throttle,engine_rpm,Command_fault,Command
6.84994,-88.017265,-86.823822,2.974251,1.365121,2.592293,0.091927,-89.999855,-90.0,2.286655,0.0,0.008541,297.863708,288.769928,0.012518,-0.031083,-18.252131,-0.0,0.0,0.0,0.0,0.0,600.388855,, takeoff
6.925419,-88.021339,-86.827896,2.972772,1.359024,2.592577,0.091708,-89.999855,-90.0,2.286685,0.0,0.009345,297.862823,290.848511,0.012551,-0.028009,-13.580502,-0.0,0.0,0.0,0.0,0.0,600.428711,, takeoff
6.999017,-88.024437,-86.830994,2.858164,0.984663,2.590175,0.091366,-89.999855,-90.0,2.286702,4.0E-6,-0.001708,297.861969,292.665649,0.012528,-0.025462,-15.888958,-0.019415,0.051852,4.4E-5,0.0,1.0,631.127991,, takeoff
7.120382,-88.028419,-86.834976,2.63735,0.336615,2.563134,0.089231,-89.999855,-90.0,2.286626,1.46E-4,-0.031185,297.860504,295.373108,0.012411,-0.021912,-9.952029,-0.014067,0.051803,8.7E-5,0.0,1.0,784.738464,, takeoff
7.203012,-88.030334,-86.836891,2.540649,0.122786,2.529661,0.086159,-89.999855,-90.0,2.28651,3.69E-4,-0.036678,297.859467,296.845215,0.012356,-0.020111,-18.865709,-0.004809,0.051263,1.6E-4,0.0,1.0,914.423462,, takeoff
7.414439,-88.032974,-86.839531,2.492736,0.076994,2.492736,0.076994,-89.999855,-90.0,2.286466,0.002248,0.02127,297.857574,299.071625,0.012868,-0.017545,-19.108822,-0.001754,0.050593,2.12E-4,0.0,1.0,1158.762085,, takeoff
7.612648,-88.03434,-86.840897,2.490062,0.06846,2.490062,0.06846,-89.999855,-90.0,2.286609,0.005734,0.061231,297.85611,300.340881,0.013842,-0.01618,-14.321514,-0.0011,0.049855,3.07E-4,0.0,1.0,1317.703247,, takeoff
7.612648,-88.03434,-86.840897,2.490062,0.06846,2.490062,0.06846,-89.999855,-90.0,2.286609,0.005734,0.061231,297.85611,300.340881,0.013842,-0.01618,-14.321514,-0.0011,0.049855,3.07E-4,0.0,1.0,1317.703247,, takeoff
8.538776,-88.037178,-86.843735,2.52405,0.036626,2.52405,0.036626,-89.999855,-90.0,2.287828,0.038081,0.17351,297.846985,303.286133,0.020183,-0.013696,-15.59927,-9.78E-4,0.049801,3.8E-4,0.0,1.0,1723.798218,, takeoff
8.973506,-88.037621,-86.844177,2.539825,0.025388,2.539825,0.025388,-89.999855,-90.0,2.28851,0.060564,0.216117,297.840607,304.001343,0.023043,-0.013501,-17.385128,-5.23E-4,0.050481,8.36E-4,0.0,1.0,1830.241699,, takeoff
9.664667,-88.037865,-86.844421,2.559863,0.010714,2.559863,0.010714,-89.999855,-90.0,2.289707,0.104721,0.274132,297.827789,304.737823,0.028225,-0.01386,-18.315847,-3.63E-4,0.050797,0.001155,0.0,1.0,1949.354736,, takeoff
10.207764,-88.037796,-86.844353,2.572799,0.001467,2.572799,0.001467,-89.999855,-90.0,2.290748,0.146359,0.321931,297.815369,305.078003,0.028223,-0.01457,-18.066942,-1.53E-4,0.051197,0.001796,0.0,1.0,2015.457886,, takeoff
10.737573,-88.037567,-86.844124,2.583171,-0.006031,2.583171,-0.006031,-89.999855,-90.0,2.291849,0.192675,0.364638,297.801941,305.25766,0.028276,-0.015445,-17.184031,-2.1E-5,0.051456,0.002417,0.0,1.0,2064.397217,, takeoff
11.636742,-88.036865,-86.843422,2.597204,-0.016048,2.597204,-0.016048,-89.999855,-90.0,2.293923,0.284125,0.439502,297.777161,305.28833,0.028503,-0.017131,-14.177999,8.6E-5,0.051663,0.003088,0.0,1.0,2123.577393,, takeoff
12.218482,-88.036224,-86.842781,2.604703,-0.021138,2.604703,-0.021138,-89.999855,-90.0,2.295411,0.351841,0.488306,297.76004,305.153931,0.028727,-0.018296,-10.737038,2.29E-4,0.051944,0.004327,0.0,1.0,2150.608887,, takeoff
13.153739,-88.034912,-86.841469,2.614342,-0.027616,2.614342,-0.027616,-89.999855,-90.0,2.298059,0.474886,0.567356,297.733368,304.722412,0.029174,-0.019817,7.780963,3.02E-4,0.052094,0.005183,0.0,1.0,2181.512451,, takeoff
14.111359,-88.033226,-86.839783,2.622515,-0.032611,2.622515,-0.032611,-89.999855,-90.0,2.30111,0.61885,0.6519,297.708466,304.041718,0.029703,-0.020804,16.943052,3.95E-4,0.052287,0.006517,0.0,1.0,2202.623535,, takeoff
14.756697,-88.031891,-86.838448,2.627375,-0.03518,2.627375,-0.03518,-89.999855,-90.0,2.303374,0.726395,0.704925,297.694061,303.462341,0.030043,-0.021004,11.213379,4.66E-4,0.05245,0.007762,0.0,1.0,2213.640869,, takeoff
15.434746,-88.030312,-86.836868,2.63201,-0.037471,2.63201,-0.037471,-89.999855,-90.0,2.305931,0.848173,0.763509,297.682343,302.76239,0.030469,-0.020651,18.373449,5.03E-4,0.052547,0.008482,0.0,1.0,2223.159912,, takeoff
16.418596,-88.027702,-86.834259,2.638398,-0.040348,2.638398,-0.040348,-89.999855,-90.0,2.309976,1.040793,0.85003,297.672577,301.601501,0.031345,-0.019071,18.539698,5.35E-4,0.05264,0.009068,0.0,1.0,2234.144775,, takeoff
17.050842,-88.025833,-86.832382,2.642509,-0.042041,2.642509,-0.042041,-89.999855,-90.0,2.312788,1.174362,0.90694,297.670685,300.777802,0.032061,-0.017492,15.863914,5.76E-4,0.052768,0.009557,0.0,1.0,2239.859131,, takeoff
18.043335,-88.022568,-86.829124,2.648745,-0.044579,2.648745,-0.044579,-89.999855,-90.0,2.317547,1.399553,0.992689,297.674713,299.383057,0.033401,-0.014212,18.565506,6.01E-4,0.05285,0.009651,0.0,1.0,2247.278076,, takeoff
19.039551,-88.01889,-86.825447,2.655043,-0.046982,2.655043,-0.046982,-89.999855,-90.0,2.322744,1.644009,1.080717,297.68634,297.887848,0.034988,-0.010225,12.183555,6.37E-4,0.052975,0.00945,0.0,1.0,2253.30249,, takeoff
19.704596,-88.016212,-86.822769,2.659263,-0.04851,2.659263,-0.04851,-89.999855,-90.0,2.326453,1.817436,1.139536,297.69751,296.851105,0.036106,-0.007349,12.730255,6.71E-4,0.053101,0.008868,0.0,1.0,2256.743164,, takeoff
20.398151,-88.013222,-86.819778,2.663588,-0.050013,2.663588,-0.050013,-89.999855,-90.0,2.330525,2.006794,1.200533,297.710968,295.748962,0.037279,-0.004365,14.77988,6.93E-4,0.053185,0.00831,0.0,1.0,2259.951904,, takeoff
21.397486,-88.008568,-86.815125,2.669851,-0.052027,2.669851,-0.052027,-89.999855,-90.0,2.336761,2.294728,1.28856,297.731812,294.1427,0.038945,-3.66E-4,12.279858,7.14E-4,0.053272,0.007637,0.0,1.0,2264.052979,, takeoff
22.06362,-88.005226,-86.811783,2.674149,-0.053257,2.674149,-0.053257,-89.999855,-90.0,2.341164,2.496462,1.349188,297.746002,293.072296,0.039862,0.002026,15.882181,7.43E-4,0.053397,0.006595,0.0,1.0,2266.524902,, takeoff
23.063137,-87.999863,-86.806419,2.680538,-0.054907,2.680538,-0.054907,-89.999855,-90.0,2.348135,2.81334,1.435474,297.765564,291.488312,0.041029,0.004908,16.892082,7.61E-4,0.053483,0.005885,0.0,1.0,2269.939941,, takeoff
24.03414,-87.99424,-86.800797,2.68694,-0.056359,2.68694,-0.056359,-89.999855,-90.0,2.355336,3.137404,1.521224,297.782135,289.995422,0.041787,0.006948,18.723478,7.84E-4,0.053611,0.004907,0.0,1.0,2273.009033,, takeoff
24.699507,-87.990158,-86.796707,2.691405,-0.0573,2.691405,-0.0573,-89.999855,-90.0,2.360516,3.36848,1.580244,297.79187,289.010223,0.042007,0.007927,14.397275,8.05E-4,0.053739,0.004079,0.0,1.0,2275.006592,, takeoff
25.391932,-87.985695,-86.792252,2.696036,-0.058219,2.696036,-0.058219,-89.999855,-90.0,2.366119,3.616662,1.640839,297.800385,288.025391,0.042107,0.008587,10.808211,8.19E-4,0.053828,0.003592,0.0,1.0,2277.016357,, takeoff
26.388025,-87.978912,-86.785469,2.702826,-0.059568,2.702826,-0.059568,-89.999855,-90.0,2.374562,3.987113,1.729201,297.810181,286.694611,0.042017,0.009053,18.326653,8.32E-4,0.053921,0.003166,0.0,1.0,2279.812012,, takeoff
27.354822,-87.971916,-86.778473,2.709686,-0.060981,2.709686,-0.060981,-89.999855,-90.0,2.383194,4.361639,1.81887,297.818573,285.514191,0.041783,0.009281,15.610801,8.51E-4,0.054057,0.002676,0.0,1.0,2282.44751,, takeoff
28.017256,-87.966873,-86.77343,2.714695,-0.062068,2.714695,-0.062068,-89.999855,-90.0,2.389371,4.626405,1.903347,297.824554,284.776367,0.041676,0.009461,14.922232,8.71E-4,0.054194,0.002257,0.0,1.0,2284.219482,, takeoff
29.008492,-87.958893,-86.76545,2.727217,-0.057998,2.727217,-0.057998,-89.999855,-90.0,2.399625,5.03532,2.178852,297.834778,283.787354,0.042104,0.010037,15.741688,8.87E-4,0.054294,0.001958,0.0,1.0,2286.837891,, takeoff
29.695959,-87.952972,-86.759529,2.733227,-0.058672,2.733227,-0.058672,-89.999855,-90.0,2.407313,5.327373,2.243969,297.843414,283.187805,0.041805,0.010554,18.644617,8.29E-4,0.054544,0.001446,0.0,1.0,2288.634766,, takeoff
30.656107,-87.944168,-86.750725,2.739855,-0.060703,2.739855,-0.060703,-89.999855,-90.0,2.418446,5.747043,2.332398,297.858337,282.473206,0.042173,0.011613,11.518362,8.38E-4,0.054665,0.001015,0.0,1.0,2291.12793,, takeoff
31.314062,-87.937805,-86.744354,2.744689,-0.062332,2.744689,-0.062332,-89.999855,-90.0,2.426341,6.041902,2.39929,297.870789,282.069,0.04281,0.012605,16.857023,8.67E-4,0.054797,2.69E-4,0.0,1.0,2292.82666,, takeoff
32.302063,-87.927498,-86.734055,2.752307,-0.064562,2.752307,-0.064562,-89.999855,-90.0,2.438921,6.507426,2.491572,297.892426,281.583832,0.044215,0.014316,16.343952,8.9E-4,0.054894,-3.54E-4,0.0,1.0,2295.423096,, takeoff
32.877525,-87.921089,-86.727646,2.756958,-0.065064,2.756958,-0.065064,-89.999855,-90.0,2.446621,6.790359,2.544897,297.905334,281.37442,0.045459,0.015218,8.453336,9.22E-4,0.055046,-0.001436,0.0,1.0,2296.942627,, takeoff
33.870506,-87.909561,-86.716118,2.764604,-0.064094,2.764604,-0.064094,-89.999855,-90.0,2.460325,7.289514,2.642773,297.921722,281.149048,0.04655,0.015656,14.247984,9.29E-4,0.055139,-0.002081,0.0,1.0,2299.536865, set /systems/vacuum/serviceable false, takeoff
34.470566,-87.902313,-86.70887,2.769262,-0.062695,2.769262,-0.062695,-89.999855,-90.0,2.468873,7.597901,2.7033,297.926208,281.09436,0.046421,0.015036,12.116278,9.16E-4,0.055292,-0.002901,0.0,1.0,2301.094238, set /systems/vacuum/serviceable false, takeoff
35.434261,-87.890221,-86.696777,2.776474,-0.059341,2.776474,-0.059341,-89.999855,-90.0,2.48303,8.103614,2.800707,297.922089,281.129883,0.044602,0.012393,19.628384,8.96E-4,0.055385,-0.003125,0.0,1.0,2303.586426, set /systems/vacuum/serviceable false, takeoff
36.058823,-87.882111,-86.688667,2.781559,-0.056744,2.781559,-0.056744,-89.999855,-90.0,2.492511,8.437814,2.916838,297.911957,281.230225,0.042348,0.009729,7.989903,8.48E-4,0.055529,-0.002919,0.0,1.0,2305.197266, set /systems/vacuum/serviceable false, takeoff
36.991676,-87.869415,-86.675972,2.795285,-0.0526,2.795285,-0.0526,-89.999855,-90.0,2.508367,8.947925,3.302913,297.888031,281.486359,0.037748,0.004872,19.149647,8.11E-4,0.055631,-0.002412,0.0,1.0,2307.607666, set /systems/vacuum/serviceable false, takeoff
37.613995,-87.860474,-86.66703,2.800177,-0.049816,2.800177,-0.049816,-89.999855,-90.0,2.519493,9.293707,3.366791,297.868042,281.722046,0.034193,0.001406,13.401629,7.51E-4,0.055906,-0.001216,0.0,1.0,2309.211914, set /systems/vacuum/serviceable false, takeoff
38.542927,-87.846375,-86.652931,2.806615,-0.046251,2.806615,-0.046251,-89.999855,-90.0,2.536592,9.820676,3.468083,297.837555,282.162689,0.029093,-0.00322,17.435564,7.12E-4,0.056004,-2.17E-4,0.0,1.0,2311.615479, set /systems/vacuum/serviceable false, takeoff
39.136326,-87.83699,-86.643547,2.811162,-0.044317,2.811162,-0.044317,-89.999855,-90.0,2.547791,10.162417,3.536582,297.819733,282.493042,0.026219,-0.005555,12.488753,6.61E-4,0.056132,0.001308,0.0,1.0,2313.150391, set /systems/vacuum/serviceable false, takeoff
40.063343,-87.821739,-86.628296,2.818457,-0.042241,2.818457,-0.042241,-89.999855,-90.0,2.565756,10.705001,3.642865,297.799042,283.075653,0.02352,-0.007647,11.754913,6.33E-4,0.056223,0.002199,0.0,1.0,2315.552002, set /systems/vacuum/serviceable false, takeoff
40.680393,-87.811218,-86.617775,2.82356,-0.041216,2.82356,-0.041216,-89.999855,-90.0,2.578031,11.071787,3.71458,297.790924,283.501831,0.022877,-0.007987,12.30852,6.03E-4,0.056369,0.003233,0.0,1.0,2317.153076, set /systems/vacuum/serviceable false, takeoff
41.604389,-87.794899,-86.601456,2.830645,-0.040207,2.830645,-0.040207,-89.999855,-90.0,2.596849,11.629317,3.752699,297.788147,284.186218,0.023888,-0.006976,13.149826,5.89E-4,0.056471,0.003639,0.0,1.0,2319.554688, set /systems/vacuum/serviceable false, takeoff
42.245007,-87.783249,-86.589806,2.837221,-0.037884,2.837221,-0.037884,-89.999855,-90.0,2.610095,12.021534,4.103871,297.791748,284.686218,0.025518,-0.005473,18.279617,5.74E-4,0.056613,0.003778,0.0,1.0,2321.2229, set /systems/vacuum/serviceable false, takeoff
43.139099,-87.766251,-86.572807,2.848674,-0.031276,2.848674,-0.031276,-89.999855,-90.0,2.631231,12.577341,4.399776,297.800995,285.40921,0.028557,-0.002927,10.807296,5.41E-4,0.056744,0.003598,0.0,1.0,2323.648682, set /systems/vacuum/serviceable false, takeoff
43.776241,-87.753502,-86.560059,2.854421,-0.031239,2.854421,-0.031239,-89.999855,-90.0,2.646679,12.978989,4.489076,297.807953,285.935242,0.030603,-0.001401,9.638191,4.47E-4,0.056973,0.003136,0.0,1.0,2326.148193, set /systems/vacuum/serviceable false, takeoff
44.667362,-87.734917,-86.541473,2.861251,-0.029477,2.861251,-0.029477,-89.999855,-90.0,2.668808,13.547587,4.606514,297.813721,286.674957,0.033054,-1.43E-4,10.6282,4.46E-4,0.057088,0.002788,0.0,1.0,2330.664551, set /systems/vacuum/serviceable false, takeoff
45.277794,-87.721672,-86.528229,2.865939,-0.027388,2.865939,-0.027388,-89.999855,-90.0,2.684309,13.941614,4.686234,297.812927,287.178528,0.033807,-1.3E-4,20.644901,4.21E-4,0.057225,0.002499,0.0,1.0,2334.199707, set /systems/vacuum/serviceable false, takeoff
46.218449,-87.700569,-86.507126,2.872989,-0.023028,2.872989,-0.023028,-89.999855,-90.0,2.708723,14.55547,4.811912,297.801605,287.938904,0.033049,-0.001678,19.182859,3.91E-4,0.057319,0.002539,0.0,1.0,2340.072754, set /systems/vacuum/serviceable false, takeoff
46.82856,-87.686432,-86.492989,2.883235,-0.019771,2.883235,-0.019771,-89.999855,-90.0,2.72557,14.957696,5.34269,297.787354,288.41629,0.031225,-0.003636,11.501903,3.29E-4,0.05746,0.003105,0.0,1.0,2344.058105, set /systems/vacuum/serviceable false, takeoff
47.742668,-87.664207,-86.470764,2.8918,-0.013146,2.8918,-0.013146,-89.999855,-90.0,2.752702,15.566832,5.490609,297.757874,289.10022,0.026858,-0.007415,16.57655,2.82E-4,0.057665,0.003818,0.0,1.0,2350.191406, set /systems/vacuum/serviceable false, takeoff
48.326752,-87.649384,-86.45594,2.896259,-0.009319,2.896259,-0.009319,-89.999855,-90.0,2.770451,15.95956,5.59237,297.735413,289.512726,0.023073,-0.010121,14.179124,1.88E-4,0.057836,0.005292,0.0,1.0,2354.174561, set /systems/vacuum/serviceable false, takeoff
49.241096,-87.62529,-86.431847,2.902811,-0.004401,2.902811,-0.004401,-89.999855,-90.0,2.79875,16.579689,5.719889,297.699646,290.113342,0.017157,-0.013926,15.075603,1.33E-4,0.057925,0.006415,0.0,1.0,2360.474121, set /systems/vacuum/serviceable false, takeoff
49.850773,-87.608688,-86.415245,2.90758,-0.001412,2.90758,-0.001412,-89.999855,-90.0,2.817977,16.996702,5.808084,297.677155,290.479706,0.013525,-0.015941,15.62211,6.3E-5,0.058056,0.008203,0.0,1.0,2364.70459, set /systems/vacuum/serviceable false, takeoff
50.79092,-87.582298,-86.388855,2.914867,0.002158,2.914867,0.002158,-89.999855,-90.0,2.848193,17.645081,5.94361,297.649445,290.985901,0.00956,-0.017561,20.784813,2.0E-5,0.058152,0.009328,0.0,1.0,2371.260498, set /systems/vacuum/serviceable false, takeoff
51.375118,-87.565445,-86.372002,2.91958,0.004075,2.91958,0.004075,-89.999855,-90.0,2.867329,18.051403,6.033446,297.637268,291.262482,0.008035,-0.017668,12.160654,-3.1E-5,0.058297,0.010713,0.0,1.0,2375.351807, set /systems/vacuum/serviceable false, takeoff
52.314445,-87.5373,-86.343857,2.937449,0.016737,2.937449,0.016737,-89.999855,-90.0,2.901917,18.710173,6.986208,297.626617,291.643066,0.008005,-0.016198,16.581841,-5.8E-5,0.058392,0.011322,0.0,1.0,2381.953613, set /systems/vacuum/serviceable false, takeoff
52.923565,-87.518097,-86.324654,2.942396,0.018556,2.942396,0.018556,-89.999855,-90.0,2.925359,19.140778,7.070283,297.624084,291.846283,0.008672,-0.014843,17.028511,-2.39E-4,0.058749,0.011855,0.0,1.0,2386.246826, set /systems/vacuum/serviceable false, takeoff
53.812325,-87.488892,-86.295448,2.947664,0.020852,2.947664,0.020852,-89.999855,-90.0,2.960068,19.773272,7.203162,297.624084,292.080322,0.010963,-0.01255,15.865355,-2.65E-4,0.058848,0.011981,0.0,1.0,2392.523193, set /systems/vacuum/serviceable false, takeoff
54.447323,-87.46727,-86.273827,2.951973,0.022697,2.951973,0.022697,-89.999855,-90.0,2.985272,20.228271,7.304588,297.624268,292.202332,0.01284,-0.01111,19.508005,-2.98E-4,0.058953,0.011981,0.0,1.0,2397.017578, set /systems/vacuum/serviceable false, takeoff
55.336468,-87.436043,-86.242599,2.958213,0.025758,2.958213,0.025758,-89.999855,-90.0,3.021154,20.869661,7.448387,297.620483,292.310791,0.015336,-0.009982,16.946772,-3.24E-4,0.059039,0.011972,0.0,1.0,2403.324951, set /systems/vacuum/serviceable false, takeoff
55.945923,-87.414032,-86.220589,2.962724,0.028247,2.962724,0.028247,-89.999855,-90.0,3.046167,21.312363,7.548574,297.61322,292.344147,0.016321,-0.010047,17.387421,-3.68E-4,0.059164,0.012161,0.0,1.0,2407.659424, set /systems/vacuum/serviceable false, takeoff
56.859234,-87.38018,-86.186737,2.969486,0.032501,2.969486,0.032501,-89.999855,-90.0,3.084307,21.980688,7.697866,297.593536,292.333832,0.01622,-0.011502,17.995573,-4.04E-4,0.059254,0.012524,0.0,1.0,2414.174072, set /systems/vacuum/serviceable false, takeoff
57.467499,-87.357086,-86.163643,2.974143,0.035624,2.974143,0.035624,-89.999855,-90.0,3.110151,22.429007,7.798086,297.574341,292.288391,0.015021,-0.013299,18.390308,-4.64E-4,0.05939,0.013509,0.0,1.0,2418.524414, set /systems/vacuum/serviceable false, takeoff
58.404419,-87.320702,-86.127258,2.980996,0.040469,2.980996,0.040469,-89.999855,-90.0,3.150642,23.124365,7.950962,297.538239,292.161438,0.011739,-0.016723,12.30014,-5.09E-4,0.059483,0.014468,0.0,1.0,2425.241455, set /systems/vacuum/serviceable false, takeoff
58.986282,-87.297638,-86.104195,2.985041,0.043911,2.985041,0.043911,-89.999855,-90.0,3.176147,23.559107,7.984324,297.513153,292.049835,0.008878,-0.018983,14.84905,-5.78E-4,0.05962,0.016273,0.0,1.0,2429.42334, set /systems/vacuum/serviceable false, takeoff
59.921608,-87.259933,-86.06649,2.991013,0.04914,2.991013,0.04914,-89.999855,-90.0,3.217388,24.26236,8.092081,297.474121,291.822235,0.004266,-0.021945,19.259668,-6.27E-4,0.059701,0.017528,0.0,1.0,2436.161377, set /systems/vacuum/serviceable false, takeoff
60.502338,-87.236092,-86.042648,2.995496,0.051741,2.995496,0.051741,-89.999855,-90.0,3.243409,24.70186,8.188785,297.452179,291.653442,0.00146,-0.023203,15.033187,-7.02E-4,0.05982,0.019479,0.0,1.0,2440.37793, set /systems/vacuum/serviceable false, takeoff
61.409832,-87.198212,-86.004768,3.0037,0.055039,3.0037,0.055039,-89.999855,-90.0,3.284881,25.393257,8.470118,297.425201,291.352173,-0.001841,-0.023788,21.378088,-7.39E-4,0.05991,0.020576,0.0,1.0,2447.071045, set /systems/vacuum/serviceable false, takeoff
62.013992,-87.172447,-85.978996,3.01172,0.055657,3.01172,0.055657,-89.999855,-90.0,3.314317,25.856472,8.895484,297.412048,291.129303,-0.002766,-0.0234,14.73764,-7.86E-4,0.060074,0.021925,0.0,1.0,2451.575195, set /systems/vacuum/serviceable false, takeoff
62.918285,-87.132706,-85.939262,3.024338,0.058647,3.024338,0.058647,-89.999855,-90.0,3.360156,26.554594,9.917215,297.399353,290.767517,-0.002776,-0.021763,19.702026,-7.95E-4,0.060234,0.022583,0.0,1.0,2458.370117, set /systems/vacuum/serviceable false, takeoff
63.544331,-87.104034,-85.910583,3.031839,0.060866,3.031839,0.060866,-89.999855,-90.0,3.394826,27.041641,10.029125,297.393524,290.500458,-0.00193,-0.020315,22.064062,-8.38E-4,0.060487,0.023218,0.0,1.0,2463.106445, set /systems/vacuum/serviceable false, takeoff
64.444885,-87.06105,-85.867607,3.037278,0.063993,3.037278,0.063993,-89.999855,-90.0,3.445363,27.746092,10.178082,297.386078,290.09906,2.47E-4,-0.018372,14.926372,-8.7E-4,0.060637,0.023509,0.0,1.0,2469.943359, set /systems/vacuum/serviceable false, fly_strait
65.019165,-87.032677,-85.839233,3.041034,0.067521,3.041034,0.067521,-89.999855,-90.0,3.47806,28.198011,10.289323,297.375946,289.835449,0.001445,-0.018383,18.967953,-9.14E-4,0.060746,0.0,0.0,1.0,2474.318848, set /systems/vacuum/serviceable false, fly_strait
65.943893,-86.985741,-85.792297,3.046168,0.074348,3.046168,0.074348,-89.999855,-90.0,3.531356,28.92794,10.448094,297.269775,289.405182,-0.001459,-0.032961,13.952703,-9.65E-4,0.060821,5.07E-4,0.0,1.0,2481.369385, set /systems/vacuum/serviceable false, fly_strait
66.544174,-86.954514,-85.76107,3.050996,0.076816,3.050996,0.076816,-89.999855,-90.0,3.566775,29.403297,10.892587,297.143829,289.124512,-0.007622,-0.05006,14.344835,-0.001062,0.060923,0.005815,0.0,1.0,2485.952393, set /systems/vacuum/serviceable false, fly_strait
67.419945,-86.907616,-85.714172,3.057605,0.075599,3.057605,0.075599,-89.999855,-90.0,3.621268,30.09914,11.300234,296.922363,288.715881,-0.024036,-0.077714,20.294436,-0.001097,0.06102,0.012112,0.0,1.0,2492.653564, set /systems/vacuum/serviceable false, fly_strait
68.019829,-86.874474,-85.68103,3.060832,0.07135,3.060832,0.07135,-89.999855,-90.0,3.659127,30.578037,11.411977,296.769958,288.437531,-0.036908,-0.094317,20.760071,-0.00108,0.061152,0.023186,0.0,1.0,2497.259277, set /systems/vacuum/serviceable false, fly_strait
68.916176,-86.82338,-85.629936,3.060312,0.045827,3.060312,0.045827,-89.999855,-90.0,3.718022,31.298885,12.392374,296.595215,288.025146,-0.055788,-0.107899,21.482449,-0.001019,0.061217,0.030806,0.0,1.0,2504.173584, set /systems/vacuum/serviceable false, fly_strait
69.53875,-86.786507,-85.593063,3.034802,-0.032725,3.034802,-0.032725,-89.999855,-90.0,3.763444,31.801147,14.263497,296.532562,287.744415,-0.065498,-0.108282,17.229908,-6.55E-4,0.061206,0.039543,0.0,1.0,2508.980469, set /systems/vacuum/serviceable false, fly_strait
70.437126,-86.729912,-85.536469,2.959531,-0.216932,2.959531,-0.216932,-89.999855,-90.0,3.837602,32.526714,15.094099,296.551605,287.35376,-0.070997,-0.093157,22.558582,4.68E-4,0.060696,0.042676,0.0,1.0,2515.920166, set /systems/vacuum/serviceable false, fly_strait
71.013428,-86.691467,-85.498024,2.89976,-0.352065,2.89976,-0.352065,-89.999855,-90.0,3.88578,32.991707,14.984132,296.626282,287.116608,-0.066695,-0.075275,23.27821,0.003099,0.059191,0.041724,0.0,1.0,2520.371338, set /systems/vacuum/serviceable false, fly_strait
71.909859,-86.628563,-85.43512,2.838688,-0.520404,2.838688,-0.520404,-89.999855,-90.0,3.959646,33.721703,14.623614,296.797485,286.772919,-0.049481,-0.041513,18.492527,0.005029,0.057995,0.03799,0.0,1.0,2527.354004, set /systems/vacuum/serviceable false, fly_strait
72.526733,-86.583542,-85.390099,2.813591,-0.607596,2.813591,-0.607596,-89.999855,-90.0,4.010433,34.230099,14.610986,296.918091,286.558533,-0.033228,-0.020417,18.963371,0.007434,0.056774,0.02943,0.0,1.0,2532.197266, set /systems/vacuum/serviceable false, fly_strait
73.384773,-86.519135,-85.325691,2.786314,-0.712287,2.786314,-0.712287,-89.999855,-90.0,4.082,34.943649,14.90143,297.02005,286.297546,-0.007422,-0.005101,19.050259,0.00868,0.056272,0.023399,0.0,1.0,2538.957275, set /systems/vacuum/serviceable false, fly_strait
73.996437,-86.472176,-85.278732,2.756337,-0.803022,2.756337,-0.803022,-89.999855,-90.0,4.134475,35.454514,15.288712,297.017731,286.141449,0.007683,-0.007907,16.693205,0.010176,0.055726,0.018301,0.0,1.0,2543.773193, set /systems/vacuum/serviceable false, fly_strait
74.879517,-86.402985,-85.209541,2.693061,-0.976652,2.693061,-0.976652,-89.999855,-90.0,4.212313,36.191792,15.834263,296.889191,285.963348,0.023794,-0.032008,17.251488,0.011472,0.055127,0.018417,0.0,1.0,2550.705566, set /systems/vacuum/serviceable false, fly_strait
75.470421,-86.355736,-85.162292,2.639196,-1.125618,2.639196,-1.125618,-89.999855,-90.0,4.265864,36.684357,16.348696,296.734192,285.87558,0.029121,-0.057608,17.717854,0.013952,0.053861,0.024844,0.0,1.0,2555.335938, set /systems/vacuum/serviceable false, fly_strait
76.355873,-86.282349,-85.088905,2.620878,-1.392568,2.620878,-1.392568,-89.999855,-90.0,4.356694,37.424767,20.777946,296.455353,285.789459,0.028926,-0.099123,18.896189,0.01608,0.052784,0.032594,0.0,1.0,2562.302246, set /systems/vacuum/serviceable false, fly_strait
76.915405,-86.231781,-85.038338,2.670075,-1.597445,2.670075,-1.597445,-89.999855,-90.0,4.435269,37.899181,28.863663,296.279144,285.761414,0.025481,-0.122672,18.689911,0.019894,0.052418,0.046536,0.0,1.0,2566.757324, set /systems/vacuum/serviceable false, fly_strait
77.795181,-86.133209,-84.939758,2.814385,-1.925842,2.814385,-1.925842,-79.999855,-80.0,4.639038,38.666122,51.650669,296.068329,285.75531,0.017898,-0.144001,22.822783,0.022821,0.053401,0.055347,0.0,1.0,2573.905518, set /systems/vacuum/serviceable false, fly_strait
78.346275,-86.047554,-84.854111,2.934039,-2.105463,2.934039,-2.105463,-79.999855,-80.0,4.844724,39.164104,71.513702,295.99649,285.77356,0.014451,-0.145015,29.445187,0.027512,0.056288,0.065887,0.0,1.0,2578.509521, set /systems/vacuum/serviceable false, fly_strait
79.117859,-85.872612,-84.679169,3.108475,-2.250936,3.108475,-2.250936,-79.999855,-80.0,5.272465,39.890434,103.888458,295.988251,285.825806,0.01423,-0.128512,43.087421,0.030078,0.058681,0.069479,0.0,1.0,2585.139404, set /systems/vacuum/serviceable false, fly_strait
79.640602,-85.699364,-84.505913,3.246406,-2.250728,3.246406,-2.250728,-79.999855,-80.0,5.676379,40.408871,128.028976,296.028778,285.878235,0.018442,-0.108722,55.556431,0.032156,0.062169,0.069891,0.0,1.0,2589.78125, set /systems/vacuum/serviceable false, fly_strait
80.3498,-85.362167,-84.168724,3.433228,-2.09087,3.433228,-2.09087,-79.999855,-80.0,6.406984,41.154003,162.979843,296.095856,285.969391,0.030269,-0.079158,76.659256,0.032153,0.064928,0.067865,0.0,1.0,2595.453125, set /systems/vacuum/serviceable false, fly_strait
80.778366,-85.085541,-83.892097,3.551931,-1.911142,3.551931,-1.911142,-79.999855,-80.0,6.963331,41.628685,184.408051,296.11319,286.033569,0.039861,-0.065046,91.496971,0.02987,0.068665,0.064511,0.0,1.0,2598.400635, set /systems/vacuum/serviceable false, fly_strait
81.4338,-84.530769,-83.337326,3.702784,-1.573401,3.702784,-1.573401,-79.999855,-80.0,7.997748,42.389168,216.905899,296.06192,286.138672,0.053352,-0.056567,117.044739,0.027302,0.071039,0.063644,0.0,1.0,2602.394775, set /systems/vacuum/serviceable false, fly_strait
81.823952,-84.114876,-82.921432,3.789639,-1.367485,3.789639,-1.367485,-79.999855,-80.0,8.722823,42.859562,236.216248,295.97934,286.200867,0.059582,-0.059988,133.515839,0.022477,0.074056,0.066208,0.0,1.0,2604.545166, set /systems/vacuum/serviceable false, fly_strait
82.428696,-83.328873,-82.135429,3.913393,-1.122196,3.913393,-1.122196,-79.999855,-80.0,10.015506,43.611897,265.694977,295.801849,286.287872,0.063006,-0.073407,160.411407,0.019536,0.075793,0.070337,0.0,1.0,2607.638672, set /systems/vacuum/serviceable false, fly_strait
82.791031,-82.767395,-81.573952,3.995989,-1.025402,3.995989,-1.025402,-79.999855,-80.0,10.893496,44.076569,283.274994,295.690765,286.329956,0.062145,-0.081846,177.166336,0.016031,0.078268,0.079211,0.0,1.0,2609.394043, set /systems/vacuum/serviceable false, fly_strait
83.351265,-81.747871,-80.554428,4.120188,-0.956468,4.120188,-0.956468,-79.999855,-80.0,12.422041,44.818787,310.524109,295.574524,286.372375,0.057851,-0.085476,203.941681,0.014649,0.07992,0.084766,0.0,1.0,2612.022461, set /systems/vacuum/serviceable false, fly_strait
83.681885,-81.042007,-79.848564,4.203316,-0.932231,4.203316,-0.932231,-79.999855,-80.0,13.440986,45.276608,326.895813,295.557068,286.380707,0.056363,-0.079118,220.552307,0.013664,0.082404,0.090578,0.0,1.0,2613.558838, set /systems/vacuum/serviceable false, fly_strait
84.191833,-79.793045,-78.599602,4.332103,-0.868011,4.332103,-0.868011,-79.999855,-80.0,15.197978,46.006821,356.738007,295.618866,286.362793,0.057944,-0.055522,246.858551,0.013318,0.084066,0.09145,0.0,1.0,2615.9021, set /systems/vacuum/serviceable false, fly_strait
84.501579,-78.907013,-77.713562,4.433759,-0.78237,4.433759,-0.78237,-79.999855,-80.0,16.423944,46.47599,378.352631,295.697418,286.329926,0.062828,-0.035274,264.048401,0.0124,0.086642,0.088361,0.0,1.0,2617.347412, set /systems/vacuum/serviceable false, fly_strait
84.933815,-77.461121,-76.267677,4.59501,-0.580848,4.59501,-0.580848,-79.999855,-80.0,18.401695,47.172497,410.881012,295.813232,286.248779,0.074645,-0.007673,290.600372,0.011177,0.088675,0.084433,0.0,1.0,2619.412598, set /systems/vacuum/serviceable false, fly_strait
85.203979,-76.418068,-75.224617,4.69731,-0.41021,4.69731,-0.41021,-79.999855,-80.0,19.804012,47.631695,429.414642,295.860931,286.173035,0.083714,0.004437,308.638855,0.008298,0.0919,0.078642,0.0,1.0,2620.724609, set /systems/vacuum/serviceable false, fly_strait
85.584305,-74.782745,-73.589302,4.782469,-0.1664,4.782469,-0.1664,-69.999855,-70.0,21.948723,48.293625,451.686249,295.85965,286.031128,0.095452,0.008624,335.102661,0.00586,0.093946,0.076257,0.0,1.0,2622.556396, set /systems/vacuum/serviceable false, fly_strait
85.851891,-73.536575,-72.343132,4.822691,-0.024652,4.822691,-0.024652,-69.999855,-70.0,23.5427,48.760712,465.727814,295.812073,285.907135,0.099745,0.003251,353.389221,0.002377,0.095649,0.076321,0.0,1.0,2623.815918, set /systems/vacuum/serviceable false, fly_strait
86.220673,-71.689056,-70.495613,4.882261,0.080795,4.882261,0.080795,-69.999855,-70.0,25.852407,49.406551,483.864502,295.715088,285.702698,0.100273,-0.009902,377.882477,3.52E-4,0.096454,0.0787,0.0,1.0,2625.523682, set /systems/vacuum/serviceable false, fly_strait
86.479073,-70.300949,-69.107506,4.940309,0.094619,4.940309,0.094619,-69.999855,-70.0,27.555811,49.862064,496.919983,295.652863,285.53537,0.097789,-0.01818,394.432648,-0.001154,0.097645,0.083549,0.0,1.0,2626.709229, set /systems/vacuum/serviceable false, fly_strait
86.826912,-68.265778,-67.072327,5.025271,0.051556,5.025271,0.051556,-69.999855,-70.0,30.019535,50.491581,516.377502,295.619781,285.272888,0.092008,-0.020964,416.641266,-0.001352,0.098806,0.086661,0.0,1.0,2628.323486, set /systems/vacuum/serviceable false, fly_strait
87.069916,-66.74926,-65.555817,5.091696,0.010422,5.091696,0.010422,-69.999855,-70.0,31.838667,50.935287,531.029907,295.646118,285.066956,0.089637,-0.015014,431.853882,-7.37E-4,0.100505,0.088315,0.0,1.0,2629.445068, set /systems/vacuum/serviceable false, fly_strait
87.388908,-64.538307,-63.344864,5.180324,-0.009055,5.180324,-0.009055,-59.999859,-60.0,34.472763,51.547985,552.077454,295.74057,284.756348,0.090304,0.002059,452.766113,-1.49E-4,0.101834,0.086998,0.0,1.0,2630.969238, set /systems/vacuum/serviceable false, fly_strait
87.609863,-62.897541,-61.704098,5.247854,0.021075,5.247854,0.021075,-59.999859,-60.0,36.416775,51.979454,567.194153,295.826752,284.521301,0.093935,0.016496,467.430084,1.29E-4,0.103606,0.082275,0.0,1.0,2632.024414, set /systems/vacuum/serviceable false, fly_strait
87.910759,-60.44413,-59.250687,5.336699,0.126355,5.336699,0.126355,-59.999859,-60.0,39.309834,52.591545,589.366943,295.925812,284.16806,0.102316,0.031799,488.420227,-3.01E-4,0.104957,0.077966,0.0,1.0,2633.495117, set /systems/vacuum/serviceable false, fly_strait
88.104042,-58.748928,-57.555485,5.397782,0.215859,5.397782,0.215859,-59.999859,-60.0,41.29977,52.993481,604.025024,295.95575,283.925262,0.107615,0.035353,502.391724,-0.001805,0.106734,0.073013,0.0,1.0,2634.446045, set /systems/vacuum/serviceable false, fly_strait
88.376579,-56.19162,-54.998173,5.475329,0.3231,5.475329,0.3231,-59.999859,-60.0,44.288422,53.570797,624.810974,295.935852,283.563873,0.112385,0.029386,522.73053,-0.003084,0.107956,0.071516,0.0,1.0,2635.795654, set /systems/vacuum/serviceable false, fly_strait
88.571404,-54.304077,-53.110634,5.532137,0.360984,5.532137,0.360984,-49.999859,-50.0,46.483967,53.976765,639.293152,295.888458,283.302063,0.112053,0.019689,537.13739,-0.004616,0.109507,0.072511,0.0,1.0,2636.737305, set /systems/vacuum/serviceable false, fly_strait
88.843933,-51.496853,-50.30341,5.608816,0.337273,5.608816,0.337273,-49.999859,-50.0,49.733429,54.552036,659.782166,295.81488,282.922058,0.106951,0.005209,557.786011,-0.005157,0.110643,0.074881,0.0,1.0,2638.06543, set /systems/vacuum/serviceable false, fly_strait
89.019318,-49.56752,-48.374073,5.665697,0.28266,5.665697,0.28266,-49.999859,-50.0,51.95602,54.929482,673.293335,295.786499,282.668213,0.102153,-6.75E-4,571.463013,-0.004818,0.112176,0.07856,0.0,1.0,2638.933838, set /systems/vacuum/serviceable false, fly_strait
89.266541,-46.672241,-45.478798,5.745732,0.186692,5.745732,0.186692,-49.999859,-50.0,55.278603,55.47123,693.100342,295.80188,282.300079,0.095529,4.75E-4,591.226746,-0.004038,0.113314,0.079979,0.0,1.0,2640.174561, set /systems/vacuum/serviceable false, fly_strait
89.425552,-44.631424,-43.437981,5.806101,0.135218,5.806101,0.135218,-39.999859,-40.0,57.612438,55.836735,706.743042,295.850769,282.050964,0.093497,0.00751,604.666504,-0.002667,0.114915,0.07921,0.0,1.0,2641.005859, set /systems/vacuum/serviceable false, fly_strait
89.663269,-41.398056,-40.204613,5.894134,0.119171,5.894134,0.119171,-39.999859,-40.0,61.300549,56.390583,727.996521,295.957062,281.675995,0.094979,0.023012,625.152771,-0.001932,0.116122,0.076765,0.0,1.0,2642.251953, set /systems/vacuum/serviceable false, fly_strait
89.797607,-39.333313,-38.13987,5.951505,0.148338,5.951505,0.148338,-39.999859,-40.0,63.64793,56.72892,741.175476,296.020599,281.450439,0.098188,0.031757,637.949951,-0.001702,0.117883,0.071451,0.0,1.0,2643.003174, set /systems/vacuum/serviceable false, fly_strait
90.011856,-35.926701,-34.733253,6.030742,0.235372,6.030742,0.235372,-39.999859,-40.0,67.512115,57.26355,761.939087,296.07608,281.102875,0.104266,0.037407,658.329834,-0.002119,0.11903,0.068274,0.0,1.0,2644.175049, set /systems/vacuum/serviceable false, fly_strait
90.144859,-33.660522,-32.467079,6.082271,0.292646,6.082271,0.292646,-29.999857,-30.0,70.074303,57.603973,774.850037,296.073425,280.888733,0.10677,0.034506,671.49176,-0.003362,0.120615,0.0655,0.0,1.0,2644.91333, set /systems/vacuum/serviceable false, fly_strait
90.335503,-30.277229,-29.083784,6.145792,0.333016,6.145792,0.333016,-29.999857,-30.0,73.886421,58.091507,792.773438,296.024902,280.593689,0.10662,0.022914,690.537537,-0.004181,0.121645,0.065633,0.0,1.0,2645.9646, set /systems/vacuum/serviceable false, fly_strait
90.469322,-27.804585,-26.611141,6.192801,0.320507,6.192801,0.320507,-29.999857,-30.0,76.660858,58.433353,804.820496,295.977692,280.395905,0.103683,0.012927,703.995117,-0.004757,0.122916,0.068059,0.0,1.0,2646.699951, set /systems/vacuum/serviceable false, fly_strait
90.655823,-24.16643,-22.972984,6.256001,0.247076,6.256001,0.247076,-19.999857,-20.0,80.728455,58.916378,821.593811,295.933746,280.130554,0.096529,0.003164,722.912842,-0.004579,0.123856,0.070419,0.0,1.0,2647.739014, set /systems/vacuum/serviceable false, fly_strait
90.779198,-21.691162,-20.497719,6.300887,0.181685,6.300887,0.181685,-19.999857,-20.0,83.485901,59.232403,832.461853,295.936249,279.966827,0.091963,0.002218,735.243286,-0.00353,0.12512,0.072617,0.0,1.0,2648.418701, set /systems/vacuum/serviceable false, fly_strait
90.952812,-17.901737,-16.708292,6.364719,0.105173,6.364719,0.105173,-19.999857,-20.0,87.689674,59.697491,848.517029,295.992523,279.742004,0.087941,0.009676,753.586426,-0.002596,0.126018,0.072491,0.0,1.0,2649.415527, set /systems/vacuum/serviceable false, fly_strait
91.063263,-15.328242,-14.134798,6.410998,0.085113,6.410998,0.085113,-19.999857,-20.0,90.536453,60.001583,859.168152,296.052887,279.606628,0.088204,0.018202,765.473816,-0.001502,0.127294,0.069678,0.0,1.0,2650.062988, set /systems/vacuum/serviceable false, fly_strait
91.217407,-11.397921,-10.204476,6.473734,0.114557,6.473734,0.114557,-9.999858,-10.0,94.873238,60.448746,874.998352,296.138214,279.426514,0.091991,0.029659,782.926147,-0.001216,0.12822,0.06666,0.0,1.0,2651.003418, set /systems/vacuum/serviceable false, fly_strait
91.309914,-8.844559,-7.651114,6.514123,0.158126,6.514123,0.158126,-9.999858,-10.0,97.684792,60.728794,884.87793,296.172302,279.326141,0.09537,0.033275,793.793213,-0.001637,0.129475,0.062393,0.0,1.0,2651.573975, set /systems/vacuum/serviceable false, fly_strait
91.457375,-4.668495,-3.47505,6.568167,0.229674,6.568167,0.229674,1.42E-4,0.0,102.27269,61.170116,900.0401,296.173309,279.188568,0.098998,0.029884,810.926392,-0.002259,0.130282,0.060689,0.0,1.0,2652.447754, set /systems/vacuum/serviceable false, fly_strait
91.552055,-1.915619,-0.722174,6.603473,0.256005,6.603473,0.256005,1.42E-4,0.0,105.288887,61.450397,909.295227,296.144165,279.114563,0.098932,0.022883,821.796387,-0.003281,0.131363,0.060638,0.0,1.0,2652.992188, set /systems/vacuum/serviceable false, fly_strait
91.688538,2.324845,3.518289,6.647633,0.241298,6.647633,0.241298,1.42E-4,0.0,109.741463,61.850845,922.064209,296.087677,279.026642,0.094992,0.010734,837.34137,-0.003657,0.132069,0.062096,0.0,1.0,2653.762695, set /systems/vacuum/serviceable false, fly_strait
91.784813,5.421402,6.614847,6.680553,0.197141,6.680553,0.197141,10.000142,10.0,112.958572,62.130962,930.661804,296.057861,278.977417,0.090813,0.0042,848.006958,-0.003447,0.132953,0.06492,0.0,1.0,2654.299805, set /systems/vacuum/serviceable false, fly_strait
91.920792,9.947334,11.140779,6.725531,0.11306,6.725531,0.11306,10.000142,10.0,117.643013,62.525806,942.681763,296.058624,278.924896,0.084414,0.002538,863.256287,-0.002816,0.133611,0.066411,0.0,1.0,2655.054688, set /systems/vacuum/serviceable false, fly_strait
91.989456,12.875992,14.069436,6.757334,0.066451,6.757334,0.066451,10.000142,10.0,120.666878,62.772858,950.211853,296.088715,278.9021,0.081951,0.006433,872.686218,-0.001615,0.134511,0.066373,0.0,1.0,2655.522705, set /systems/vacuum/serviceable false, fly_strait
92.069077,17.513788,18.707233,6.80469,0.035995,6.80469,0.035995,20.000143,20.0,125.447342,63.151432,961.541687,296.164856,278.882477,0.081416,0.017163,886.843872,-9.49E-4,0.135147,0.064868,0.0,1.0,2656.19458, set /systems/vacuum/serviceable false, fly_strait
92.113968,20.6415,21.834944,6.837348,0.045564,6.837348,0.045564,20.000143,20.0,128.6651,63.39835,968.832764,296.219666,278.879852,0.083011,0.024601,895.950867,-5.14E-4,0.136094,0.061061,0.0,1.0,2656.605469, set /systems/vacuum/serviceable false, fly_strait
92.183907,25.387709,26.581154,6.876597,0.094593,6.876597,0.094593,30.000143,30.0,133.536407,63.760578,979.202881,296.274719,278.890747,0.087051,0.030669,909.299438,-6.51E-4,0.136747,0.058321,0.0,1.0,2657.177979, set /systems/vacuum/serviceable false, fly_strait
92.227753,28.719288,29.912733,6.901232,0.133983,6.901232,0.133983,30.000143,30.0,136.948273,64.006447,985.737732,296.284058,278.907959,0.088954,0.029868,918.238953,-0.001351,0.137532,0.055568,0.0,1.0,2657.55127, set /systems/vacuum/serviceable false, fly_strait
92.291901,33.429565,34.623009,6.928137,0.162737,6.928137,0.162737,30.000143,30.0,141.76123,64.342995,994.004517,296.259338,278.943542,0.089162,0.022393,930.262817,-0.001914,0.138025,0.055101,0.0,1.0,2658.050049, set /systems/vacuum/serviceable false, fly_strait
92.337257,36.689041,37.882484,6.945705,0.154024,6.945705,0.154024,40.000141,40.0,145.083405,64.568718,999.051941,296.229248,278.974518,0.086988,0.015298,938.170837,-0.002325,0.138563,0.056337,0.0,1.0,2658.380859, set /systems/vacuum/serviceable false, fly_strait
92.411804,41.75774,42.951187,6.970214,0.094471,6.970214,0.094471,40.000141,40.0,150.236679,64.908882,1006.221619,296.194855,279.030487,0.081289,0.006806,949.770264,-0.0022,0.138914,0.057841,0.0,1.0,2658.878418, set /systems/vacuum/serviceable false, fly_strait
92.451889,44.934536,46.127983,6.986792,0.041494,6.986792,0.041494,40.000141,40.0,153.458023,65.115654,1010.442261,296.193726,279.069183,0.077332,0.005117,956.681152,-0.00135,0.139404,0.059561,0.0,1.0,2659.181641, set /systems/vacuum/serviceable false, fly_strait
92.523468,50.08112,51.274563,7.012869,-0.032892,7.012869,-0.032892,50.000141,50.0,158.668198,65.440895,1017.090942,296.232635,279.136292,0.073264,0.009383,967.118896,-5.93E-4,0.139736,0.059618,0.0,1.0,2659.659424, set /systems/vacuum/serviceable false, fly_strait
92.561279,53.44297,54.636414,7.031958,-0.060211,7.031958,-0.060211,50.000141,50.0,162.065979,65.647041,1021.426636,296.277069,279.182373,0.072809,0.01521,973.540649,4.7E-4,0.140257,0.057672,0.0,1.0,2659.96167, set /systems/vacuum/serviceable false, fly_strait
92.619629,58.517952,59.711395,7.057903,-0.05521,7.057903,-0.05521,60.000141,60.0,167.189896,65.949203,1027.923706,296.342865,279.254395,0.074905,0.023567,982.662537,8.6E-4,0.140639,0.05545,0.0,1.0,2660.401855, set /systems/vacuum/serviceable false, fly_strait
92.656021,61.922688,63.116131,7.075116,-0.030608,7.075116,-0.030608,60.000141,60.0,170.623627,66.145981,1032.162354,296.371857,279.303802,0.077027,0.026463,988.481995,7.89E-4,0.141158,0.052161,0.0,1.0,2660.686279, set /systems/vacuum/serviceable false, fly_strait
92.709274,67.060471,68.253922,7.09512,0.011666,7.09512,0.011666,70.000145,70.0,175.800186,66.434258,1038.174072,296.376282,279.378784,0.079601,0.024159,996.842529,4.37E-4,0.141502,0.050711,0.0,1.0,2661.101318, set /systems/vacuum/serviceable false, fly_strait
92.747658,70.502411,71.695862,7.107405,0.026743,7.107405,0.026743,70.000145,70.0,179.267136,66.621933,1041.827637,296.356232,279.428436,0.079459,0.018935,1002.023071,-1.67E-4,0.141902,0.05049,0.0,1.0,2661.37207, set /systems/vacuum/serviceable false, fly_strait
92.803528,75.697113,76.890556,7.122702,0.009576,7.122702,0.009576,80.000145,80.0,184.489456,66.896858,1046.858398,296.313232,279.500671,0.076286,0.009313,1009.709656,-3.82E-4,0.142148,0.051492,0.0,1.0,2661.772705, set /systems/vacuum/serviceable false, fly_strait
92.838081,79.178291,80.371742,7.133544,-0.02619,7.133544,-0.02619,80.000145,80.0,187.98439,67.075867,1049.96936,296.291107,279.546387,0.07289,0.0043,1014.632141,-1.37E-4,0.142454,0.053642,0.0,1.0,2662.037354, set /systems/vacuum/serviceable false, fly_strait
92.892059,84.276611,85.470062,7.149415,-0.093606,7.149415,-0.093606,80.000145,80.0,193.099518,67.330917,1054.389038,296.289246,279.608307,0.067606,0.002451,1021.358643,3.74E-4,0.142671,0.054749,0.0,1.0,2662.420166, set /systems/vacuum/serviceable false, fly_strait
92.92878,87.934708,89.128151,7.163074,-0.136713,7.163074,-0.136713,90.000145,90.0,196.766281,67.508827,1057.572998,296.312439,279.648621,0.065432,0.005268,1025.949219,0.001337,0.142988,0.054842,0.0,1.0,2662.69043, set /systems/vacuum/serviceable false, fly_strait
92.978371,93.22477,94.418213,7.182849,-0.163783,7.182849,-0.163783,90.000145,90.0,202.06633,67.758812,1062.324951,296.36734,279.700562,0.065153,0.012857,1032.23938,0.001953,0.143261,0.053682,0.0,1.0,2663.071777, set /systems/vacuum/serviceable false, fly_strait
93.00946,96.617241,97.810684,7.196327,-0.157507,7.196327,-0.157507,100.000145,100.0,205.464966,67.914734,1065.415039,296.403198,279.729919,0.066537,0.01766,1036.04126,0.00234,0.143657,0.050937,0.0,1.0,2663.309814, set /systems/vacuum/serviceable false, fly_strait
93.050331,101.949326,103.142769,7.213761,-0.120105,7.213761,-0.120105,100.000145,100.0,210.804443,68.152901,1070.185425,296.435394,279.769745,0.069852,0.020948,1041.856812,0.00225,0.143927,0.049144,0.0,1.0,2663.672363, set /systems/vacuum/serviceable false, fly_strait
93.080803,105.665764,106.859207,7.224732,-0.090348,7.224732,-0.090348,110.000145,110.0,214.526001,68.314125,1073.299194,296.434235,279.792816,0.071296,0.01928,1045.704956,0.001716,0.144275,0.047534,0.0,1.0,2663.917969, set /systems/vacuum/serviceable false, fly_strait
93.12426,111.038536,112.231979,7.23654,-0.070459,7.23654,-0.070459,110.000145,110.0,219.903259,68.540428,1077.391968,296.403687,279.818878,0.071112,0.012191,1051.10791,0.001291,0.144495,0.047592,0.0,1.0,2664.265381, set /systems/vacuum/serviceable false, fly_strait
93.150055,114.633873,115.827316,7.244136,-0.079542,7.244136,-0.079542,110.000145,110.0,223.498856,68.687546,1079.85376,296.375641,279.831116,0.069238,0.006435,1054.630981,0.001007,0.144731,0.04912,0.0,1.0,2664.494629, set /systems/vacuum/serviceable false, fly_strait
93.197212,120.044571,121.238014,7.255001,-0.124758,7.255001,-0.124758,120.000145,120.0,228.907135,68.902771,1083.315063,296.347717,279.841339,0.064675,5.63E-4,1059.68103,0.001136,0.144883,0.050522,0.0,1.0,2664.83667, set /systems/vacuum/serviceable false, fly_strait
93.222725,123.663864,124.857307,7.263843,-0.164509,7.263843,-0.164509,120.000145,120.0,232.522095,69.042702,1085.583862,296.347748,279.84259,0.061873,-7.9E-5,1062.953369,0.001782,0.1451,0.051918,0.0,1.0,2665.063477, set /systems/vacuum/serviceable false, fly_strait
93.263153,129.109802,130.303238,7.278166,-0.210811,7.278166,-0.210811,130.000137,130.0,237.958984,69.247353,1089.093384,296.378143,279.836426,0.059427,0.004145,1067.679199,0.00235,0.145277,0.051916,0.0,1.0,2665.399902, set /systems/vacuum/serviceable false, fly_strait
93.291084,132.749466,133.942902,7.289255,-0.223151,7.289255,-0.223151,130.000137,130.0,241.593491,69.380325,1091.542725,296.411102,279.827301,0.059547,0.008955,1070.613525,0.003012,0.145563,0.050397,0.0,1.0,2665.620361, set /systems/vacuum/serviceable false, fly_strait
93.324257,138.073349,139.2668,7.303918,-0.207327,7.303918,-0.207327,140.000137,140.0,246.908768,69.569336,1095.197632,296.454803,279.807617,0.061974,0.015025,1074.821777,0.003188,0.145785,0.048749,0.0,1.0,2665.934326, set /systems/vacuum/serviceable false, fly_strait
93.346626,141.733887,142.927338,7.313432,-0.181438,7.313432,-0.181438,140.000137,140.0,250.563675,69.695602,1097.649414,296.471069,279.790161,0.064027,0.016766,1077.609009,0.002962,0.146078,0.046564,0.0,1.0,2666.144531, set /systems/vacuum/serviceable false, fly_strait
93.374611,147.242661,148.436111,7.324228,-0.142773,7.324228,-0.142773,150.000137,150.0,256.060974,69.87999,1101.105103,296.464722,279.758423,0.066031,0.014167,1081.829224,0.002592,0.146269,0.04575,0.0,1.0,2666.453125, set /systems/vacuum/serviceable false, fly_strait
93.399742,151.078644,152.272095,7.330657,-0.129408,7.330657,-0.129408,150.000137,150.0,259.888184,70.004585,1103.264404,296.442871,279.732697,0.065779,0.009583,1084.662842,0.00204,0.146485,0.046068,0.0,1.0,2666.664063, set /systems/vacuum/serviceable false, fly_strait
93.430672,156.618042,157.811493,7.338171,-0.143497,7.338171,-0.143497,160.000137,160.0,265.411835,70.179161,1106.060059,296.406006,279.690399,0.063163,0.002363,1088.668335,0.001849,0.146613,0.04716,0.0,1.0,2666.965576, set /systems/vacuum/serviceable false, fly_strait
93.456482,160.163818,161.357269,7.343543,-0.169552,7.343543,-0.169552,160.000137,160.0,268.947845,70.287788,1107.7146,296.390289,279.660309,0.060545,-7.39E-4,1091.032104,0.00205,0.146763,0.049004,0.0,1.0,2667.157471, set /systems/vacuum/serviceable false, fly_strait
93.486809,165.883163,167.076599,7.353307,-0.219875,7.353307,-0.219875,170.000137,170.0,274.647278,70.457909,1110.369263,296.39328,279.607391,0.057006,-7.71E-4,1094.821777,0.002422,0.146871,0.049789,0.0,1.0,2667.464844, set /systems/vacuum/serviceable false, fly_strait
93.510445,169.600525,170.793976,7.361412,-0.245437,7.361412,-0.245437,170.000137,170.0,278.351593,70.565247,1112.180054,296.413361,279.570587,0.055957,0.002215,1097.137207,0.003141,0.147066,0.04964,0.0,1.0,2667.662354, set /systems/vacuum/serviceable false, fly_strait
93.538414,175.189194,176.382645,7.373537,-0.254024,7.373537,-0.254024,170.000137,170.0,283.9198,70.72187,1115.036987,296.455627,279.512787,0.056697,0.008608,1100.531616,0.003506,0.147228,0.048636,0.0,1.0,2667.953613, set /systems/vacuum/serviceable false, fly_strait
93.552002,178.767517,179.960968,7.38163,-0.241479,7.38163,-0.241479,180.000137,180.0,287.484833,70.819199,1116.909546,296.480011,279.474884,0.058359,0.012089,1102.657104,0.003629,0.147471,0.046523,0.0,1.0,2668.135742, set /systems/vacuum/serviceable false, fly_strait
93.578957,184.379181,185.572632,7.391716,-0.205083,7.391716,-0.205083,180.000137,180.0,293.076813,70.9673,1119.772949,296.496033,279.414886,0.061152,0.013659,1105.856323,0.00345,0.147633,0.045303,0.0,1.0,2668.414551, set /systems/vacuum/serviceable false, fly_strait
93.595879,188.284378,189.477814,7.39763,-0.180687,7.39763,-0.180687,190.000137,190.0,296.968262,71.067154,1121.609497,296.488495,279.37323,0.062176,0.011625,1108.026245,0.00293,0.147834,0.044502,0.0,1.0,2668.604248, set /systems/vacuum/serviceable false, fly_strait
93.62027,193.919296,195.112747,7.403567,-0.168038,7.403567,-0.168038,190.000137,190.0,302.58252,71.206764,1123.961426,296.458649,279.313568,0.061687,0.005655,1111.080688,0.002581,0.147953,0.044879,0.0,1.0,2668.874268, set /systems/vacuum/serviceable false, fly_strait
93.64267,199.410934,200.604385,7.409057,-0.187185,7.409057,-0.187185,200.000137,200.0,308.051239,71.337898,1125.952515,296.42804,279.256256,0.058952,-9.1E-5,1114.006348,0.002401,0.148071,0.046371,0.0,1.0,2669.135254, set /systems/vacuum/serviceable false, fly_strait
93.663628,203.339905,204.53334,7.413295,-0.214956,7.413295,-0.214956,200.000137,200.0,311.963257,71.428879,1127.300781,296.418457,279.215942,0.056579,-0.001966,1115.987671,0.002533,0.148143,0.047452,0.0,1.0,2669.321533, set /systems/vacuum/serviceable false, fly_strait
93.680634,207.117661,208.311111,7.418635,-0.244043,7.418635,-0.244043,210.000137,210.0,315.723175,71.51416,1128.619629,296.422607,279.177979,0.054731,-0.00149,1117.872437,0.003071,0.148266,0.048381,0.0,1.0,2669.499756, set /systems/vacuum/serviceable false, fly_strait
93.700737,212.635162,213.828613,7.427377,-0.272041,7.427377,-0.272041,210.000137,210.0,321.214569,71.634949,1130.664551,296.449738,279.12442,0.053625,0.002742,1120.496582,0.003486,0.148373,0.048174,0.0,1.0,2669.757324, set /systems/vacuum/serviceable false, fly_strait
93.724464,218.319962,219.513397,7.437617,-0.271329,7.437617,-0.271329,220.000137,220.0,326.873627,71.754822,1132.931152,296.487732,279.072571,0.054932,0.008542,1123.036865,0.003886,0.148548,0.046817,0.0,1.0,2670.017334, set /systems/vacuum/serviceable false, fly_strait
93.733772,222.275345,223.468781,7.443645,-0.253307,7.443645,-0.253307,220.000137,220.0,330.810333,71.835472,1134.523804,296.5065,279.039032,0.056751,0.011148,1124.828369,0.00393,0.148692,0.045473,0.0,1.0,2670.193848, set /systems/vacuum/serviceable false, fly_strait
93.746078,226.076797,227.270248,7.448952,-0.229768,7.448952,-0.229768,230.000137,230.0,334.594635,71.910934,1135.995483,296.513,279.008972,0.058401,0.01166,1126.482788,0.003619,0.148873,0.043979,0.0,1.0,2670.36084, set /systems/vacuum/serviceable false, fly_strait
93.764267,231.787537,232.980988,7.454337,-0.201135,7.454337,-0.201135,230.000137,230.0,340.279877,72.020561,1137.992432,296.498962,278.968048,0.059648,0.008432,1128.894043,0.003282,0.148979,0.043654,0.0,1.0,2670.606934, set /systems/vacuum/serviceable false, fly_strait
93.782524,237.348953,238.542404,7.458353,-0.197023,7.458353,-0.197023,240.000137,240.0,345.81601,72.123184,1139.642456,296.469482,278.932983,0.058491,0.002867,1131.157471,0.002873,0.149087,0.044356,0.0,1.0,2670.84375, set /systems/vacuum/serviceable false, fly_strait
93.79644,241.327576,242.521027,7.460894,-0.211943,7.460894,-0.211943,240.000137,240.0,349.775024,72.194168,1140.690674,296.451111,278.910645,0.056668,-5.06E-4,1132.761475,0.002785,0.149142,0.045305,0.0,1.0,2671.012939, set /systems/vacuum/serviceable false, fly_strait
93.809883,245.150665,246.344116,7.464085,-0.235338,7.464083,-0.235345,240.000137,240.0,353.578979,72.260551,1141.662231,296.441986,278.891266,0.054717,-0.002209,1134.232056,0.003028,0.149218,0.046748,0.0,1.0,2671.175049, set /systems/vacuum/serviceable false, fly_strait
93.833176,250.891068,252.084518,7.470067,-0.271218,7.470003,-0.27143,250.000137,250.0,359.291138,72.356941,1143.171753,296.451111,278.866028,0.052396,-8.37E-4,1136.289429,0.003362,0.149282,0.047205,0.0,1.0,2671.417725, set /systems/vacuum/serviceable false, turn_+45
93.843964,256.480774,257.674225,7.478686,-0.309056,7.478482,-0.309736,260.000153,260.0,364.852234,72.447044,1144.801392,296.535889,278.84613,0.042105,0.013651,1138.266479,0.001292,0.1494,0.1,0.0,1.0,2671.650635, set /systems/vacuum/serviceable false, turn_+45
93.846619,260.478729,261.67218,7.492178,-0.323954,7.491825,-0.325132,260.000153,260.0,368.829712,72.509163,1146.25769,296.751038,278.835449,0.040835,0.047893,1139.669189,0.001381,0.1495,0.1,0.0,1.0,2671.809082, set /systems/vacuum/serviceable false, turn_+45
93.832619,264.160736,265.354187,7.513022,-0.254534,7.512496,-0.256289,260.000153,260.0,372.494537,72.564545,1148.303955,297.021423,278.829651,0.050267,0.089375,1140.953491,0.001543,0.149836,0.1,0.0,1.0,2671.94043, set /systems/vacuum/serviceable false, turn_+45
93.792923,269.930359,271.12381,7.546507,0.061435,7.54564,0.058546,270.000153,270.0,378.247345,72.647461,1152.900024,297.461548,278.831482,0.079013,0.153003,1142.903809,0.001212,0.15025,0.1,0.0,1.0,2672.103271, set /systems/vacuum/serviceable false, turn_+45
93.754478,273.77887,274.97229,7.562348,0.393007,7.561207,0.389206,270.000153,270.0,382.096252,72.699974,1156.32959,297.699432,278.841949,0.10229,0.183712,1144.056641,-2.93E-4,0.150913,0.1,0.0,1.0,2672.179199, set /systems/vacuum/serviceable false, turn_+45
93.695107,279.574005,280.767456,7.565876,0.971333,7.564255,0.965929,280.000153,280.0,387.889587,72.774406,1160.552002,297.912262,278.873138,0.133899,0.203097,1146.559692,-0.001871,0.151224,0.1,0.0,1.0,2672.254639, set /systems/vacuum/serviceable false, turn_+45
93.651527,285.545319,286.738739,7.556838,1.537578,7.554635,1.530233,280.000153,280.0,393.859985,72.845573,1162.648926,297.95929,278.924133,0.153134,0.192967,1149.261841,-0.004625,0.151285,0.1,0.0,1.0,2672.306641, set /systems/vacuum/serviceable false, turn_+45
93.624817,289.427704,290.621155,7.550086,1.825832,7.547457,1.81707,290.000153,290.0,397.736115,72.889038,1162.89856,297.933167,278.966217,0.157284,0.176721,1151.117188,-0.006508,0.151165,0.1,0.0,1.0,2672.338867, set /systems/vacuum/serviceable false, turn_+45
93.600067,295.258698,296.452148,7.54104,2.114472,7.537704,2.103349,290.000153,290.0,403.548981,72.95063,1162.076172,297.886047,279.040131,0.152628,0.151334,1153.724487,-0.008694,0.150949,0.1,0.0,1.0,2672.397217, set /systems/vacuum/serviceable false, turn_+45
93.591949,299.15036,300.343811,7.536259,2.215334,7.532403,2.202481,300.000153,300.0,407.420868,72.989502,1161.072876,297.888458,279.095215,0.145206,0.140031,1155.325928,-0.009672,0.150817,0.1,0.0,1.0,2672.445557, set /systems/vacuum/serviceable false, turn_+45
93.574753,304.992554,306.186005,7.52891,2.282288,7.524205,2.266606,300.000153,300.0,413.221802,73.044815,1159.335327,297.983002,279.18512,0.133279,0.137742,1157.492676,-0.010549,0.150648,0.1,0.0,1.0,2672.53125, set /systems/vacuum/serviceable false, turn_+45
93.565758,308.725647,309.919098,7.525356,2.303411,7.520065,2.285774,310.000153,310.0,416.923492,73.078377,1158.324463,298.104523,279.24704,0.127546,0.145666,1158.639404,-0.010791,0.15054,0.1,0.0,1.0,2672.591797, set /systems/vacuum/serviceable false, turn_+45
93.547913,314.566437,315.759888,7.521536,2.35718,7.515258,2.336252,310.000153,310.0,422.711975,73.128181,1157.208984,298.36969,279.351624,0.124892,0.168687,1159.989258,-0.010969,0.150401,0.1,0.0,1.0,2672.688965, set /systems/vacuum/serviceable false, turn_+45
93.532013,318.621735,319.815186,7.520327,2.43037,7.513313,2.406992,320.000153,320.0,426.729309,73.160797,1156.838257,298.58374,279.430603,0.127128,0.18806,1160.710327,-0.011225,0.150305,0.1,0.0,1.0,2672.753662, set /systems/vacuum/serviceable false, turn_+45
93.504715,324.297241,325.490692,7.51976,2.588792,7.511649,2.561755,320.000153,320.0,432.352539,73.203705,1156.783447,298.884888,279.5513,0.134669,0.213143,1161.446777,-0.011573,0.150266,0.1,0.0,1.0,2672.836182, set /systems/vacuum/serviceable false, turn_+45
93.486282,328.349579,329.54303,7.518783,2.733453,7.509839,2.703641,330.000153,330.0,436.369324,73.232361,1156.890137,299.081787,279.645386,0.140787,0.226587,1161.803345,-0.012328,0.150233,0.1,0.0,1.0,2672.888428, set /systems/vacuum/serviceable false, turn_+45
93.454086,334.021606,335.215057,7.515975,2.949553,7.505797,2.915626,330.000153,330.0,441.993195,73.269707,1156.880981,299.318237,279.788605,0.148763,0.237214,1162.174683,-0.013016,0.150197,0.1,0.0,1.0,2672.954834, set /systems/vacuum/serviceable false, turn_+45
93.438957,338.070618,339.264038,7.512942,3.096052,7.501834,3.059024,340.000153,340.0,446.009735,73.294464,1156.608154,299.461243,279.898987,0.152114,0.239639,1162.281494,-0.014045,0.150116,0.1,0.0,1.0,2673.0, set /systems/vacuum/serviceable false, turn_+45
93.413849,343.902191,345.095612,7.508147,3.268546,7.495627,3.226814,340.000153,340.0,451.790833,73.327438,1155.771606,299.645599,280.069092,0.153591,0.238577,1162.483521,-0.014743,0.150037,0.1,0.0,1.0,2673.06665, set /systems/vacuum/serviceable false, turn_+45
93.397408,347.788727,348.982178,7.504688,3.352912,7.49118,3.307887,350.000153,350.0,455.642029,73.347763,1154.961304,299.767181,280.189301,0.152551,0.237158,1162.556641,-0.01532,0.149954,0.1,0.0,1.0,2673.114258, set /systems/vacuum/serviceable false, turn_+45
93.381226,353.611176,354.804596,7.498626,3.439705,7.483566,3.389507,350.000153,350.0,461.413116,73.375954,1153.4729,299.966644,280.378906,0.149241,0.237211,1162.320679,-0.015966,0.149824,0.1,0.0,1.0,2673.191406, set /systems/vacuum/serviceable false, turn_+45
93.372765,357.490967,358.684418,7.4948,3.477615,7.478659,3.423811,360.000153,360.0,465.256195,73.393288,1152.420654,300.117859,280.511139,0.146851,0.239734,1162.124146,-0.016254,0.149726,0.1,0.0,1.0,2673.246826, set /systems/vacuum/serviceable false, turn_+45
93.358879,363.143768,364.337219,7.489156,3.52229,7.47137,3.463005,360.000153,360.0,470.854492,73.416588,1150.945435,300.366608,280.712036,0.14431,0.247195,1161.66272,-0.01656,0.149573,0.1,0.0,1.0,2673.332031, set /systems/vacuum/serviceable false, turn_+45
93.347504,367.177063,368.370514,7.485567,3.555923,7.466558,3.49256,370.000153,370.0,474.849121,73.431831,1150.013428,300.561035,280.861328,0.143748,0.254542,1161.204468,-0.016773,0.149427,0.1,0.0,1.0,2673.394531, set /systems/vacuum/serviceable false, turn_+45
93.327499,372.819641,374.013092,7.481913,3.614748,7.461123,3.545449,370.000153,370.0,480.436707,73.451271,1148.955688,300.846039,281.07843,0.144675,0.265796,1160.529541,-0.016933,0.149331,0.1,0.0,1.0,2673.482422, set /systems/vacuum/serviceable false, turn_+45
93.318062,376.846283,378.039734,7.479477,3.667294,7.457366,3.59359,380.000153,380.0,484.425018,73.463814,1148.341675,301.051331,281.239258,0.146145,0.273322,1159.981079,-0.017213,0.149222,0.1,0.0,1.0,2673.544678, set /systems/vacuum/serviceable false, turn_+45
93.297966,382.640778,383.834229,7.476469,3.754534,7.452384,3.674251,380.000153,380.0,490.164673,73.47995,1147.558472,301.34024,281.479156,0.148796,0.281957,1159.197266,-0.017463,0.149147,0.1,0.0,1.0,2673.633301, set /systems/vacuum/serviceable false, turn_+45
93.285767,386.50058,387.694031,7.474758,3.813978,7.44931,3.729152,390.000153,390.0,493.988983,73.489479,1147.056152,301.525879,281.644318,0.150391,0.285943,1158.646973,-0.017735,0.149079,0.1,0.0,1.0,2673.691895, set /systems/vacuum/serviceable false, turn_+45
93.269424,392.284485,393.477936,7.471777,3.898188,7.444215,3.806314,390.000153,390.0,499.722168,73.501999,1146.219238,301.794586,281.899261,0.151929,0.289574,1157.737427,-0.018162,0.148986,0.1,0.0,1.0,2673.780029, set /systems/vacuum/serviceable false, turn_+45
93.25885,396.138275,397.331726,7.469923,3.946253,7.440904,3.849524,400.000153,400.0,503.54184,73.509216,1145.595459,301.969879,282.073578,0.152285,0.290931,1157.169189,-0.018436,0.148918,0.1,0.0,1.0,2673.839844, set /systems/vacuum/serviceable false, turn_+45
93.24041,401.915649,403.1091,7.466728,4.004621,7.435455,3.900375,400.000153,400.0,509.267212,73.518433,1144.559204,302.233032,282.340851,0.151949,0.292497,1156.365723,-0.018792,0.148818,0.1,0.0,1.0,2673.932373, set /systems/vacuum/serviceable false, turn_+45
93.229675,405.764282,406.957733,7.464828,4.034166,7.432004,3.924753,410.000153,410.0,513.081116,73.52356,1143.828613,302.411926,282.5224,0.15136,0.29377,1155.816162,-0.018986,0.148745,0.1,0.0,1.0,2673.99585, set /systems/vacuum/serviceable false, turn_+45
