airspeed_indicator_indicated_speed_kt,altimeter_indicated_altitude_ft,altimeter_pressure_alt_ft,attitude_indicator_indicated_pitch_deg,attitude_indicator_indicated_roll_deg,attitude_indicator_internal_pitch_deg,attitude_indicator_internal_roll_deg,encoder_indicated_altitude_ft,encoder_pressure_alt_ft,gps_indicated_altitude_ft,gps_indicated_ground_speed_kt,gps_indicated_vertical_speed,indicated_heading_deg,magnetic_compass_indicated_heading_deg,slip_skid_ball_indicated_slip_skid,turn_indicator_indicated_turn_rate,vertical_speed_indicator_indicated_speed_fpm,flight_aileron,flight_elevator,flight_rudder,flight_flaps,engine_throttle,engine_rpm
6.524524,-87.981285,-86.787834,2.968555,1.351556,2.590953,0.092884,-89.999855,-90.0,2.286515,0.0,0.007704,297.867218,277.956146,0.012365,-0.046169,-10.705199,-0.0,0.0,0.0,0.0,0.0,600.211731
6.584914,-87.991547,-86.798103,2.974168,1.369174,2.591225,0.0927,-89.999855,-90.0,2.286543,0.0,0.007972,297.866364,280.240845,0.012393,-0.041772,-9.642286,-0.0,0.0,0.0,0.0,0.0,600.246033
6.685746,-88.003632,-86.810181,2.770965,0.71757,2.583291,0.09199,-89.999855,-90.0,2.286546,3.7E-5,-0.010551,297.865051,283.610504,0.012305,-0.035979,-17.46781,-0.01956,0.051824,4.3E-5,0.0,1.0,672.785889
6.757633,-88.009949,-86.816498,2.63424,0.331035,2.56202,0.090299,-89.999855,-90.0,2.286479,1.45E-4,-0.031185,297.864044,285.794952,0.012214,-0.032623,-10.807487,-0.013603,0.051771,8.5E-5,0.0,1.0,784.605652
6.899795,-88.017448,-86.824005,2.509512,0.084407,2.509512,0.084407,-89.999855,-90.0,2.28631,7.5E-4,-0.017753,297.862335,288.942047,0.012191,-0.028292,-9.658731,-0.004729,0.05124,1.59E-4,0.0,1.0,1004.759521
7.046223,-88.021408,-86.827965,2.491765,0.077776,2.491765,0.077776,-89.999855,-90.0,2.286321,0.002354,0.022509,297.861053,290.934875,0.012753,-0.025828,-16.661478,-0.001206,0.05019,2.44E-4,0.0,1.0,1165.380615
7.362641,-88.026085,-86.832642,2.493103,0.064464,2.493103,0.064464,-89.999855,-90.0,2.286593,0.008816,0.08173,297.858582,293.737885,0.014852,-0.022728,-14.552725,-0.001111,0.049835,3.08E-4,0.0,1.0,1401.056641
7.644027,-88.028511,-86.835068,2.503664,0.054089,2.503664,0.054089,-89.999855,-90.0,2.286935,0.01732,0.119514,297.856049,295.467834,0.017199,-0.021092,-13.832398,-9.89E-4,0.049802,3.84E-4,0.0,1.0,1544.555908
8.172031,-88.031296,-86.837845,2.524793,0.03772,2.524793,0.03772,-89.999855,-90.0,2.287683,0.038977,0.174849,297.849884,297.833527,0.021366,-0.019324,-14.909788,-7.73E-4,0.050073,5.58E-4,0.0,1.0,1729.895142
8.589866,-88.032669,-86.839218,2.539797,0.026919,2.539797,0.026919,-89.999855,-90.0,2.288339,0.060771,0.212901,297.843414,299.247711,0.024151,-0.018658,-7.935238,-5.39E-4,0.050496,8.67E-4,0.0,1.0,1831.885742
9.054215,-88.033707,-86.840263,2.554028,0.016704,2.554028,0.016704,-89.999855,-90.0,2.289126,0.089447,0.252359,297.834717,300.524994,0.028533,-0.018405,-14.244572,-3.85E-4,0.050796,0.00119,0.0,1.0,1917.213623
9.054215,-88.033707,-86.840263,2.554028,0.016704,2.554028,0.016704,-89.999855,-90.0,2.289126,0.089447,0.252359,297.834717,300.524994,0.028533,-0.018405,-14.244572,-3.85E-4,0.050796,0.00119,0.0,1.0,1917.213623
10.664187,-88.035423,-86.84198,2.58935,-0.008056,2.58935,-0.008056,-89.999855,-90.0,2.292355,0.223155,0.386813,297.793152,303.49884,0.028842,-0.01997,-9.631423,-2.39E-4,0.051081,0.001625,0.0,1.0,2089.428711
11.254328,-88.035309,-86.841866,2.598843,-0.014116,2.598843,-0.014116,-89.999855,-90.0,2.293735,0.285097,0.436085,297.773468,304.197754,0.028849,-0.021221,-8.788082,1.15E-4,0.051787,0.003703,0.0,1.0,2125.357422
12.172522,-88.034691,-86.841248,2.609085,-0.021492,2.609085,-0.021492,-89.999855,-90.0,2.296114,0.39519,0.513093,297.743927,304.97168,0.028971,-0.022806,2.285442,2.02E-4,0.051977,0.004688,0.0,1.0,2165.023193
12.800964,-88.034012,-86.840569,2.614972,-0.025471,2.614972,-0.025471,-89.999855,-90.0,2.29792,0.4802,0.566352,297.724396,305.30719,0.029129,-0.023689,9.853079,3.07E-4,0.052182,0.006165,0.0,1.0,2184.034668
13.760573,-88.032593,-86.839149,2.622607,-0.030324,2.622607,-0.030324,-89.999855,-90.0,2.300967,0.625203,0.648685,297.698059,305.547119,0.029451,-0.02434,16.954866,3.64E-4,0.052299,0.007141,0.0,1.0,2204.336426
14.381082,-88.031448,-86.838005,2.627079,-0.032762,2.627079,-0.032762,-89.999855,-90.0,2.303133,0.728776,0.702312,297.683563,305.540649,0.029716,-0.024319,9.878435,4.33E-4,0.052452,0.008458,0.0,1.0,2214.243408
15.360684,-88.029289,-86.835846,2.633446,-0.03579,2.633446,-0.03579,-89.999855,-90.0,2.306868,0.907804,0.788096,297.666901,305.293243,0.030341,-0.02331,6.726247,4.68E-4,0.052542,0.009183,0.0,1.0,2226.794678
16.018066,-88.027611,-86.834167,2.637614,-0.03752,2.637614,-0.03752,-89.999855,-90.0,2.309598,1.03847,0.84534,297.660004,304.976501,0.030875,-0.022044,16.460638,5.11E-4,0.052669,0.010016,0.0,1.0,2233.57959
17.008968,-88.024727,-86.831276,2.643631,-0.039929,2.643631,-0.039929,-89.999855,-90.0,2.314054,1.251138,0.932229,297.657043,304.291504,0.031949,-0.019205,17.766699,5.36E-4,0.052752,0.010361,0.0,1.0,2241.959229
17.699606,-88.022469,-86.829025,2.647888,-0.041511,2.647888,-0.041511,-89.999855,-90.0,2.317406,1.410381,0.993493,297.659912,303.680084,0.032984,-0.016697,16.610933,5.7E-4,0.052873,0.010509,0.0,1.0,2246.789551
18.696634,-88.018852,-86.825409,2.653895,-0.043711,2.653895,-0.043711,-89.999855,-90.0,2.322604,1.65597,1.081019,297.670288,302.62616,0.034542,-0.012547,8.698823,5.93E-4,0.052958,0.010365,0.0,1.0,2252.676758
19.362465,-88.016205,-86.822754,2.657999,-0.045111,2.657999,-0.045111,-89.999855,-90.0,2.326315,1.830151,1.140005,297.680664,301.823181,0.035655,-0.009572,9.227021,6.24E-4,0.053078,0.009847,0.0,1.0,2256.057861
20.334465,-88.011993,-86.81855,2.663893,-0.047022,2.663893,-0.047022,-89.999855,-90.0,2.332078,2.098799,1.225152,297.698639,300.530548,0.037166,-0.005307,17.438499,6.44E-4,0.05316,0.009328,0.0,1.0,2260.402588
20.973566,-88.00901,-86.815567,2.667894,-0.048215,2.667894,-0.048215,-89.999855,-90.0,2.336092,2.284589,1.281895,297.71167,299.615295,0.038239,-0.002642,18.907951,6.72E-4,0.053278,0.008429,0.0,1.0,2262.961914
22.029615,-88.0037,-86.810257,2.674445,-0.04994,2.674445,-0.04994,-89.999855,-90.0,2.343119,2.607204,1.37498,297.732758,298.014771,0.03977,0.001154,19.313274,6.89E-4,0.053358,0.007777,0.0,1.0,2266.805664
22.696466,-88.000092,-86.806648,2.678723,-0.050941,2.678723,-0.050941,-89.999855,-90.0,2.347811,2.820777,1.4339,297.745331,296.962006,0.04045,0.003144,12.859982,7.13E-4,0.053489,0.006723,0.0,1.0,2269.041748
23.668493,-87.994499,-86.801048,2.684891,-0.052201,2.684891,-0.052201,-89.999855,-90.0,2.355005,3.145488,1.520219,297.760956,295.391449,0.041054,0.005271,14.911713,7.28E-4,0.053574,0.006094,0.0,1.0,2272.105957
24.306816,-87.990601,-86.79715,2.689081,-0.05299,2.689081,-0.05299,-89.999855,-90.0,2.35996,3.367227,1.576225,297.76947,294.348755,0.041247,0.006235,6.945588,7.46E-4,0.053698,0.005313,0.0,1.0,2274.020264
25.360493,-87.983772,-86.790329,2.69603,-0.054198,2.69603,-0.054198,-89.999855,-90.0,2.368542,3.747698,1.669913,297.780304,292.631378,0.041256,0.007137,16.417418,7.57E-4,0.053782,0.004887,0.0,1.0,2277.054199
25.969831,-87.979599,-86.786156,2.700248,-0.054941,2.700248,-0.054941,-89.999855,-90.0,2.373737,3.975813,1.723607,297.7854,291.651184,0.041136,0.007425,11.530445,7.74E-4,0.053921,0.004346,0.0,1.0,2278.753662
26.993471,-87.972229,-86.778786,2.707298,-0.056248,2.707298,-0.056248,-89.999855,-90.0,2.382845,4.372057,1.814549,297.792969,290.045959,0.040852,0.007697,9.094877,7.85E-4,0.054005,0.004091,0.0,1.0,2281.54248
27.656567,-87.967194,-86.77375,2.712355,-0.057238,2.712355,-0.057238,-89.999855,-90.0,2.389025,4.637314,1.9074,297.798096,289.044342,0.040739,0.007894,8.674983,8.04E-4,0.054146,0.003712,0.0,1.0,2283.315186
28.677549,-87.958984,-86.765541,2.725085,-0.05291,2.725085,-0.05291,-89.999855,-90.0,2.399606,5.05856,2.18726,297.807312,287.578705,0.041014,0.008515,11.923191,8.18E-4,0.054247,0.003456,0.0,1.0,2286.006592
29.337246,-87.953293,-86.75985,2.730671,-0.053582,2.730671,-0.053582,-89.999855,-90.0,2.406991,5.339571,2.241825,297.81485,286.687653,0.04077,0.009036,14.777589,7.56E-4,0.054502,0.002995,0.0,1.0,2287.731689
30.326647,-87.944221,-86.750778,2.737393,-0.055563,2.737393,-0.055563,-89.999855,-90.0,2.418449,5.772202,2.335647,297.829071,285.451935,0.041171,0.010169,7.475349,7.65E-4,0.054613,0.002618,0.0,1.0,2290.297119
30.985203,-87.937836,-86.744392,2.7422,-0.057107,2.7422,-0.057107,-89.999855,-90.0,2.426354,6.067836,2.400328,297.840881,284.701691,0.041793,0.011195,14.581657,7.94E-4,0.054748,0.001907,0.0,1.0,2291.99585
31.944012,-87.928078,-86.734634,2.749363,-0.059358,2.749363,-0.059358,-89.999855,-90.0,2.438269,6.509003,2.49395,297.860504,283.721588,0.042933,0.012886,11.712487,8.16E-4,0.054844,0.001317,0.0,1.0,2294.46167
32.6007,-87.921082,-86.727638,2.754517,-0.060947,2.754517,-0.060947,-89.999855,-90.0,2.446705,6.818213,2.561679,297.875519,283.131653,0.043938,0.014153,19.53923,8.48E-4,0.054987,3.36E-4,0.0,1.0,2296.146484
33.610268,-87.909836,-86.716393,2.762332,-0.063172,2.762332,-0.063172,-89.999855,-90.0,2.460131,7.305252,2.658282,297.899384,282.358459,0.045621,0.015972,12.08291,8.71E-4,0.05509,-4.15E-4,0.0,1.0,2298.736572
34.236797,-87.902565,-86.709122,2.767296,-0.064494,2.767296,-0.064494,-89.999855,-90.0,2.468735,7.614155,2.720115,297.914307,281.96286,0.046329,0.016981,8.181877,9.02E-4,0.055247,-0.001608,0.0,1.0,2300.343262
35.217594,-87.890434,-86.696991,2.77509,-0.06603,2.77509,-0.06603,-89.999855,-90.0,2.482975,8.120659,2.81233,297.936279,281.4646,0.047715,0.018081,17.321068,9.21E-4,0.055346,-0.002354,0.0,1.0,2302.913818
35.841633,-87.882294,-86.68885,2.780629,-0.065902,2.780629,-0.065902,-89.999855,-90.0,2.492492,8.455345,2.928628,297.947632,281.232147,0.048352,0.018254,17.818876,9.43E-4,0.055502,-0.003453,0.0,1.0,2304.558594
36.774544,-87.869537,-86.676094,2.794387,-0.063908,2.794387,-0.063908,-89.999855,-90.0,2.508414,8.966151,3.305928,297.95517,281.014832,0.047981,0.016997,16.56085,9.41E-4,0.055613,-0.004021,0.0,1.0,2307.001953
37.369705,-87.860939,-86.667496,2.799005,-0.061809,2.799005,-0.061809,-89.999855,-90.0,2.519079,9.29786,3.36602,297.952972,280.956238,0.046885,0.015196,19.587051,9.13E-4,0.055888,-0.004398,0.0,1.0,2308.552734
38.32515,-87.846428,-86.652985,2.805403,-0.057528,2.805403,-0.057528,-89.999855,-90.0,2.53665,9.839978,3.467915,297.937744,280.987396,0.042707,0.010837,14.122508,8.83E-4,0.05598,-0.004288,0.0,1.0,2311.036377
38.918167,-87.837036,-86.643593,2.809743,-0.054616,2.809743,-0.054616,-89.999855,-90.0,2.547848,10.182108,3.53541,297.921844,281.08078,0.039824,0.00746,20.273617,8.22E-4,0.056108,-0.003526,0.0,1.0,2312.576416
39.844357,-87.821762,-86.628319,2.816727,-0.050183,2.816727,-0.050183,-89.999855,-90.0,2.565808,10.72527,3.641793,297.891327,281.33255,0.033956,0.001945,19.226145,7.8E-4,0.056195,-0.002731,0.0,1.0,2314.981689
40.486374,-87.810776,-86.617332,2.821852,-0.047327,2.821852,-0.047327,-89.999855,-90.0,2.578594,11.107807,3.716121,297.868408,281.577393,0.029362,-0.001674,9.666494,7.17E-4,0.056335,-0.001205,0.0,1.0,2316.650146
41.383568,-87.794899,-86.601456,2.82852,-0.044056,2.82852,-0.044056,-89.999855,-90.0,2.596883,11.650472,3.762647,297.839783,282.006439,0.025007,-0.005557,20.452995,6.76E-4,0.056437,-5.9E-5,0.0,1.0,2318.984131
41.997734,-87.783707,-86.590263,2.835331,-0.040645,2.835331,-0.040645,-89.999855,-90.0,2.609601,12.027245,3.885176,297.824524,282.352631,0.022652,-0.007178,12.081011,6.29E-4,0.05657,0.001372,0.0,1.0,2320.583984
42.94157,-87.765724,-86.572273,2.846984,-0.03324,2.846984,-0.03324,-89.999855,-90.0,2.631962,12.615268,4.401651,297.811249,282.957184,0.020909,-0.007722,9.409641,5.81E-4,0.056707,0.002135,0.0,1.0,2323.056152
43.527195,-87.753998,-86.560547,2.85249,-0.033696,2.85249,-0.033696,-89.999855,-90.0,2.646174,12.985046,4.486229,297.809082,283.369812,0.021121,-0.007182,15.485426,4.75E-4,0.05694,0.002798,0.0,1.0,2325.090576
44.44239,-87.734856,-86.541412,2.859849,-0.033677,2.859849,-0.033677,-89.999855,-90.0,2.668931,13.570153,4.607987,297.813843,284.061005,0.023348,-0.005157,18.17005,4.81E-4,0.05705,0.002907,0.0,1.0,2329.451416
45.077385,-87.721046,-86.527603,2.864956,-0.033129,2.864956,-0.033129,-89.999855,-90.0,2.68509,13.980894,4.69099,297.820862,284.566437,0.026059,-0.003358,18.79561,4.81E-4,0.057197,0.002669,0.0,1.0,2333.022705
45.966209,-87.701073,-86.507629,2.871842,-0.031596,2.871842,-0.031596,-89.999855,-90.0,2.708191,14.561843,4.805614,297.830963,285.298035,0.029338,-0.001127,11.694324,4.73E-4,0.057299,0.002318,0.0,1.0,2338.4729
46.57531,-87.686943,-86.4935,2.881934,-0.030042,2.881934,-0.030042,-89.999855,-90.0,2.725073,14.964097,5.33435,297.835358,285.80954,0.031397,-1.9E-4,16.227501,4.51E-4,0.057437,0.001813,0.0,1.0,2342.406006
47.513618,-87.664101,-86.470657,2.890822,-0.025026,2.890822,-0.025026,-89.999855,-90.0,2.752934,15.590261,5.488431,297.833527,286.602295,0.032969,-2.36E-4,10.334643,4.29E-4,0.057639,0.001593,0.0,1.0,2348.657715
48.122326,-87.648613,-86.45517,2.895406,-0.021755,2.895406,-0.021755,-89.999855,-90.0,2.771456,16.000238,5.59381,297.825378,287.112976,0.032385,-0.001368,10.712209,3.58E-4,0.057816,0.001685,0.0,1.0,2352.792725
49.03553,-87.624474,-86.43103,2.901777,-0.016601,2.901777,-0.016601,-89.999855,-90.0,2.79976,16.620686,5.72066,297.802887,287.863647,0.029385,-0.004456,11.704608,3.11E-4,0.057908,0.002092,0.0,1.0,2359.068604
49.618919,-87.616203,-86.42276,2.906181,-0.013057,2.906181,-0.013057,-89.999855,-90.0,2.818182,17.020447,5.805137,297.782745,288.32843,0.026746,-0.007088,20.76206,2.37E-4,0.058036,0.003217,0.0,1.0,2363.110107
50.532238,-87.616203,-86.42276,2.913044,-0.007694,2.913044,-0.007694,-89.999855,-90.0,2.847553,17.651289,5.935839,297.746552,289.024261,0.020925,-0.011419,12.422322,1.87E-4,0.058124,0.004224,0.0,1.0,2369.470459
51.166454,-87.616203,-86.42276,2.918258,-0.004108,2.918258,-0.004108,-89.999855,-90.0,2.86837,18.09297,6.063592,297.720184,289.479797,0.016078,-0.014242,20.498232,1.1E-4,0.058261,0.006033,0.0,1.0,2373.906006
52.078072,-87.616203,-86.42276,2.935761,0.01053,2.935761,0.01053,-89.999855,-90.0,2.902182,18.734015,6.981987,297.686066,290.08844,0.010675,-0.016947,21.152407,5.9E-5,0.058365,0.007352,0.0,1.0,2380.313232
52.685928,-87.616203,-86.42276,2.940661,0.013385,2.940661,0.013385,-89.999855,-90.0,2.925609,19.164589,7.066364,297.667419,290.459473,0.007616,-0.018037,11.390746,-1.5E-4,0.058715,0.009058,0.0,1.0,2384.594971
53.598,-87.616203,-86.42276,2.946326,0.016424,2.946326,0.016424,-89.999855,-90.0,2.961303,19.815138,7.204669,297.649231,290.958862,0.005126,-0.017956,15.768244,-1.91E-4,0.058813,0.00999,0.0,1.0,2391.033203
54.206203,-87.616203,-86.42276,2.950689,0.018155,2.950689,0.018155,-89.999855,-90.0,2.985498,20.251892,7.303148,297.643188,291.251465,0.004909,-0.016968,16.249403,-2.35E-4,0.058927,0.010899,0.0,1.0,2395.335449
55.118736,-87.616203,-86.42276,2.957361,0.020378,2.957361,0.020378,-89.999855,-90.0,3.022408,20.911489,7.451435,297.641388,291.627075,0.006505,-0.014563,16.96517,-2.59E-4,0.059014,0.011201,0.0,1.0,2401.804199
55.727211,-87.616203,-86.42276,2.961939,0.021952,2.961939,0.021952,-89.999855,-90.0,3.047429,21.354132,7.551019,297.642639,291.83432,0.008418,-0.012793,17.403543,-2.91E-4,0.059147,0.011292,0.0,1.0,2406.126953
56.640053,-87.616203,-86.42276,2.968395,0.024659,2.968395,0.024659,-89.999855,-90.0,3.085579,22.02235,7.699273,297.643372,292.07959,0.01165,-0.010672,18.01618,-3.14E-4,0.059239,0.011229,0.0,1.0,2412.626465
57.197914,-87.616203,-86.42276,2.972409,0.026634,2.972409,0.026634,-89.999855,-90.0,3.10926,22.433163,7.790583,297.640808,292.190796,0.013211,-0.010011,21.605032,-3.52E-4,0.059368,0.011192,0.0,1.0,2416.607422
58.161034,-87.616203,-86.42276,2.978983,0.030657,2.978983,0.030657,-89.999855,-90.0,3.150818,23.14702,7.953575,297.627472,292.314667,0.014909,-0.010417,18.968204,-3.8E-4,0.059448,0.01132,0.0,1.0,2423.499756
58.769455,-87.616203,-86.42276,2.982831,0.034145,2.982831,0.034145,-89.999855,-90.0,3.17741,23.600597,7.983554,297.612122,292.349335,0.014797,-0.011707,14.857946,-4.38E-4,0.05958,0.011987,0.0,1.0,2427.862305
59.68082,-87.616203,-86.42276,2.988588,0.039252,2.988588,0.039252,-89.999855,-90.0,3.21751,24.284779,8.088196,297.580353,292.34021,0.012683,-0.01477,15.261657,-4.88E-4,0.059657,0.012755,0.0,1.0,2434.417969
60.28775,-87.616203,-86.42276,2.993104,0.042389,2.993104,0.042389,-89.999855,-90.0,3.244658,24.743372,8.189287,297.554535,292.294983,0.010283,-0.017291,15.031359,-5.61E-4,0.059772,0.014343,0.0,1.0,2438.803955
61.197201,-87.616203,-86.42276,3.001683,0.046039,3.001683,0.046039,-89.999855,-90.0,3.286204,25.434845,8.577439,297.513977,292.171722,0.005771,-0.020886,21.357756,-6.06E-4,0.059862,0.015634,0.0,1.0,2445.480713
61.802299,-87.616203,-86.42276,3.008902,0.047694,3.008902,0.047694,-89.999855,-90.0,3.315705,25.89814,8.897193,297.487701,292.05481,0.002822,-0.022859,14.730698,-6.58E-4,0.060034,0.017662,0.0,1.0,2449.980225
62.68364,-87.616203,-86.42276,3.021514,0.051188,3.021514,0.051188,-89.999855,-90.0,3.360424,26.576982,9.920465,297.455475,291.83847,-5.94E-4,-0.024396,15.437601,-6.81E-4,0.060178,0.018976,0.0,1.0,2456.58667
63.311474,-87.616203,-86.42276,3.028596,0.053694,3.028596,0.053694,-89.999855,-90.0,3.395098,27.064116,10.029862,297.437683,291.653534,-0.002711,-0.024545,18.231897,-7.31E-4,0.06043,0.020587,0.0,1.0,2461.326172
64.214737,-87.616203,-86.42276,3.034094,0.056886,3.034094,0.056886,-89.999855,-90.0,3.445644,27.768747,10.18026,297.420959,291.347961,-0.003723,-0.023338,13.435272,-7.67E-4,0.060572,0.021477,0.0,1.0,2468.172119
64.816086,-87.616203,-86.42276,3.038189,0.060738,3.038189,0.060738,-89.999855,-90.0,3.47978,28.240509,10.290663,297.410187,291.121826,-0.004113,-0.022837,20.030781,-8.13E-4,0.060682,0.0,0.0,1.0,2472.745605
65.717667,-87.616203,-86.42276,3.043561,0.067146,3.043561,0.067146,-89.999855,-90.0,3.531671,28.951059,10.453554,297.321045,290.754669,-0.007893,-0.03405,13.953029,-8.68E-4,0.060764,5.39E-4,0.0,1.0,2479.618164
66.319031,-87.616203,-86.42276,3.04914,0.070788,3.04914,0.070788,-89.999855,-90.0,3.567153,29.426647,10.900291,297.213867,290.494049,-0.013934,-0.047983,14.358862,-9.59E-4,0.060871,0.004996,0.0,1.0,2484.20874
67.220474,-87.616203,-86.42276,3.056136,0.070216,3.056136,0.070216,-89.999855,-90.0,3.623264,30.142788,11.30278,297.017975,290.083527,-0.028077,-0.071681,15.160367,-0.001011,0.060983,0.010355,0.0,1.0,2491.109619
67.81955,-87.616203,-86.42276,3.059947,0.067112,3.059947,0.067112,-89.999855,-90.0,3.661159,30.621984,11.422194,296.885956,289.79892,-0.039075,-0.085622,15.639006,-0.001003,0.061123,0.020149,0.0,1.0,2495.716553
68.715645,-87.616203,-86.42276,3.063206,0.052027,3.063206,0.052027,-89.999855,-90.0,3.719482,31.343271,12.149896,296.733917,289.359436,-0.054664,-0.096729,16.33312,-9.59E-4,0.061199,0.02675,0.0,1.0,2502.629883
69.313011,-87.616203,-86.42276,3.04856,-0.004926,3.04856,-0.004926,-89.999855,-90.0,3.76239,31.825708,14.027785,296.679108,289.06076,-0.062535,-0.09696,17.058424,-7.43E-4,0.061264,0.034352,0.0,1.0,2507.242188
70.210571,-87.616203,-86.42276,2.980487,-0.170645,2.980487,-0.170645,-89.999855,-90.0,3.835967,32.551636,15.081438,296.687195,288.610626,-0.066449,-0.0849,18.961843,7.0E-5,0.060971,0.037093,0.0,1.0,2514.174805
70.811996,-87.616203,-86.42276,2.916445,-0.311783,2.916445,-0.311783,-89.999855,-90.0,3.886398,33.037098,15.070485,296.748718,288.314087,-0.062009,-0.069767,15.836791,0.002438,0.05961,0.036688,0.0,1.0,2518.814453
71.710327,-87.616203,-86.42276,2.847435,-0.49205,2.847435,-0.49205,-89.999855,-90.0,3.960862,33.767525,14.741353,296.889557,287.88443,-0.045983,-0.041821,19.586784,0.004454,0.058329,0.033612,0.0,1.0,2525.794922
72.304581,-87.616203,-86.42276,2.818153,-0.586062,2.818153,-0.586062,-89.999855,-90.0,4.009993,34.255871,14.70444,296.985962,287.613312,-0.031234,-0.024776,16.168388,0.007029,0.056949,0.02657,0.0,1.0,2530.448242
73.190514,-87.616203,-86.42276,2.786132,-0.705704,2.786132,-0.705704,-89.999855,-90.0,4.083969,34.990295,14.956699,297.072479,287.237213,-0.007998,-0.011413,22.961746,0.008372,0.056363,0.02175,0.0,1.0,2537.413086
73.779846,-87.616203,-86.42276,2.756125,-0.797779,2.756125,-0.797779,-89.999855,-90.0,4.134485,35.481091,15.303852,297.068573,287.010193,0.005449,-0.013752,23.095984,0.010081,0.055723,0.017424,0.0,1.0,2542.046875
74.665047,-87.616203,-86.42276,2.694216,-0.971083,2.694216,-0.971083,-89.999855,-90.0,4.212271,36.218945,15.796211,296.955475,286.709442,0.019828,-0.034448,23.666178,0.011397,0.055122,0.017619,0.0,1.0,2548.995361
75.257202,-87.616203,-86.42276,2.64143,-1.114924,2.64143,-1.114924,-89.999855,-90.0,4.265537,36.711933,16.140484,296.818146,286.537048,0.024515,-0.056816,24.072529,0.013873,0.053884,0.023274,0.0,1.0,2553.63501
76.144905,-87.616203,-86.42276,2.60708,-1.362908,2.60708,-1.362908,-89.999855,-90.0,4.352567,37.453018,18.882975,296.567078,286.321869,0.024181,-0.093713,25.029129,0.015927,0.052829,0.030141,0.0,1.0,2560.613525
76.731712,-87.616203,-86.42276,2.650297,-1.574285,2.650297,-1.574285,-89.999855,-90.0,4.425413,37.948727,25.474531,296.397949,286.20697,0.021038,-0.116407,18.063496,0.01947,0.052142,0.042694,0.0,1.0,2565.27124
77.594154,-87.616203,-86.42276,2.784178,-1.89798,2.784178,-1.89798,-79.999855,-80.0,4.599975,38.695797,45.68214,296.201691,286.074799,0.015059,-0.137002,21.076618,0.02249,0.053006,0.051151,0.0,1.0,2572.243164
78.151146,-87.616203,-86.42276,2.89948,-2.08351,2.89948,-2.08351,-79.999855,-80.0,4.784053,39.194424,64.602997,296.124756,286.011078,0.012571,-0.13977,26.833029,0.027114,0.055684,0.060963,0.0,1.0,2576.862549
78.95311,-87.616203,-86.42276,3.073498,-2.246451,3.073498,-2.246451,-79.999855,-80.0,5.189442,39.942616,97.083092,296.097015,285.947662,0.013113,-0.127042,39.902424,0.029764,0.05799,0.06481,0.0,1.0,2583.710449
79.462364,-87.616203,-86.42276,3.20284,-2.261385,3.20284,-2.261385,-79.999855,-80.0,5.552343,40.441166,119.93689,296.118256,285.924194,0.017273,-0.111391,51.227352,0.032092,0.06147,0.066197,0.0,1.0,2588.196777
80.185287,-87.616203,-86.42276,3.387541,-2.135017,3.387541,-2.135017,-79.999855,-80.0,6.241639,41.187813,154.644852,296.161102,285.911987,0.02807,-0.08599,71.446861,0.032306,0.064057,0.065135,0.0,1.0,2594.230225
80.640305,-87.616203,-86.42276,3.512732,-1.972324,3.512732,-1.972324,-79.999855,-80.0,6.796198,41.684277,177.171692,296.168213,285.91568,0.036748,-0.072941,86.580566,0.0305,0.067751,0.062993,0.0,1.0,2597.474121
81.28904,-87.616203,-86.42276,3.664507,-1.677165,3.664507,-1.677165,-79.999855,-80.0,7.764894,42.426159,208.926941,296.114716,285.932068,0.048947,-0.064747,110.964958,0.028176,0.070255,0.062637,0.0,1.0,2601.537842
81.703163,-87.616203,-86.42276,3.757024,-1.479293,3.757024,-1.479293,-79.999855,-80.0,8.496519,42.918449,229.217285,296.034119,285.946045,0.054536,-0.066964,127.886276,0.02396,0.07329,0.065312,0.0,1.0,2603.866455
82.30011,-87.616203,-86.42276,3.878632,-1.249104,3.878632,-1.249104,-79.999855,-80.0,9.717914,43.652802,258.128235,295.875641,285.964539,0.058111,-0.076954,153.812729,0.021133,0.07514,0.069342,0.0,1.0,2606.968262
82.68293,-87.616203,-86.42276,3.966077,-1.142941,3.966077,-1.142941,-79.999855,-80.0,10.610424,44.139343,276.65094,295.769226,285.971405,0.057677,-0.083762,171.221542,0.017844,0.077573,0.077266,0.0,1.0,2608.845459
83.234306,-87.616203,-86.42276,4.090644,-1.054645,4.090644,-1.054645,-79.999855,-80.0,12.063805,44.864128,303.67453,295.660675,285.967804,0.055122,-0.085933,197.300583,0.016328,0.079322,0.082587,0.0,1.0,2611.45459
83.584961,-87.616203,-86.42276,4.178981,-1.011875,4.178981,-1.011875,-79.999855,-80.0,13.106092,45.343674,320.993683,295.637604,285.953674,0.054386,-0.0797,214.572037,0.015066,0.081813,0.088014,0.0,1.0,2613.084961
84.085991,-87.616203,-86.42276,4.301601,-0.928598,4.301601,-0.928598,-79.999855,-80.0,14.781911,46.056988,349.210175,295.680267,285.912231,0.056839,-0.058979,240.257675,0.014455,0.08358,0.089168,0.0,1.0,2615.397949
84.401299,-87.616203,-86.42276,4.398561,-0.836468,4.398561,-0.836468,-79.999855,-80.0,15.981731,46.528198,370.205444,295.743378,285.8703,0.061701,-0.040738,257.447357,0.013266,0.086032,0.087035,0.0,1.0,2616.86377
84.843246,-87.616203,-86.42276,4.556478,-0.63833,4.556478,-0.63833,-79.999855,-80.0,17.91942,47.227905,403.510773,295.840698,285.784851,0.07272,-0.015294,283.781982,0.01195,0.087971,0.083879,0.0,1.0,2618.958496
85.118874,-87.616203,-86.42276,4.665721,-0.475266,4.665721,-0.475266,-79.999855,-80.0,19.298824,47.689312,423.039398,295.882477,285.712097,0.080981,-0.003511,301.880432,0.009119,0.09113,0.079013,0.0,1.0,2620.289795
85.515579,-87.616203,-86.42276,4.76684,-0.236411,4.76684,-0.236411,-69.999855,-70.0,21.478306,48.373417,447.011139,295.883118,285.578033,0.091782,0.002062,329.089233,0.00679,0.093314,0.076924,0.0,1.0,2622.199219
85.774429,-87.616203,-86.42276,4.809872,-0.103192,4.809872,-0.103192,-69.999855,-70.0,22.992722,48.824024,460.94696,295.845093,285.471771,0.095935,-0.001243,346.819061,0.003377,0.095337,0.076892,0.0,1.0,2623.422852
86.156044,-87.616203,-86.42276,4.868407,0.01206,4.868407,0.01206,-69.999855,-70.0,25.347132,49.491642,479.976379,295.760345,285.287262,0.09715,-0.01156,372.330902,0.001474,0.096197,0.078793,0.0,1.0,2625.198242
86.404945,-87.616203,-86.42276,4.922182,0.037334,4.922182,0.037334,-69.999855,-70.0,26.968533,49.931156,492.459534,295.708466,285.147919,0.095282,-0.017832,388.51239,-1.72E-4,0.097368,0.083031,0.0,1.0,2626.347168
86.767166,-87.616203,-86.42276,5.009912,0.016553,5.009912,0.016553,-69.999855,-70.0,29.481138,50.581989,512.249573,295.67749,284.915466,0.091092,-0.019807,411.638489,-5.33E-4,0.098444,0.085625,0.0,1.0,2628.021729
86.999649,-87.616203,-86.42276,5.074456,-0.007639,5.074456,-0.007639,-69.999855,-70.0,31.212782,51.010159,526.323364,295.697601,284.745972,0.089447,-0.014731,426.46106,-2.36E-4,0.100198,0.087173,0.0,1.0,2629.106201
87.333107,-87.616203,-86.42276,5.164824,-0.013784,5.164824,-0.013784,-59.999859,-60.0,33.90023,51.643669,548.013428,295.779816,284.472656,0.090512,6.64E-4,448.139648,1.09E-4,0.101489,0.086168,0.0,1.0,2630.685303
87.54509,-87.616203,-86.42276,5.229961,0.016652,5.229961,0.016652,-59.999859,-60.0,35.75198,52.060078,562.52832,295.851837,284.279724,0.093888,0.01299,462.364166,1.97E-4,0.103296,0.082057,0.0,1.0,2631.705566
87.849777,-87.616203,-86.42276,5.318394,0.113168,5.318394,0.113168,-59.999859,-60.0,38.621475,52.675621,584.620361,295.941345,283.977753,0.10133,0.027155,483.505188,-2.38E-4,0.104599,0.078456,0.0,1.0,2633.188477
88.045471,-87.616203,-86.42276,5.379842,0.194305,5.379842,0.194305,-59.999859,-60.0,40.595592,53.079868,599.294373,295.971558,283.769897,0.10601,0.031071,497.526764,-0.001617,0.106368,0.073981,0.0,1.0,2634.147461
88.33123,-87.616203,-86.42276,5.460985,0.295435,5.460985,0.295435,-59.999859,-60.0,43.647747,53.676991,620.753357,295.95993,283.450958,0.110291,0.026822,518.490234,-0.002776,0.107597,0.07247,0.0,1.0,2635.546875
88.517555,-87.616203,-86.42276,5.516609,0.331177,5.516609,0.331177,-49.999859,-50.0,45.741077,54.068916,634.719788,295.923645,283.234772,0.110116,0.019248,532.40387,-0.004221,0.10922,0.073051,0.0,1.0,2636.457275
88.790924,-87.616203,-86.42276,5.59337,0.317093,5.59337,0.317093,-49.999859,-50.0,48.968025,54.647614,655.340088,295.861786,282.906952,0.105927,0.006872,553.136963,-0.004731,0.110332,0.074866,0.0,1.0,2637.794434
88.968033,-87.616203,-86.42276,5.650186,0.27311,5.650186,0.27311,-49.999859,-50.0,51.175922,55.027313,668.907776,295.836456,282.687164,0.101773,0.001524,566.846741,-0.00453,0.111867,0.077959,0.0,1.0,2638.667969
89.223885,-87.616203,-86.42276,5.732164,0.190092,5.732164,0.190092,-49.999859,-50.0,54.573059,55.587734,689.321899,295.848511,282.35791,0.096156,0.002083,587.227295,-0.003902,0.113004,0.079225,0.0,1.0,2639.950684
89.386444,-87.616203,-86.42276,5.792546,0.14629,5.792546,0.14629,-49.999859,-50.0,56.894379,55.955242,702.997681,295.890472,282.14032,0.094479,0.007973,600.699463,-0.002716,0.114643,0.078622,0.0,1.0,2640.785889
89.617546,-87.616203,-86.42276,5.876498,0.132215,5.876498,0.132215,-39.999859,-40.0,60.46257,56.497265,723.625244,295.980621,281.819763,0.095744,0.02094,620.768127,-0.00209,0.115851,0.076524,0.0,1.0,2642.005127
89.763405,-87.616203,-86.42276,5.935629,0.157499,5.935629,0.157499,-39.999859,-40.0,62.898262,56.852398,737.292847,296.039856,281.611725,0.09857,0.029002,634.074036,-0.001889,0.11753,0.072017,0.0,1.0,2642.794434
89.972763,-87.616203,-86.42276,6.013035,0.229163,6.013035,0.229163,-39.999859,-40.0,66.637016,57.375713,757.457275,296.091705,281.310669,0.103634,0.034351,653.938782,-0.00225,0.118713,0.069055,0.0,1.0,2643.943359
90.107681,-87.616203,-86.42276,6.065284,0.278019,6.065284,0.278019,-29.999857,-30.0,69.184341,57.718327,770.414978,296.093994,281.118439,0.105709,0.032396,667.111206,-0.003274,0.120261,0.066463,0.0,1.0,2644.687988
90.305573,-87.616203,-86.42276,6.132757,0.314049,6.132757,0.314049,-29.999857,-30.0,73.084908,58.222908,789.033203,296.056183,280.843933,0.105459,0.022629,686.712769,-0.003972,0.121306,0.066348,0.0,1.0,2645.777588
90.434845,-87.616203,-86.42276,6.179379,0.304519,6.179379,0.304519,-29.999857,-30.0,75.735474,58.553135,800.818665,296.019165,280.670532,0.102776,0.014459,699.632324,-0.004486,0.122655,0.068239,0.0,1.0,2646.488281
90.624168,-87.616203,-86.42276,6.242769,0.24305,6.242769,0.24305,-19.999857,-20.0,79.783768,59.039345,817.837891,295.98175,280.425385,0.096597,0.005726,718.707703,-0.00435,0.123588,0.07009,0.0,1.0,2647.533691
90.736214,-22.770199,-21.576754,6.284972,0.191837,6.284972,0.191837,-19.999857,-20.0,82.298759,59.331127,827.917786,295.98175,280.284698,0.093283,0.004403,730.152832,-0.003472,0.124855,0.07196,0.0,1.0,2648.160156
90.921165,-18.795626,-17.602182,6.353624,0.12021,6.353624,0.12021,-19.999857,-20.0,86.715233,59.825626,845.134705,296.029236,280.059021,0.089149,0.010197,749.469116,-0.002741,0.125699,0.07196,0.0,1.0,2649.21875
91.031578,-16.235031,-15.041587,6.400997,0.100514,6.400997,0.100514,-19.999857,-20.0,89.55101,60.131744,855.946716,296.081116,279.928467,0.08925,0.0173,761.436096,-0.001717,0.127072,0.069586,0.0,1.0,2649.869873
91.188469,-12.323642,-11.130198,6.462538,0.122572,6.462538,0.122572,-9.999858,-10.0,93.872185,60.581913,871.924194,296.157379,279.751068,0.092374,0.02731,779.001282,-0.001436,0.12802,0.066992,0.0,1.0,2650.818359
91.288315,-9.669944,-8.4765,6.504289,0.160247,6.504289,0.160247,-9.999858,-10.0,96.796417,60.876026,882.206299,296.191101,279.645538,0.095124,0.030864,790.471252,-0.001751,0.129251,0.063179,0.0,1.0,2651.421875
91.433754,-5.621955,-4.428511,6.557576,0.219345,6.557576,0.219345,-9.999858,-10.0,101.246033,61.308239,897.016907,296.197571,279.506439,0.098073,0.028601,807.322449,-0.002289,0.130086,0.061493,0.0,1.0,2652.282227
91.528969,-2.879463,-1.686018,6.593278,0.242272,6.593278,0.242272,1.42E-4,0.0,104.252304,61.590473,906.348694,296.175903,279.426178,0.097922,0.02288,818.313293,-0.003133,0.131152,0.061169,0.0,1.0,2652.83252
91.670036,1.420256,2.6137,6.639473,0.229629,6.639473,0.229629,1.42E-4,0.0,108.818626,62.005108,919.607605,296.128265,279.323425,0.09447,0.012126,834.403809,-0.003461,0.131866,0.062253,0.0,1.0,2653.63208
91.762543,4.38489,5.578334,6.672046,0.193474,6.672046,0.193474,1.42E-4,0.0,111.898521,62.275818,927.985168,296.103455,279.265961,0.09075,0.006451,844.845947,-0.00328,0.132789,0.064635,0.0,1.0,2654.150879
91.897423,8.893479,10.086924,6.717526,0.120928,6.717526,0.120928,10.000142,10.0,116.570061,62.673443,940.178955,296.101898,279.195251,0.085193,0.004295,860.052002,-0.002764,0.133441,0.065875,0.0,1.0,2654.910156
91.983574,11.938843,13.132287,6.751121,0.078177,6.751121,0.078177,10.000142,10.0,119.717781,62.932957,948.163391,296.127777,279.15799,0.083001,0.007389,869.879578,-0.001728,0.134351,0.065953,0.0,1.0,2655.404053
92.10598,16.564186,17.757631,6.797971,0.052773,6.797971,0.052773,20.000143,20.0,124.489395,63.313919,960.083313,296.1922,279.116333,0.082847,0.016196,884.171692,-0.001117,0.135022,0.064659,0.0,1.0,2656.123779
92.183006,19.684921,20.878366,6.831045,0.063642,6.831045,0.063642,20.000143,20.0,127.703255,63.562374,967.940491,296.23761,279.097809,0.084607,0.02222,893.420105,-7.54E-4,0.135959,0.061438,0.0,1.0,2656.589111
92.293381,24.420267,25.61371,6.87342,0.110877,6.87342,0.110877,20.000143,20.0,132.572876,63.926807,979.455872,296.279724,279.083099,0.088341,0.026579,906.911621,-9.09E-4,0.136621,0.059167,0.0,1.0,2657.264893
92.364815,27.612473,28.805918,6.901379,0.146044,6.901379,0.146044,30.000143,30.0,135.850449,64.164314,986.7771,296.28302,279.081421,0.09001,0.025272,915.668884,-0.001584,0.137468,0.057062,0.0,1.0,2657.702148
92.470634,32.452084,33.645531,6.936069,0.172979,6.936069,0.172979,30.000143,30.0,140.811447,64.51252,997.153809,296.254181,279.089386,0.089939,0.017756,928.45752,-0.002086,0.138028,0.056897,0.0,1.0,2658.341553
92.540741,35.711582,36.905025,6.959571,0.165564,6.959571,0.165564,40.000141,40.0,144.146545,64.739395,1003.617432,296.224365,279.100616,0.087834,0.011238,936.746216,-0.002471,0.138721,0.058339,0.0,1.0,2658.759277
92.623642,40.648323,41.841766,6.991425,0.117094,6.991425,0.117094,40.000141,40.0,149.188538,65.071968,1012.740601,296.192505,279.12439,0.082691,0.004046,948.803528,-0.002365,0.139191,0.05983,0.0,1.0,2659.366699
92.663147,43.969814,45.163258,7.014809,0.071021,7.014809,0.071021,40.000141,40.0,152.574066,65.288635,1018.329834,296.19223,279.14389,0.07908,0.002913,956.577454,-0.001673,0.139829,0.061423,0.0,1.0,2659.739502
92.719353,48.995083,50.18853,7.046727,0.011497,7.046727,0.011497,50.000141,50.0,157.686447,65.606186,1026.294922,296.230957,279.177368,0.07547,0.007781,967.814697,-0.001015,0.140296,0.061436,0.0,1.0,2660.25708
92.75396,52.37257,53.566017,7.069144,-0.009149,7.069144,-0.009149,50.000141,50.0,161.116241,65.812988,1031.372681,296.276062,279.202057,0.075185,0.014005,975.015015,-1.64E-4,0.140935,0.0595,0.0,1.0,2660.57959
92.801743,57.477562,58.671005,7.097981,0.001954,7.097981,0.001954,60.000141,60.0,166.29216,66.115898,1038.685669,296.344635,279.242096,0.077502,0.023064,985.377319,1.31E-4,0.141383,0.057245,0.0,1.0,2661.03418
92.831642,60.905544,62.098991,7.116755,0.02853,7.116755,0.02853,60.000141,60.0,169.762436,66.313019,1043.280518,296.376587,279.270477,0.079765,0.026515,991.998108,-2.8E-5,0.14196,0.053816,0.0,1.0,2661.320801
92.87574,66.082497,67.275948,7.138355,0.07136,7.138355,0.07136,70.000145,70.0,174.99559,66.601593,1049.654541,296.386292,279.314728,0.082251,0.025052,1001.504822,-4.08E-4,0.142335,0.052219,0.0,1.0,2661.731201
92.905716,69.555908,70.749352,7.151473,0.085768,7.151473,0.085768,70.000145,70.0,178.501099,66.789322,1053.455078,296.369751,279.344666,0.082052,0.020304,1007.559509,-0.001019,0.142767,0.051733,0.0,1.0,2661.994873
92.952225,74.796898,75.990341,7.167071,0.066988,7.167071,0.066988,70.000145,70.0,183.781845,67.064133,1058.565674,296.330566,279.388855,0.078852,0.011076,1016.205566,-0.001225,0.143029,0.05256,0.0,1.0,2662.381348
92.983986,78.310097,79.50354,7.177955,0.03015,7.177955,0.03015,80.000145,80.0,187.315765,67.242928,1061.646484,296.309814,279.417084,0.075411,0.006103,1021.671021,-9.57E-4,0.143341,0.05452,0.0,1.0,2662.634521
93.031303,83.606384,84.799835,7.193954,-0.040739,7.193954,-0.040739,80.000145,80.0,192.635437,67.504677,1066.056885,296.30896,279.456543,0.070225,0.004077,1029.41394,-4.31E-4,0.143559,0.055557,0.0,1.0,2663.009521
93.061562,87.153732,88.347176,7.206579,-0.0832,7.206579,-0.0832,90.000145,90.0,196.193985,67.674965,1068.974487,296.331421,279.48056,0.068106,0.006616,1034.277954,5.82E-4,0.143879,0.0556,0.0,1.0,2663.255615
93.103714,92.497856,93.691299,7.22509,-0.112611,7.22509,-0.112611,90.000145,90.0,201.550339,67.924149,1073.433838,296.386688,279.513092,0.067715,0.013977,1041.156738,0.001189,0.144132,0.054477,0.0,1.0,2663.616943
93.129562,96.075317,97.268761,7.238255,-0.10816,7.238255,-0.10816,100.000145,100.0,205.133636,68.086151,1076.439941,296.425079,279.532471,0.069104,0.018946,1045.490479,0.001609,0.144502,0.051714,0.0,1.0,2663.851563
93.166168,101.4627,102.656143,7.254219,-0.074641,7.254219,-0.074641,100.000145,100.0,210.527328,68.323044,1080.855713,296.459351,279.558075,0.07212,0.022266,1051.661987,0.001545,0.144765,0.049794,0.0,1.0,2664.193848
93.190117,105.067947,106.261391,7.263858,-0.049604,7.263858,-0.049604,100.000145,100.0,214.134979,68.476959,1083.605957,296.460419,279.572723,0.073373,0.020813,1055.581665,0.001066,0.145084,0.04808,0.0,1.0,2664.41626
93.226921,110.495415,111.688866,7.27443,-0.034574,7.27443,-0.034574,110.000145,110.0,219.562897,68.70195,1087.354004,296.433289,279.590576,0.072953,0.013962,1061.194946,7.09E-4,0.145277,0.048027,0.0,1.0,2664.744141
93.252365,114.126175,115.319618,7.281182,-0.04646,7.281182,-0.04646,110.000145,110.0,223.191315,68.848122,1089.581787,296.406708,279.599396,0.070889,0.008233,1064.765503,4.94E-4,0.145489,0.049383,0.0,1.0,2664.960449
93.291351,119.589737,120.783188,7.290741,-0.094727,7.290741,-0.094727,120.000145,120.0,228.647324,69.061829,1092.688477,296.379272,279.607391,0.066275,0.002128,1069.863525,6.64E-4,0.145624,0.050713,0.0,1.0,2665.283447
93.317085,123.24305,124.436493,7.298596,-0.135922,7.298596,-0.135922,120.000145,120.0,232.293106,69.200684,1094.707275,296.378723,279.60907,0.063403,0.00121,1073.091187,0.001353,0.145815,0.052084,0.0,1.0,2665.497803
93.353737,128.738403,129.931839,7.311343,-0.183734,7.311343,-0.183734,130.000137,130.0,237.774628,69.403641,1097.828735,296.40802,279.606323,0.060901,0.005016,1077.687012,0.001942,0.145972,0.052112,0.0,1.0,2665.81665
93.376152,132.411819,133.60527,7.321377,-0.197309,7.321377,-0.197309,130.000137,130.0,241.437805,69.535446,1100.014771,296.440674,279.601257,0.061021,0.009636,1080.601318,0.002625,0.146227,0.050647,0.0,1.0,2666.025879
93.406685,137.935181,139.128632,7.334885,-0.18286,7.334885,-0.18286,140.000137,140.0,246.946579,69.727943,1103.387695,296.486176,279.589417,0.063267,0.015775,1084.723022,0.002819,0.146428,0.049014,0.0,1.0,2666.33252
93.425797,139.780594,140.97403,7.34352,-0.158936,7.34352,-0.158936,140.000137,140.0,250.628372,69.852844,1105.602905,296.503357,279.57901,0.065136,0.017534,1087.426636,0.002612,0.146698,0.046739,0.0,1.0,2666.532227
93.454102,139.780594,140.97403,7.352802,-0.124354,7.352802,-0.124354,150.000137,150.0,256.164581,70.035133,1108.713135,296.498779,279.560059,0.066919,0.015028,1091.338501,0.002271,0.14687,0.04588,0.0,1.0,2666.825684
93.473488,139.780594,140.97403,7.358148,-0.114171,7.358148,-0.114171,150.000137,150.0,259.863525,70.153366,1110.563354,296.479126,279.545166,0.06655,0.010715,1093.859741,0.001776,0.147056,0.046109,0.0,1.0,2667.018311
93.503799,139.780594,140.97403,7.364607,-0.130928,7.364607,-0.130928,160.000137,160.0,265.422913,70.325912,1113.058716,296.443359,279.51944,0.063797,0.00348,1097.511475,0.001631,0.147163,0.047092,0.0,1.0,2667.305664
93.524445,139.780594,140.97403,7.369589,-0.159285,7.369589,-0.159285,160.000137,160.0,269.135773,70.437836,1114.596069,296.42688,279.499969,0.061171,1.17E-4,1099.854614,0.00187,0.147292,0.04888,0.0,1.0,2667.496826
93.554832,139.780594,140.97403,7.378048,-0.208858,7.378048,-0.208858,170.000137,170.0,274.714661,70.601173,1116.896362,296.428528,279.46759,0.057615,-2.53E-4,1103.226074,0.002275,0.147392,0.049704,0.0,1.0,2667.782959
93.573853,139.780594,140.97403,7.385321,-0.2346,7.385321,-0.2346,170.000137,170.0,278.44043,70.707085,1118.50708,296.447418,279.444153,0.056519,0.00247,1105.379883,0.002984,0.147561,0.049622,0.0,1.0,2667.972168
93.599686,139.780594,140.97403,7.396348,-0.24378,7.396348,-0.24378,170.000137,170.0,284.03952,70.861549,1121.074707,296.489105,279.407074,0.057138,0.008679,1108.484863,0.003351,0.147706,0.048677,0.0,1.0,2668.251709
93.615166,139.780594,140.97403,7.4041,-0.231267,7.4041,-0.231267,180.000137,180.0,287.77948,70.961601,1122.848022,296.514984,279.381531,0.058705,0.012334,1110.484497,0.003483,0.147927,0.046593,0.0,1.0,2668.434326
93.636948,139.780594,140.97403,7.412982,-0.196197,7.412982,-0.196197,180.000137,180.0,293.400543,71.107368,1125.452759,296.532257,279.342743,0.061409,0.01402,1113.401855,0.003304,0.148082,0.045299,0.0,1.0,2668.702148
93.651321,139.780594,140.97403,7.417982,-0.174164,7.417982,-0.174164,190.000137,190.0,297.154846,71.201714,1127.048584,296.526215,279.316803,0.062362,0.012205,1115.301025,0.002803,0.14826,0.044435,0.0,1.0,2668.877441
93.673607,139.780594,140.97403,7.423092,-0.163457,7.423092,-0.163457,190.000137,190.0,302.795715,71.339096,1129.177246,296.497803,279.277985,0.061792,0.006366,1118.026367,0.002488,0.14836,0.044737,0.0,1.0,2669.137207
93.689331,139.780594,140.97403,7.426388,-0.174307,7.426388,-0.174307,200.000137,200.0,306.561829,71.428009,1130.425049,296.475433,279.252136,0.060083,0.002096,1119.85376,0.002335,0.148462,0.046158,0.0,1.0,2669.309814
93.713409,139.780594,140.97403,7.431638,-0.211868,7.431638,-0.211868,200.000137,200.0,312.218506,71.55748,1132.180786,296.45636,279.213531,0.056639,-0.001601,1122.497681,0.00249,0.148528,0.047276,0.0,1.0,2669.568604
93.729088,139.780594,140.97403,7.436415,-0.240806,7.436415,-0.240806,210.000137,210.0,315.994476,71.641258,1133.360474,296.459229,279.188019,0.054781,-0.001364,1124.191772,0.003027,0.148633,0.04823,0.0,1.0,2669.740723
93.750877,139.780594,140.97403,7.444592,-0.268547,7.444592,-0.268547,210.000137,210.0,321.666107,71.763191,1135.252441,296.48587,279.150604,0.053679,0.002753,1126.632446,0.00344,0.148728,0.048087,0.0,1.0,2669.99707
93.763794,139.780594,140.97403,7.451021,-0.271023,7.451021,-0.271023,220.000137,220.0,325.452606,71.842018,1136.612793,296.511353,279.126617,0.054348,0.006661,1128.199707,0.003836,0.148892,0.046754,0.0,1.0,2670.165527
93.781067,139.780594,140.97403,7.459282,-0.249393,7.459282,-0.249393,220.000137,220.0,331.141113,71.956589,1138.716431,296.542023,279.092651,0.056715,0.011051,1130.479858,0.003872,0.14902,0.04548,0.0,1.0,2670.41333
93.797134,139.780594,140.97403,7.466138,-0.215659,7.466138,-0.215659,230.000137,230.0,336.839905,72.066826,1140.724487,296.548828,279.061646,0.058917,0.011283,1132.696167,0.003563,0.149186,0.043947,0.0,1.0,2670.655273
93.808022,139.780594,140.97403,7.469006,-0.199439,7.469006,-0.199439,230.000137,230.0,340.64447,72.137962,1141.925659,296.537903,279.042755,0.059491,0.008842,1134.144287,0.003237,0.149284,0.043558,0.0,1.0,2670.814209
93.819435,139.780594,140.97403,7.47155,-0.194114,7.47155,-0.194114,240.000137,240.0,344.452759,72.207268,1142.989868,296.51889,279.025208,0.058963,0.005164,1135.568115,0.002849,0.14938,0.044153,0.0,1.0,2670.972168
93.837608,139.780594,140.97403,7.474749,-0.21181,7.474749,-0.21181,240.000137,240.0,350.171417,72.307877,1144.399658,296.49057,279.001221,0.056561,-1.0E-4,1137.64856,0.002773,0.149431,0.045103,0.0,1.0,2671.208496
93.856155,139.780594,140.97403,7.479177,-0.247983,7.479177,-0.247983,250.000137,250.0,355.89682,72.404602,1145.720825,296.479767,278.979889,0.053658,-0.002169,1139.647705,0.003026,0.149495,0.046519,0.0,1.0,2671.445068
93.867981,139.780594,140.97403,7.482924,-0.270713,7.482924,-0.270713,250.000137,250.0,359.717468,72.46698,1146.63855,296.48761,278.967163,0.052296,-9.57E-4,1140.930176,0.003361,0.149551,0.047024,0.0,1.0,2671.602539
93.878502,139.780594,140.97403,7.487857,-0.293308,7.487857,-0.293308,250.000137,250.0,363.541321,72.527695,1147.636597,296.518097,278.955688,0.04479,0.004488,1142.173218,0.001289,0.149658,0.1,0.0,1.0,2671.759033
93.881462,139.780594,140.97403,7.505246,-0.322042,7.505246,-0.322042,260.000153,260.0,369.283875,72.615578,1149.472656,296.786407,278.941742,0.040684,0.047616,1143.973999,0.001397,0.149757,0.1,0.0,1.0,2671.984131
93.85685,139.780594,140.97403,7.538798,-0.149291,7.538798,-0.149291,270.000153,270.0,375.039154,72.699303,1152.871704,297.221741,278.935516,0.059953,0.113664,1145.740723,0.001534,0.150105,0.1,0.0,1.0,2672.175293
93.825317,139.780594,140.97403,7.558384,0.105703,7.558384,0.105703,270.000153,270.0,378.887421,72.752548,1155.986084,297.510925,278.938171,0.081311,0.154719,1146.898315,0.001123,0.150545,0.1,0.0,1.0,2672.272949
93.767021,139.780594,140.97403,7.574429,0.639188,7.574429,0.639188,280.000153,280.0,384.679901,72.828201,1160.809937,297.837494,278.955444,0.116198,0.194969,1148.917236,-5.03E-4,0.151168,0.1,0.0,1.0,2672.37207
93.728531,139.780594,140.97403,7.572547,1.029221,7.572547,1.029221,280.000153,280.0,388.553864,72.875748,1163.288208,297.956604,278.976532,0.135921,0.203689,1150.40625,-0.002137,0.15144,0.1,0.0,1.0,2672.413818
93.680305,139.780594,140.97403,7.563093,1.567689,7.563093,1.567689,290.000153,290.0,394.376099,72.942856,1165.217041,298.000885,279.022125,0.154078,0.19343,1152.831543,-0.004901,0.151451,0.1,0.0,1.0,2672.45874
93.656036,139.780594,140.97403,7.556437,1.843705,7.556437,1.843705,290.000153,290.0,398.260773,72.984947,1165.464478,297.97464,279.06076,0.157514,0.177085,1154.512939,-0.006677,0.151331,0.1,0.0,1.0,2672.487793
93.630013,139.780594,140.97403,7.546768,2.115062,7.546768,2.115062,300.000153,300.0,404.086517,73.044487,1164.643188,297.926636,279.128601,0.152151,0.151499,1156.985718,-0.00878,0.151129,0.1,0.0,1.0,2672.541016
93.617653,139.780594,140.97403,7.541318,2.206063,7.541318,2.206063,300.000153,300.0,407.966919,73.082001,1163.608643,297.928131,279.179138,0.144494,0.140034,1158.516235,-0.009736,0.150994,0.1,0.0,1.0,2672.585938
93.6026,139.780594,140.97403,7.532884,2.264003,7.532884,2.264003,300.000153,300.0,413.780396,73.1353,1161.807739,298.021179,279.261627,0.132681,0.137521,1160.520142,-0.010505,0.150826,0.1,0.0,1.0,2672.666748
93.5924,139.780594,140.97403,7.527977,2.284376,7.527977,2.284376,310.000153,310.0,417.651093,73.168953,1160.684937,298.148041,279.321014,0.127243,0.145829,1161.621338,-0.010721,0.150658,0.1,0.0,1.0,2672.726807
93.57328,139.780594,140.97403,7.523872,2.341831,7.523872,2.341831,310.000153,310.0,423.451172,73.21669,1159.507202,298.414185,279.417511,0.125118,0.169035,1162.902832,-0.010878,0.15056,0.1,0.0,1.0,2672.81958
93.556931,139.780594,140.97403,7.52232,2.415422,7.52232,2.415422,320.000153,320.0,427.315491,73.246666,1159.145752,298.619537,279.487671,0.127651,0.18764,1163.528076,-0.011031,0.150497,0.1,0.0,1.0,2672.87915
93.52774,139.780594,140.97403,7.519616,2.583571,7.519616,2.583571,320.000153,320.0,433.110779,73.288803,1159.024414,298.928589,279.603149,0.135391,0.213399,1164.187256,-0.011502,0.150446,0.1,0.0,1.0,2672.959717
93.50666,139.780594,140.97403,7.517196,2.723753,7.517196,2.723753,330.000153,330.0,436.974243,73.315002,1159.036499,299.117218,279.687653,0.141452,0.226277,1164.484375,-0.012303,0.150392,0.1,0.0,1.0,2673.00708
93.475632,139.780594,140.97403,7.512694,2.942721,7.512694,2.942721,330.000153,330.0,442.769226,73.351479,1158.914063,299.360046,279.826294,0.149194,0.237182,1164.77832,-0.01297,0.150344,0.1,0.0,1.0,2673.071533
93.456718,139.780594,140.97403,7.508678,3.079366,7.508678,3.079366,340.000153,340.0,446.631805,73.373962,1158.602783,299.497223,279.926605,0.152337,0.23952,1164.89624,-0.014013,0.150254,0.1,0.0,1.0,2673.112549
93.432152,139.780594,140.97403,7.502194,3.243884,7.502194,3.243884,340.000153,340.0,452.422729,73.40509,1157.700806,299.681915,280.088287,0.153516,0.238567,1164.968994,-0.014664,0.150174,0.1,0.0,1.0,2673.175537
93.418251,139.780594,140.97403,7.497095,3.324497,7.497095,3.324497,350.000153,350.0,456.280304,73.424202,1156.833374,299.803589,280.203094,0.152301,0.237233,1164.943726,-0.015447,0.150044,0.1,0.0,1.0,2673.220703
93.400215,139.780594,140.97403,7.489687,3.403622,7.489687,3.403622,350.000153,350.0,462.060547,73.450592,1155.283325,300.003082,280.385071,0.148898,0.237323,1164.7771,-0.015831,0.149942,0.1,0.0,1.0,2673.294678
93.38929,139.780594,140.97403,7.484257,3.438677,7.484257,3.438677,360.000153,360.0,465.909637,73.466736,1154.192261,300.154266,280.512573,0.146518,0.239891,1164.57019,-0.016208,0.149794,0.1,0.0,1.0,2673.348145
93.373184,139.780594,140.97403,7.477085,3.481069,7.477085,3.481069,360.000153,360.0,471.676514,73.488914,1152.63562,300.410675,280.712799,0.144083,0.247674,1164.108521,-0.016375,0.149685,0.1,0.0,1.0,2673.432617
93.36203,139.780594,140.97403,7.47227,3.512327,7.47227,3.512327,370.000153,370.0,475.517029,73.502373,1151.723755,300.597687,280.852264,0.143612,0.254806,1163.703613,-0.016577,0.149542,0.1,0.0,1.0,2673.490723
93.344177,139.780594,140.97403,7.46636,3.572047,7.46636,3.572047,370.000153,370.0,481.272583,73.520622,1150.574097,300.891388,281.070404,0.144622,0.26649,1162.970703,-0.016725,0.149445,0.1,0.0,1.0,2673.578613
93.331642,139.780594,140.97403,7.462439,3.621929,7.462439,3.621929,380.000153,380.0,485.10672,73.531525,1149.940186,301.088959,281.221832,0.146099,0.273797,1162.415283,-0.01701,0.149327,0.1,0.0,1.0,2673.636475
93.312515,139.780594,140.97403,7.45735,3.705766,7.45735,3.705766,380.000153,380.0,490.854187,73.546005,1149.088135,301.378906,281.457855,0.148707,0.282605,1161.513916,-0.017247,0.149249,0.1,0.0,1.0,2673.722412
93.300011,139.780594,140.97403,7.453722,3.763691,7.453722,3.763691,390.000153,390.0,494.683533,73.554451,1148.533936,301.565338,281.620911,0.150224,0.286732,1160.883911,-0.017647,0.149147,0.1,0.0,1.0,2673.779297
93.28228,139.780594,140.97403,7.448635,3.843165,7.448635,3.843165,390.000153,390.0,500.42395,73.565369,1147.635742,301.83551,281.873444,0.151645,0.290557,1159.915405,-0.017922,0.149074,0.1,0.0,1.0,2673.86499
93.271416,139.780594,140.97403,7.444854,3.888659,7.444854,3.888659,400.000153,400.0,504.248291,73.571541,1146.973877,302.011841,282.046661,0.15191,0.292068,1159.260376,-0.018301,0.148973,0.1,0.0,1.0,2673.923584
93.256439,139.780594,140.97403,7.439474,3.941604,7.439474,3.941604,400.000153,400.0,509.980408,73.579216,1145.887451,302.276794,282.313019,0.151464,0.293839,1158.266479,-0.018517,0.148897,0.1,0.0,1.0,2674.013672
93.242195,139.780594,140.97403,7.435518,3.968439,7.435518,3.968439,410.000153,410.0,513.798706,73.583328,1145.11084,302.456909,282.494415,0.150754,0.295266,1157.595093,-0.01877,0.148789,0.1,0.0,1.0,2674.074951
93.193291,139.780594,140.97403,7.430309,3.992512,7.430309,3.992512,410.000153,410.0,519.520142,73.58812,1143.422119,302.739441,282.771576,0.148129,0.298802,1156.566162,-0.018897,0.14871,0.1,0.0,1.0,2674.139648
93.16198,139.780594,140.97403,7.425802,3.997605,7.425802,3.997605,420.000153,420.0,523.329285,73.590454,1142.075562,302.941406,282.959381,0.146071,0.302821,1155.850708,-0.019012,0.148606,0.1,0.0,1.0,2674.165771
93.116165,139.780594,140.97403,7.417323,3.998954,7.417323,3.998954,420.000153,420.0,529.033997,73.592781,1139.845825,303.267578,283.245392,0.143792,0.311626,1154.702759,-0.019036,0.148516,0.1,0.0,1.0,2674.188721
93.085983,139.780594,140.97403,7.410398,4.002906,7.410398,4.002906,430.000153,430.0,532.83075,73.59359,1138.262695,303.497986,283.438873,0.143209,0.318877,1153.872803,-0.019043,0.148346,0.1,0.0,1.0,2674.196777
93.04097,139.780594,140.97403,7.400811,4.021382,7.400811,4.021382,430.000153,430.0,538.515869,73.593735,1135.873779,303.85437,283.733551,0.143792,0.330366,1152.513184,-0.019061,0.148208,0.1,0.0,1.0,2674.200928
93.011177,139.780594,140.97403,7.393981,4.043185,7.393981,4.043185,430.000153,430.0,542.299438,73.593147,1134.312622,304.093292,283.933014,0.1449,0.337486,1151.526489,-0.019149,0.148016,0.1,0.0,1.0,2674.199951
92.967308,139.780594,140.97403,7.384533,4.086126,7.384533,4.086126,440.000153,440.0,547.965027,73.591263,1131.984619,304.445831,284.236816,0.146974,0.346169,1149.92981,-0.019253,0.14788,0.1,0.0,1.0,2674.194824
92.938988,139.780594,140.97403,7.377544,4.117913,7.377544,4.117913,440.000153,440.0,551.735596,73.589378,1130.411011,304.674438,284.442322,0.148224,0.350319,1148.792603,-0.019458,0.147691,0.1,0.0,1.0,2674.190186
92.898445,139.780594,140.97403,7.367602,4.161953,7.367602,4.161953,450.000153,450.0,557.381348,73.585663,1127.954468,305.007996,284.754761,0.149425,0.354278,1146.986328,-0.019609,0.147551,0.1,0.0,1.0,2674.184082
92.872902,139.780594,140.97403,7.360227,4.186121,7.360227,4.186121,450.000153,450.0,561.138245,73.582642,1126.247803,305.226044,284.965546,0.149659,0.355828,1145.71875,-0.019819,0.147352,0.1,0.0,1.0,2674.181396
92.836876,139.780594,140.97403,7.349811,4.211075,7.349811,4.211075,460.000153,460.0,566.762695,73.577354,1123.595215,305.551788,285.285065,0.149269,0.357458,1143.72522,-0.019934,0.147205,0.1,0.0,1.0,2674.181152
92.814247,139.780594,140.97403,7.342165,4.221021,7.342165,4.221021,460.000153,460.0,570.504944,73.573387,1121.796387,305.770782,285.5,0.148697,0.358579,1142.335938,-0.020053,0.146996,0.1,0.0,1.0,2674.184082
92.782005,139.780594,140.97403,7.331608,4.228588,7.331608,4.228588,470.000153,470.0,576.106934,73.566826,1119.101196,306.105438,285.82489,0.147751,0.360878,1140.165161,-0.0201,0.146843,0.1,0.0,1.0,2674.193115
92.761406,139.780594,140.97403,7.324063,4.231408,7.324063,4.231408,470.000153,470.0,579.834229,73.562088,1117.345825,306.33313,286.042938,0.14726,0.362902,1138.663818,-0.020136,0.146632,0.1,0.0,1.0,2674.202393
92.731529,139.780594,140.97403,7.313982,4.23615,7.313982,4.23615,480.000153,480.0,585.414368,73.554482,1114.806152,306.680542,286.371948,0.146924,0.366502,1136.341797,-0.02015,0.146481,0.1,0.0,1.0,2674.220703
92.712181,139.780594,140.97403,7.306933,4.241195,7.306933,4.241195,480.000153,480.0,589.127563,73.54911,1113.196045,306.914551,286.592499,0.146984,0.369021,1134.755737,-0.020172,0.14628,0.1,0.0,1.0,2674.235352
92.68399,139.780594,140.97403,7.297634,4.252298,7.297634,4.252298,490.000153,490.0,594.687561,73.540627,1110.890137,307.266418,286.924896,0.147388,0.372543,1132.337646,-0.020196,0.146139,0.1,0.0,1.0,2674.260986
92.665802,139.780594,140.97403,7.291142,4.261612,7.291142,4.261612,490.000153,490.0,598.388,73.534706,1109.424683,307.500061,287.14743,0.147751,0.3745,1130.710449,-0.020249,0.145953,0.1,0.0,1.0,2674.280518
92.639519,139.780594,140.97403,7.282507,4.276361,7.282507,4.276361,500.000153,500.0,603.929565,73.525482,1107.296021,307.847992,287.48233,0.148246,0.376703,1128.264771,-0.020293,0.145823,0.1,0.0,1.0,2674.312988
92.622742,139.780594,140.97403,7.276419,4.285632,7.276419,4.285632,500.000153,500.0,607.618164,73.519127,1105.919312,308.078125,287.706146,0.148456,0.377698,1126.639893,-0.020364,0.14565,0.1,0.0,1.0,2674.336914
92.598747,506.857697,508.051147,7.268228,4.296755,7.268228,4.296755,510.000153,510.0,613.142517,73.509308,1103.892456,308.4216,288.042389,0.148533,0.378688,1124.222534,-0.020408,0.145528,0.1,0.0,1.0,2674.376953
92.583527,510.570374,511.763794,7.262419,4.302008,7.262419,4.302008,510.000153,510.0,616.819885,73.502609,1102.57251,308.650146,288.266693,0.148439,0.379163,1122.629272,-0.020461,0.145365,0.1,0.0,1.0,2674.406006
92.56179,516.129517,517.322998,7.254608,4.306592,7.254608,4.306592,520.000122,520.0,622.327759,73.490074,1100.635864,308.993805,288.603027,0.148163,0.37986,1120.273071,-0.020486,0.145248,0.1,0.0,1.0,2674.453857
92.547981,519.829224,521.022705,7.249097,4.308043,7.249097,4.308043,520.000122,520.0,625.994385,73.481422,1099.387695,309.223999,288.827026,0.147952,0.380405,1118.727295,-0.020508,0.145092,0.1,0.0,1.0,2674.488525
92.528107,525.369446,526.562866,7.241762,4.308956,7.241762,4.308956,520.000122,520.0,631.486633,73.468399,1097.582397,309.571289,289.162476,0.147689,0.381418,1116.450317,-0.020514,0.144982,0.1,0.0,1.0,2674.543945
92.51535,529.056824,530.250244,7.236638,4.309421,7.236638,4.309421,530.000122,530.0,635.14325,73.459717,1096.435791,309.803986,289.38562,0.147587,0.382188,1114.962402,-0.020519,0.144835,0.1,0.0,1.0,2674.583252
92.496887,534.579041,535.772522,7.229885,4.31074,7.229885,4.31074,530.000122,530.0,640.621155,73.446693,1094.794312,310.154175,289.719452,0.147556,0.383394,1112.780029,-0.020521,0.144733,0.1,0.0,1.0,2674.645752
92.485001,538.254822,539.448242,7.225193,4.312207,7.225193,4.312207,540.000122,540.0,644.268677,73.438034,1093.757935,310.387817,289.941376,0.147603,0.384144,1111.360596,-0.020527,0.144598,0.1,0.0,1.0,2674.689209
92.467804,543.760193,544.953674,7.21901,4.31512,7.21901,4.31512,540.000122,540.0,649.733582,73.425102,1092.272583,310.738007,290.273132,0.147719,0.385098,1109.289185,-0.020534,0.144504,0.1,0.0,1.0,2674.757568
92.456787,547.425171,548.618591,7.214702,4.317258,7.214702,4.317258,550.000122,550.0,653.372864,73.416527,1091.32959,310.970947,290.49353,0.147793,0.385579,1107.94873,-0.020548,0.14438,0.1,0.0,1.0,2674.805176
92.440964,552.914917,554.108337,7.208993,4.32011,7.208993,4.32011,550.000122,550.0,658.825928,73.403755,1089.967773,311.31955,290.822845,0.147855,0.386086,1106.000977,-0.020558,0.144294,0.1,0.0,1.0,2674.87915
92.43087,556.569763,557.763245,7.204996,4.321506,7.204996,4.321506,560.000122,560.0,662.457642,73.395317,1089.097168,311.551544,291.041473,0.147852,0.386306,1104.745361,-0.020572,0.14418,0.1,0.0,1.0,2674.930176
92.416389,562.044983,563.238464,7.199678,4.322552,7.199678,4.322552,560.000122,560.0,667.899902,73.382782,1087.835938,311.899323,291.367981,0.147783,0.386548,1102.926392,-0.020579,0.1441,0.1,0.0,1.0,2675.009766
92.407166,565.690552,566.884033,7.195952,4.32258,7.195952,4.32258,570.000122,570.0,671.524597,73.374527,1087.029785,312.131226,291.584717,0.14771,0.386687,1101.75647,-0.020584,0.143994,0.1,0.0,1.0,2675.064697
92.393929,571.152283,572.345764,7.191009,4.321866,7.191009,4.321866,570.000122,570.0,676.956726,73.362312,1085.86731,312.479553,291.908295,0.147588,0.386926,1100.064331,-0.020584,0.143919,0.1,0.0,1.0,2675.149658
92.385468,574.789185,575.982605,7.187559,4.321083,7.187559,4.321083,570.000122,570.0,680.575012,73.354286,1085.129395,312.712097,292.123047,0.147516,0.387111,1098.977417,-0.02058,0.14382,0.1,0.0,1.0,2675.208008
92.373306,580.238403,581.431824,7.183002,4.319829,7.183002,4.319829,580.000122,580.0,685.997925,73.342445,1084.072998,313.061432,292.443726,0.147438,0.38743,1097.407593,-0.020577,0.143751,0.1,0.0,1.0,2675.297852
92.365517,583.867188,585.060669,7.179833,4.319056,7.179833,4.319056,580.000122,580.0,689.610291,73.334686,1083.406494,313.294464,292.656616,0.147409,0.387646,1096.400879,-0.020571,0.14366,0.1,0.0,1.0,2675.359131
92.354286,589.30481,590.49823,7.175663,4.318145,7.175663,4.318145,590.000122,590.0,695.024902,73.323265,1082.4552,313.644165,292.974609,0.147396,0.387952,1094.949463,-0.020567,0.143597,0.1,0.0,1.0,2675.453613
92.347092,592.926208,594.119629,7.172766,4.317667,7.172766,4.317667,590.000122,590.0,698.632019,73.315804,1081.855835,313.877167,293.185822,0.147398,0.388118,1094.020386,-0.020563,0.143513,0.1,0.0,1.0,2675.517822
92.336731,598.353027,599.546509,7.168946,4.317059,7.168946,4.317059,600.000122,600.0,704.039063,73.304855,1080.998779,314.226501,293.501465,0.147404,0.388304,1092.68396,-0.02056,0.143455,0.1,0.0,1.0,2675.616455
92.330116,601.96759,603.161011,7.166287,4.316611,7.166287,4.316611,600.000122,600.0,707.641479,73.297714,1080.457275,314.459167,293.711212,0.147401,0.388379,1091.830322,-0.020557,0.143379,0.1,0.0,1.0,2675.68335
92.320511,607.383606,608.577026,7.162837,4.315803,7.162837,4.315803,610.000122,610.0,713.041687,73.287262,1079.682495,314.807922,294.024902,0.147389,0.388438,1090.557251,-0.020555,0.143326,0.1,0.0,1.0,2675.7854
92.314522,610.992004,612.185425,7.160372,4.315032,7.160372,4.315032,610.000122,610.0,716.639832,73.280472,1079.194946,315.040283,294.233459,0.147355,0.388449,1089.793701,-0.020551,0.143257,0.1,0.0,1.0,2675.85498
92.305916,616.400146,617.593628,7.157082,4.313558,7.157082,4.313558,620.000122,620.0,722.033936,73.270561,1078.490234,315.388916,294.545563,0.147292,0.388462,1088.690918,-0.020548,0.143207,0.1,0.0,1.0,2675.960938
92.30043,620.002747,621.196167,7.154816,4.312407,7.154816,4.312407,620.000122,620.0,725.628174,73.264145,1078.044312,315.621368,294.753235,0.14725,0.388475,1087.984619,-0.020541,0.143142,0.1,0.0,1.0,2676.032959
92.292549,625.402466,626.595886,7.151855,4.310602,7.151855,4.310602,620.000122,620.0,731.016724,73.254799,1077.411011,315.970215,295.06424,0.147192,0.388515,1086.968506,-0.020535,0.143096,0.1,0.0,1.0,2676.142334
92.287514,628.999634,630.193115,7.149795,4.309389,7.149795,4.309389,630.000122,630.0,734.607422,73.248764,1077.015137,316.20282,295.271301,0.147163,0.388546,1086.319824,-0.020527,0.143037,0.1,0.0,1.0,2676.216309
