airspeed_indicator_indicated_speed_kt,altimeter_indicated_altitude_ft,altimeter_pressure_alt_ft,attitude_indicator_indicated_pitch_deg,attitude_indicator_indicated_roll_deg,attitude_indicator_internal_pitch_deg,attitude_indicator_internal_roll_deg,encoder_indicated_altitude_ft,encoder_pressure_alt_ft,gps_indicated_altitude_ft,gps_indicated_ground_speed_kt,gps_indicated_vertical_speed,indicated_heading_deg,magnetic_compass_indicated_heading_deg,slip_skid_ball_indicated_slip_skid,turn_indicator_indicated_turn_rate,vertical_speed_indicator_indicated_speed_fpm,flight_aileron,flight_elevator,flight_rudder,flight_flaps,engine_throttle,engine_rpm
6.463859,-87.924377,-86.730927,2.969801,1.356859,2.590667,0.093077,-89.999855,-90.0,2.286485,0.0,0.007771,297.868134,275.46991,0.012344,-0.051457,-20.46022,-0.0,0.0,0.0,0.0,0.0,600.175903
6.544784,-87.942505,-86.749062,2.927534,1.215715,2.590656,0.092789,-89.999855,-90.0,2.286525,0.0,0.004589,297.866852,278.91037,0.012344,-0.044286,-19.41025,-0.019384,0.051813,0.0,0.0,1.0,608.586121
6.58002,-87.951591,-86.758141,2.777983,0.740215,2.583615,0.092321,-89.999855,-90.0,2.286513,3.4E-5,-0.011791,297.865997,281.0914,0.012314,-0.040256,-13.566561,-0.017367,0.051813,6.4E-5,0.0,1.0,668.998718
6.647157,-87.963081,-86.769638,2.576715,0.197124,2.544483,0.089687,-89.999855,-90.0,2.286374,2.32E-4,-0.043411,297.864441,284.528442,0.012153,-0.034609,-18.066711,-0.010575,0.051672,1.07E-4,0.0,1.0,852.912598
6.724695,-87.969154,-86.775711,2.50872,0.085529,2.50872,0.085529,-89.999855,-90.0,2.286258,7.84E-4,-0.018322,297.863251,286.776184,0.012252,-0.031337,-10.568984,-0.002816,0.05089,1.85E-4,0.0,1.0,1011.287537
6.921817,-87.976036,-86.782593,2.490609,0.075566,2.490609,0.075566,-89.999855,-90.0,2.286325,0.003981,0.042507,297.861206,289.871552,0.011987,-0.027324,-18.649584,-0.001222,0.050174,2.44E-4,0.0,1.0,1252.376465
7.119546,-87.97963,-86.786186,2.495394,0.066887,2.495394,0.066887,-89.999855,-90.0,2.286539,0.00907,0.081831,297.859314,291.824036,0.011393,-0.025102,-11.696174,-0.00108,0.049812,3.46E-4,0.0,1.0,1407.627441
7.510965,-87.983719,-86.790276,2.513842,0.052485,2.513842,0.052485,-89.999855,-90.0,2.287079,0.023182,0.138707,297.854767,294.486084,0.010565,-0.022571,-18.557066,-9.56E-4,0.049908,4.41E-4,0.0,1.0,1611.230469
7.848012,-87.98587,-86.792427,2.529744,0.042237,2.529744,0.042237,-89.999855,-90.0,2.287602,0.038919,0.176189,297.849609,296.170807,0.00899,-0.021374,-16.919878,-7.5E-4,0.050277,6.68E-4,0.0,1.0,1730.772461
8.450976,-87.988274,-86.79483,2.553896,0.027446,2.553896,0.027446,-89.999855,-90.0,2.288623,0.074122,0.234606,297.837219,298.463257,0.007762,-0.020527,-16.373344,-6.03E-4,0.050595,9.26E-4,0.0,1.0,1877.745117
8.927971,-87.989449,-86.796005,2.569696,0.018287,2.569696,0.018287,-89.999855,-90.0,2.289506,0.108019,0.273127,297.823944,299.879272,0.005955,-0.02072,-9.135944,-3.92E-4,0.051078,0.001546,0.0,1.0,1958.368408
9.684725,-87.990547,-86.797096,2.589099,0.007259,2.589099,0.007259,-89.999855,-90.0,2.291043,0.172081,0.338712,297.798431,301.651886,0.010939,-0.02192,-15.17836,-2.61E-4,0.051394,0.002209,0.0,1.0,2047.905151
9.952001,-87.990768,-86.797325,2.594833,0.004199,2.594833,0.004199,-89.999855,-90.0,2.291629,0.197682,0.361791,297.788086,302.170959,0.012411,-0.022564,-16.138247,-2.61E-4,0.051394,0.002209,0.0,1.0,2071.767578
9.952001,-87.990768,-86.797325,2.594833,0.004199,2.594833,0.004199,-89.999855,-90.0,2.291629,0.197682,0.361791,297.788086,302.170959,0.012411,-0.022564,-16.138247,-2.61E-4,0.051394,0.002209,0.0,1.0,2071.767578
11.641579,-87.991264,-86.797821,2.621389,-0.007855,2.621389,-0.007855,-89.999855,-90.0,2.295924,0.39519,0.504786,297.710754,304.490875,0.018606,-0.028067,-18.099005,-6.0E-5,0.051897,0.004002,0.0,1.0,2167.133545
12.497323,-87.990509,-86.797066,2.630346,-0.011113,2.630346,-0.011113,-89.999855,-90.0,2.298492,0.518441,0.579649,297.663574,305.145844,0.020622,-0.03159,-15.02798,1.12E-4,0.052428,0.007869,0.0,1.0,2192.834473
13.161337,-87.98967,-86.796227,2.635579,-0.01251,2.635579,-0.01251,-89.999855,-90.0,2.300697,0.625332,0.638,297.628845,305.45108,0.021593,-0.033702,-10.640893,1.59E-4,0.052607,0.010228,0.0,1.0,2206.65332
14.119255,-87.988098,-86.794647,2.642125,-0.013413,2.642125,-0.013413,-89.999855,-90.0,2.304206,0.796198,0.72375,297.584778,305.60199,0.022655,-0.035451,9.909897,1.79E-4,0.052712,0.011964,0.0,1.0,2220.37207
15.006913,-87.986259,-86.792816,2.647797,-0.013163,2.647797,-0.013163,-89.999855,-90.0,2.307822,0.972353,0.803872,297.549957,305.460144,0.023437,-0.035924,18.565165,1.92E-4,0.052843,0.014168,0.0,1.0,2230.132568
15.66298,-87.984673,-86.791229,2.651756,-0.01256,2.651756,-0.01256,-89.999855,-90.0,2.310724,1.113368,0.86373,297.529419,305.194122,0.024013,-0.035417,14.679016,1.9E-4,0.052917,0.015337,0.0,1.0,2236.0979
16.294453,-87.982964,-86.78952,2.65563,-0.011757,2.65563,-0.011757,-89.999855,-90.0,2.313705,1.257746,0.921209,297.512726,304.817688,0.024533,-0.034498,10.051031,1.79E-4,0.053035,0.016936,0.0,1.0,2241.046143
17.27079,-87.979958,-86.786514,2.661413,-0.010301,2.661413,-0.010301,-89.999855,-90.0,2.318677,1.497277,1.00994,297.493958,304.022675,0.025484,-0.032156,12.627739,1.68E-4,0.053113,0.01777,0.0,1.0,2247.485352
17.905245,-87.977776,-86.784332,2.665256,-0.009162,2.665256,-0.009162,-89.999855,-90.0,2.322148,1.663419,1.067754,297.48526,303.380035,0.026089,-0.03028,10.436893,1.47E-4,0.053228,0.018709,0.0,1.0,2251.050293
18.83143,-87.974266,-86.780823,2.670756,-0.00729,2.670756,-0.00729,-89.999855,-90.0,2.327555,1.920538,1.152901,297.476593,302.28476,0.027023,-0.02724,15.483677,1.31E-4,0.053305,0.019144,0.0,1.0,2255.5896
19.466913,-87.971626,-86.778183,2.674638,-0.005795,2.674638,-0.005795,-89.999855,-90.0,2.331501,2.106798,1.210581,297.472107,301.438416,0.027561,-0.025178,15.735847,1.04E-4,0.053415,0.019577,0.0,1.0,2258.344482
20.446424,-87.967201,-86.773758,2.680547,-0.003191,2.680547,-0.003191,-89.999855,-90.0,2.337964,2.409398,1.300284,297.465637,300.006653,0.028159,-0.260195,12.377344,8.3E-5,0.053493,0.019801,0.0,1.0,2262.157715
21.05521,-87.964226,-86.770782,2.684307,-0.001357,2.684307,-0.001357,-89.999855,-90.0,2.342213,2.60673,1.355586,297.460785,299.052582,0.028345,-0.465286,14.559053,4.6E-5,0.053611,0.020125,0.0,1.0,2264.320068
22.033993,-87.959076,-86.765633,2.690316,0.001931,2.690316,0.001931,-89.999855,-90.0,2.349423,2.938617,1.445255,297.450287,297.440033,0.028185,-0.756549,14.567312,1.9E-5,0.053686,0.020367,0.0,1.0,2267.546875
22.668579,-87.955498,-86.762054,2.694346,0.004269,2.694346,0.004269,-89.999855,-90.0,2.354346,3.16319,1.504409,297.440918,296.357056,0.027804,-0.92279,18.609295,-2.8E-5,0.053806,0.020892,0.0,1.0,2269.509766
23.59256,-87.949951,-86.756508,2.70018,0.007902,2.70018,0.007902,-89.999855,-90.0,2.361872,3.503434,1.588585,297.423798,294.748138,0.026766,-1.13723,6.963818,-6.1E-5,0.053887,0.021361,0.0,1.0,2272.234619
24.199194,-87.946083,-86.75264,2.704183,0.01044,2.704183,0.01044,-89.999855,-90.0,2.367044,3.735056,1.644389,297.410095,293.683746,0.025776,-1.262014,15.008435,-1.13E-4,0.054004,0.022217,0.0,1.0,2273.955322
25.200146,-87.939331,-86.745888,2.71078,0.014665,2.71078,0.014665,-89.999855,-90.0,2.375978,4.131292,1.736302,297.384583,291.936279,0.024104,-1.443647,9.787334,-1.49E-4,0.054084,0.022902,0.0,1.0,2276.70752
26.094086,-87.932877,-86.739433,2.716923,0.018488,2.716923,0.018488,-89.999855,-90.0,2.384384,4.499725,1.818971,297.359344,290.407318,0.022223,-1.583452,16.240473,-2.09E-4,0.054216,0.024178,0.0,1.0,2279.097412
26.750134,-87.927887,-86.734444,2.723954,0.022757,2.723954,0.022757,-89.999855,-90.0,2.391038,4.778759,2.006984,297.340393,289.317017,0.021415,-1.674301,15.563612,-2.64E-4,0.054338,0.02544,0.0,1.0,2280.822021
27.692583,-87.920212,-86.726768,2.734511,0.031521,2.734511,0.031521,-89.999855,-90.0,2.401558,5.192307,2.185719,297.314178,287.81485,0.019496,-1.789537,15.202115,-3.25E-4,0.054479,0.026387,0.0,1.0,2283.269043
28.293581,-87.914963,-86.721519,2.738808,0.0342,2.738808,0.0342,-89.999855,-90.0,2.408641,5.463577,2.243533,297.298401,286.905579,0.01834,-1.854591,15.480865,-4.5E-4,0.05469,0.027698,0.0,1.0,2284.814697
28.945917,-87.908974,-86.71553,2.743106,0.0367,2.743106,0.0367,-89.999855,-90.0,2.416552,5.764512,2.308415,297.282898,285.968628,0.017574,-1.918565,18.767174,-4.89E-4,0.054776,0.028487,0.0,1.0,2286.48291
29.885637,-87.89978,-86.706337,2.749738,0.040214,2.749738,0.040214,-89.999855,-90.0,2.42835,6.208681,2.404783,297.263733,284.724304,0.016866,-1.999711,14.13924,-5.24E-4,0.054862,0.029262,0.0,1.0,2288.87793
30.823442,-87.889946,-86.696503,2.75686,0.043796,2.75686,0.043796,-89.999855,-90.0,2.440631,6.66523,2.501688,297.246643,283.61618,0.016541,-2.069532,10.630362,-5.74E-4,0.054995,0.03022,0.0,1.0,2291.27002
31.473282,-87.882759,-86.689316,2.761781,0.046358,2.761781,0.046358,-89.999855,-90.0,2.449443,6.989335,2.568613,297.235596,282.932648,0.016481,-2.1122,19.44486,-6.1E-4,0.055094,0.030823,0.0,1.0,2292.928711
32.096226,-87.87561,-86.682167,2.766649,0.048992,2.766649,0.048992,-89.999855,-90.0,2.458122,7.305766,2.632791,297.22467,282.345795,0.016352,-2.149178,16.716026,-6.62E-4,0.055236,0.031627,0.0,1.0,2294.519531
33.029346,-87.864418,-86.670975,2.773821,0.053162,2.773821,0.053162,-89.999855,-90.0,2.47154,7.78986,2.733145,297.207031,281.596649,0.015899,-2.198139,19.994972,-7.0E-4,0.055333,0.032173,0.0,1.0,2296.903076
33.907452,-87.853355,-86.659912,2.780709,0.057448,2.780709,0.057448,-89.999855,-90.0,2.484653,8.257145,2.819163,297.187378,281.036133,0.014966,-2.238089,10.956707,-7.59E-4,0.055476,0.033055,0.0,1.0,2299.151367
34.578094,-87.844589,-86.651146,2.790104,0.060917,2.790104,0.060917,-89.999855,-90.0,2.49518,8.620877,3.030055,297.169739,280.704193,0.013986,-2.265033,14.981458,-8.21E-4,0.055614,0.034038,0.0,1.0,2300.869141
35.169197,-87.836487,-86.643044,2.797652,0.064057,2.797652,0.064057,-89.999855,-90.0,2.50561,8.947124,3.291257,297.152374,280.479767,0.012765,-2.286548,16.275572,-8.7E-4,0.055802,0.03492,0.0,1.0,2302.387695
36.092995,-87.823082,-86.629639,2.804452,0.069101,2.804452,0.069101,-89.999855,-90.0,2.522316,9.465976,3.386587,297.122894,280.256165,0.010511,-2.316338,18.354649,-9.15E-4,0.055953,0.035788,0.0,1.0,2304.762695
37.014469,-87.808907,-86.615463,2.811338,0.074188,2.811338,0.074188,-89.999855,-90.0,2.539523,9.994508,3.490223,297.090637,280.182922,0.007966,-2.34197,11.233054,-9.87E-4,0.056089,0.037262,0.0,1.0,2307.136475
37.627171,-87.799042,-86.605598,2.816165,0.077529,2.816165,0.077529,-89.999855,-90.0,2.551285,10.352058,3.559996,297.068237,280.213654,0.006321,-2.357039,19.516451,-0.00106,0.056227,0.038875,0.0,1.0,2308.717529
38.238781,-87.788887,-86.595444,2.820968,0.08065,2.820968,0.08065,-89.999855,-90.0,2.56328,10.713642,3.630337,297.046448,280.304565,0.004816,-2.37067,19.080547,-0.001108,0.056323,0.039995,0.0,1.0,2310.29834
39.179272,-87.772675,-86.579231,2.828548,0.08531,2.828548,0.08531,-89.999855,-90.0,2.582234,11.278742,3.739401,297.015289,280.554962,0.002917,-2.389183,9.745169,-0.001152,0.056419,0.041084,0.0,1.0,2312.734131
40.065781,-87.756737,-86.563293,2.8399,0.090234,2.8399,0.090234,-89.999855,-90.0,2.600721,11.821548,3.879984,296.988129,280.903961,0.001841,-2.40425,8.945895,-0.001219,0.056571,0.042642,0.0,1.0,2315.036621
40.671703,-87.745468,-86.552025,2.851023,0.09517,2.851023,0.09517,-89.999855,-90.0,2.614144,12.198226,4.268538,296.970459,281.199615,0.001346,-2.41338,12.98189,-0.001289,0.056798,0.044,0.0,1.0,2316.614258
41.250751,-87.734261,-86.540817,2.855742,0.099393,2.855742,0.099393,-89.999855,-90.0,2.628066,12.56251,4.402857,296.954437,281.521301,8.92E-4,-2.421312,15.850581,-0.00136,0.05702,0.044884,0.0,1.0,2318.125
42.179893,-87.715363,-86.521919,2.860503,0.103725,2.860503,0.103725,-89.999855,-90.0,2.650988,13.15509,4.514433,296.930389,282.107513,5.49E-4,-2.432575,19.33913,-0.00142,0.057115,0.045685,0.0,1.0,2320.553711
42.781261,-87.702583,-86.50914,2.86467,0.106618,2.86467,0.106618,-89.999855,-90.0,2.666177,13.543651,4.596933,296.914703,282.526337,3.95E-4,-2.439005,18.04303,-0.001482,0.05721,0.046887,0.0,1.0,2322.127686
43.654312,-87.683289,-86.489838,2.871404,0.110942,2.871404,0.110942,-89.999855,-90.0,2.688787,14.115978,4.703619,296.891113,283.180481,1.75E-4,-2.447298,18.883001,-0.001523,0.057293,0.047672,0.0,1.0,2325.294434
44.575146,-87.662086,-86.468643,2.880385,0.11598,2.880385,0.11598,-89.999855,-90.0,2.713365,14.728055,4.901346,296.863373,283.913544,-4.08E-4,-2.454842,18.324217,-0.001585,0.057428,0.048851,0.0,1.0,2329.977051
45.195709,-87.647224,-86.453781,2.890798,0.119819,2.890798,0.119819,-89.999855,-90.0,2.731685,15.145568,5.38868,296.842224,284.424652,-0.001163,-2.459318,13.792144,-0.001657,0.057608,0.050238,0.0,1.0,2333.601807
45.790562,-87.632393,-86.43895,2.896383,0.124425,2.896383,0.124425,-89.999855,-90.0,2.749813,15.549281,5.488766,296.820435,284.921722,-0.002146,-2.463197,19.356037,-0.001712,0.057816,0.051296,0.0,1.0,2337.300537
46.657261,-87.60981,-86.416359,2.902699,0.129616,2.902699,0.129616,-89.999855,-90.0,2.776782,16.142981,5.602988,296.787109,285.648682,-0.004204,-2.468201,17.120644,-0.001778,0.057928,0.052385,0.0,1.0,2342.941406
47.547947,-87.585571,-86.39212,2.909701,0.13483,2.909701,0.13483,-89.999855,-90.0,2.805131,16.759584,5.729201,296.750549,286.386841,-0.006563,-2.472639,17.94862,-0.001852,0.058054,0.054051,0.0,1.0,2348.930664
48.14122,-87.568886,-86.375443,2.914581,0.13822,2.914581,0.13822,-89.999855,-90.0,2.824384,17.173897,5.813779,296.72525,286.867065,-0.008188,-2.475248,18.445692,-0.001926,0.058194,0.055879,0.0,1.0,2352.987061
48.758789,-87.551094,-86.357651,2.919546,0.141455,2.919546,0.141455,-89.999855,-90.0,2.844739,17.608156,5.901974,296.699249,287.3526,-0.009658,-2.477701,10.696028,-0.001975,0.058292,0.057144,0.0,1.0,2357.247314
49.622173,-87.525475,-86.332031,2.933571,0.153664,2.933571,0.153664,-89.999855,-90.0,2.87482,18.220591,6.603147,296.665253,288.0,-0.011054,-2.480733,16.344185,-0.002021,0.058391,0.058444,0.0,1.0,2363.251221
50.507687,-87.49765,-86.304199,2.944597,0.1604,2.944597,0.1604,-89.999855,-90.0,2.909405,18.855774,6.972776,296.632202,288.617554,-0.012693,-2.483422,19.756004,-0.002195,0.058671,0.060144,0.0,1.0,2369.455078
51.097691,-87.47821,-86.284767,2.948847,0.163184,2.948847,0.163184,-89.999855,-90.0,2.932806,19.282091,7.059431,296.611145,288.997589,-0.013234,-2.485003,21.539415,-0.002291,0.058892,0.061797,0.0,1.0,2373.601807
51.981968,-87.447937,-86.254494,2.955085,0.166943,2.955085,0.166943,-89.999855,-90.0,2.968469,19.925728,7.198205,296.581665,289.514679,-0.013474,-2.487096,15.839934,-0.002331,0.058977,0.062849,0.0,1.0,2379.834473
52.570805,-87.427071,-86.233627,2.959723,0.169499,2.959723,0.169499,-89.999855,-90.0,2.992636,20.357512,7.293736,296.562317,289.821503,-0.013381,-2.488326,16.30442,-0.002385,0.059102,0.064323,0.0,1.0,2383.995605
53.453022,-87.394859,-86.201416,2.966573,0.173089,2.966573,0.173089,-89.999855,-90.0,3.029485,21.009094,7.436462,296.533478,290.221313,-0.012871,-2.489955,16.996738,-0.002421,0.059194,0.065291,0.0,1.0,2390.245117
54.040627,-87.372826,-86.179375,2.971293,0.175625,2.971293,0.175625,-89.999855,-90.0,3.05445,21.446011,7.533065,296.513245,290.446045,-0.012561,-2.490913,17.407663,-0.002473,0.059331,0.066733,0.0,1.0,2394.41626
54.652218,-87.349434,-86.155991,2.975963,0.178125,2.975963,0.178125,-89.999855,-90.0,3.080796,21.903219,7.632214,296.491241,290.643738,-0.012246,-2.491814,21.046051,-0.002509,0.059426,0.067744,0.0,1.0,2398.765625
55.507477,-87.315948,-86.122505,2.982437,0.181703,2.982437,0.181703,-89.999855,-90.0,3.11826,22.546783,7.771557,296.458801,290.857361,-0.012039,-2.492927,18.348116,-0.002545,0.059519,0.068845,0.0,1.0,2404.861084
56.117744,-87.291542,-86.098099,2.987181,0.18433,2.987181,0.18433,-89.999855,-90.0,3.145437,23.008875,7.87151,296.433655,290.964783,-0.012128,-2.493628,21.946354,-0.002596,0.059649,0.070467,0.0,1.0,2409.219727
56.971191,-87.256706,-86.063263,2.993261,0.188025,2.993261,0.188025,-89.999855,-90.0,3.184005,23.659054,7.948885,296.39679,291.052734,-0.012338,-2.494494,12.440871,-0.002633,0.059744,0.071724,0.0,1.0,2415.328369
57.847954,-87.220161,-86.026718,2.999134,0.192308,2.999134,0.192308,-89.999855,-90.0,3.223934,24.331627,8.046158,296.357208,291.069061,-0.012854,-2.495263,12.60818,-0.002686,0.059865,0.073567,0.0,1.0,2421.619629
58.431694,-87.195442,-86.001999,3.003668,0.194417,3.003668,0.194417,-89.999855,-90.0,3.250935,24.782084,8.143397,296.330353,291.039734,-0.013162,-2.495714,21.829676,-0.002747,0.059983,0.075546,0.0,1.0,2425.818115
59.305962,-87.157814,-85.964371,3.012667,0.195918,3.012667,0.195918,-89.999855,-90.0,3.292348,25.460766,8.590201,296.291779,290.938446,-0.013514,-2.496312,17.598228,-0.002777,0.060073,0.076889,0.0,1.0,2432.122314
59.911861,-87.131119,-85.937668,3.019426,0.196917,3.019426,0.196917,-89.999855,-90.0,3.322872,25.934116,8.839144,296.266144,290.829926,-0.013141,-2.496678,12.86937,-0.002799,0.060253,0.078818,0.0,1.0,2436.503906
60.757782,-87.09269,-85.899246,3.03254,0.198001,3.03254,0.198001,-89.999855,-90.0,3.367939,26.599508,9.856453,296.233063,290.629486,-0.01236,-2.49713,13.490561,-0.002813,0.060389,0.0801,0.0,1.0,2442.706055
61.336575,-87.065262,-85.871819,3.038002,0.199313,3.038002,0.199313,-89.999855,-90.0,3.40096,27.057528,9.945318,296.21167,290.461945,-0.01086,-2.497403,20.380333,-0.002829,0.060651,0.081754,0.0,1.0,2447.008057
61.939064,-87.035797,-85.842354,3.041475,0.200227,3.041475,0.200227,-89.999855,-90.0,3.435678,27.536095,10.043194,296.190399,290.263885,-0.008942,-2.497661,16.123295,-0.002847,0.06076,0.082823,0.0,1.0,2451.517578
62.781582,-86.993195,-85.799751,3.046723,0.201179,3.046723,0.201179,-89.999855,-90.0,3.48488,28.208515,10.191046,296.161896,289.950897,-0.005453,-2.497979,19.193827,-0.00286,0.06083,0.083887,0.0,1.0,2457.864258
63.671215,-86.946655,-85.753204,3.053471,0.20184,3.053471,0.20184,-89.999855,-90.0,3.537799,28.922318,10.789453,296.131073,289.581726,-0.001307,-2.498268,13.747769,-0.002874,0.060934,0.085312,0.0,1.0,2464.601074
64.246498,-86.915588,-85.722145,3.06226,0.207253,3.06226,0.207253,-89.999855,-90.0,3.574108,29.386883,11.032935,296.109985,289.325104,0.001463,-2.498433,14.288548,-0.002883,0.061069,0.086853,0.0,1.0,2468.980469
65.088631,-86.868851,-85.6754,3.06744,0.22079,3.06744,0.22079,-89.999855,-90.0,3.628122,30.0665,11.183668,296.003418,288.932007,5.42E-4,-2.498646,20.159973,-0.002961,0.061245,0.0,0.0,1.0,2475.380859
65.673958,-86.835907,-85.642464,3.06763,0.224564,3.06763,0.224564,-89.999855,-90.0,3.665567,30.533976,11.275715,295.725922,288.652008,-0.011252,-2.498775,20.628716,-0.003154,0.061349,0.005328,0.0,1.0,2479.794922
66.562767,-86.785309,-85.591858,3.064837,0.209472,3.064837,0.209472,-89.999855,-90.0,3.722359,31.237432,11.434486,295.064453,288.216858,-0.05239,-2.498946,21.186785,-0.003208,0.061353,0.019203,0.0,1.0,2486.481445
67.183739,-86.749405,-85.555962,3.069977,0.191062,3.069977,0.191062,-89.999855,-90.0,3.763459,31.727577,12.745824,294.516571,287.902863,-0.093666,-2.499051,16.476709,-0.002992,0.061297,0.052277,0.0,1.0,2491.173096
68.029167,-86.698715,-85.505272,3.074583,0.154132,3.074583,0.154132,-89.999855,-90.0,3.824332,32.396393,12.979761,293.840088,287.457703,-0.160023,-2.499176,17.542408,-0.002729,0.0614,0.079671,0.0,1.0,2497.604736
68.650208,-86.660065,-85.466621,3.077845,0.128443,3.077845,0.128443,-89.999855,-90.0,3.869695,32.889835,13.138432,293.48526,287.11618,-0.197515,-2.499258,23.298311,-0.002202,0.061492,0.113495,0.0,1.0,2502.364746
69.541489,-86.602432,-85.408989,3.074176,0.066635,3.074176,0.066635,-89.999855,-90.0,3.938328,33.602715,14.430743,293.316864,286.60495,-0.232121,-2.499362,18.811968,-0.001835,0.061557,0.131236,0.0,1.0,2509.240234
70.163841,-86.560593,-85.367149,3.039429,-0.025021,3.039429,-0.025021,-89.999855,-90.0,3.989732,34.099354,15.042449,293.461456,286.240479,-0.234983,-2.499425,19.323231,-9.52E-4,0.061484,0.139656,0.0,1.0,2514.033691
71.022964,-86.499367,-85.305923,2.982057,-0.155837,2.982057,-0.155837,-89.999855,-90.0,4.062536,34.796799,14.727486,293.970062,285.728882,-0.204739,-2.499503,19.64814,3.57E-4,0.060789,0.132426,0.0,1.0,2520.75708
71.593742,-86.456154,-85.262711,2.967508,-0.197216,2.967508,-0.197216,-89.999855,-90.0,4.110843,35.276325,14.203473,294.445374,285.385895,-0.163214,-2.49955,16.154224,0.002226,0.059641,0.106996,0.0,1.0,2525.33374
72.423355,-86.390289,-85.196846,2.980355,-0.148976,2.980355,-0.148976,-89.999855,-90.0,4.182918,35.997173,15.607896,295.12973,284.898682,-0.082278,-2.499613,20.199203,0.002817,0.05935,0.083231,0.0,1.0,2532.080322
72.946754,-86.347054,-85.15361,2.944932,-0.026012,2.944932,-0.026012,-89.999855,-90.0,4.236728,36.458462,17.786781,295.450195,284.611603,-0.026761,-2.499649,23.254204,0.002128,0.059607,0.049013,0.0,1.0,2536.316406
73.826668,-86.271248,-85.077797,2.77991,0.301508,2.77991,0.301508,-89.999855,-90.0,4.332126,37.221596,17.577934,295.6091,284.189514,0.044056,-2.4997,18.448195,3.72E-4,0.058899,0.032989,0.0,1.0,2543.263428
74.397018,-86.221222,-85.027779,2.700453,0.486417,2.700453,0.486417,-89.999855,-90.0,4.388553,37.704231,16.307796,295.451965,283.9599,0.07536,-2.499729,20.700615,-0.004307,0.055598,0.025044,0.0,1.0,2547.670898
75.268509,-86.145226,-84.951775,2.66547,0.537704,2.66547,0.537704,-79.999855,-80.0,4.469741,38.431004,16.807156,294.923401,283.668762,0.094196,-2.499767,24.243858,-0.006949,0.054009,0.032901,0.0,1.0,2554.360107
75.83136,-86.09594,-84.902489,2.645446,0.373616,2.645446,0.373616,-79.999855,-80.0,4.527738,38.897114,19.701551,294.498322,283.513611,0.088753,-2.499788,19.049156,-0.007681,0.053309,0.059329,0.0,1.0,2558.692139
76.732422,-86.011154,-84.817711,2.665847,-0.198715,2.665847,-0.198715,-79.999855,-80.0,4.651419,39.648468,29.43524,293.921722,283.308868,0.062937,-2.499818,18.628965,-0.005337,0.052909,0.080583,0.0,1.0,2565.73584
77.308342,-85.947784,-84.754341,2.728128,-0.687358,2.728128,-0.687358,-79.999855,-80.0,4.767705,40.136814,40.576904,293.714294,283.203033,0.043637,-2.465957,21.013044,0.002839,0.053317,0.109413,0.0,1.0,2570.331787
78.12339,-85.831093,-84.637642,2.878779,-1.343688,2.878779,-1.343688,-79.999855,-80.0,5.020804,40.850029,64.26519,293.74231,283.084473,0.021988,-2.305242,28.407984,0.009819,0.054563,0.119785,0.0,1.0,2577.025879
78.675758,-85.719719,-84.526276,3.027115,-1.652094,3.027115,-1.652094,-79.999855,-80.0,5.282058,41.359802,86.012474,293.976501,283.025604,0.020025,-2.122575,36.44072,0.019196,0.057576,0.118384,0.0,1.0,2581.756592
79.413048,-85.497551,-84.304108,3.25427,-1.696792,3.25427,-1.696792,-79.999855,-80.0,5.802986,42.093418,121.938347,294.468964,282.979218,0.036887,-1.805346,52.41185,0.023601,0.060542,0.106674,0.0,1.0,2588.397461
79.864929,-85.297386,-84.103943,3.410583,-1.473657,3.410583,-1.473657,-79.999855,-80.0,6.253271,42.581562,147.435486,294.783203,282.973267,0.058071,-1.592506,65.6325,0.02424,0.065085,0.082051,0.0,1.0,2592.360352
80.501923,-84.900856,-83.707413,3.588108,-0.882341,3.588108,-0.882341,-79.999855,-80.0,7.088078,43.311295,184.752548,295.032501,282.998566,0.096047,-1.325334,88.758865,0.021052,0.068212,0.066339,0.0,1.0,2597.128906
80.911392,-84.565239,-83.371796,3.680852,-0.441695,3.680852,-0.441695,-79.999855,-80.0,7.7426,43.79562,206.77388,294.998047,283.034515,0.116037,-1.196145,105.54126,0.012605,0.071762,0.053874,0.0,1.0,2599.758301
81.517921,-83.948341,-82.75489,3.774405,0.038545,3.774405,0.038545,-79.999855,-80.0,8.854523,44.518284,236.304916,294.66687,283.107758,0.129311,-1.07222,131.715622,0.00631,0.073617,0.055597,0.0,1.0,2603.161865
81.91613,-83.460655,-82.267212,3.837003,0.167444,3.837003,0.167444,-79.999855,-80.0,9.672105,44.997353,253.334854,294.336456,283.163177,0.124503,-1.020033,149.261917,-5.51E-4,0.075488,0.072156,0.0,1.0,2605.182373
82.50058,-82.618599,-81.425156,3.935724,0.023377,3.935724,0.023377,-79.999855,-80.0,11.00043,45.711716,277.046814,293.886261,283.245697,0.100116,-0.949519,174.764679,-0.002392,0.07674,0.088676,0.0,1.0,2607.961914
82.877205,-81.983032,-80.789581,4.011902,-0.221868,4.011902,-0.221868,-79.999855,-80.0,11.950462,46.185013,292.389923,293.715027,283.29541,0.080109,-0.890196,191.871445,-3.34E-4,0.078714,0.111186,0.0,1.0,2609.69043
83.421227,-80.925232,-79.731789,4.130216,-0.614248,4.130216,-0.614248,-79.999855,-80.0,13.471314,46.890137,315.270721,293.757751,283.357208,0.057255,-0.764655,216.280457,0.00317,0.080238,0.119748,0.0,1.0,2612.140625
83.759689,-80.151672,-78.958229,4.22588,-0.777412,4.22588,-0.777412,-79.999855,-80.0,14.551228,47.356647,332.563293,293.967621,283.389252,0.053594,-0.660438,232.186539,0.008775,0.082604,0.117612,0.0,1.0,2613.688721
84.222969,-78.888107,-77.694664,4.385571,-0.723896,4.385571,-0.723896,-79.999855,-80.0,16.291912,48.05027,363.738434,294.411926,283.424957,0.067705,-0.496929,256.13623,0.011106,0.084518,0.107118,0.0,1.0,2615.885254
84.501579,-77.973778,-76.780334,4.511031,-0.496188,4.511031,-0.496188,-79.999855,-80.0,17.54504,48.50808,387.484924,294.690063,283.441437,0.086342,-0.400417,272.644897,0.010341,0.087711,0.084903,0.0,1.0,2617.264648
84.884071,-76.531601,-75.338158,4.66271,0.003502,4.66271,0.003502,-79.999855,-80.0,19.509853,49.168396,418.8573,294.898315,283.454529,0.119662,-0.304494,297.68927,0.007088,0.090221,0.070996,0.0,1.0,2619.162842
85.145149,-75.417877,-74.224426,4.736523,0.368659,4.736523,0.368659,-69.999855,-70.0,20.997192,49.634472,436.528534,294.861847,283.454346,0.136055,-0.273273,316.473358,-5.0E-5,0.093254,0.060583,0.0,1.0,2620.451904
85.511467,-73.796913,-72.60347,4.774882,0.682073,4.774882,0.682073,-69.999855,-70.0,23.107792,50.260811,456.014801,294.598755,283.437469,0.14388,-0.272816,341.561859,-0.005267,0.09473,0.062407,0.0,1.0,2622.146729
85.795746,-72.479691,-71.286247,4.799393,0.722416,4.799393,0.722416,-69.999855,-70.0,24.777252,50.734043,467.883392,294.31662,283.408783,0.136436,-0.28876,359.955048,-0.009744,0.095498,0.075562,0.0,1.0,2623.413818
86.18837,-70.553299,-69.359856,4.857795,0.48907,4.857795,0.48907,-69.999855,-70.0,27.156141,51.381344,483.30249,294.002899,283.342377,0.110909,-0.300892,383.90921,-0.01032,0.095988,0.089668,0.0,1.0,2625.137939
86.444748,-69.20845,-68.015007,4.912879,0.227715,4.912879,0.227715,-69.999855,-70.0,28.786083,51.807793,494.411865,293.925659,283.279572,0.092935,-0.288945,398.812531,-0.006987,0.097156,0.105354,0.0,1.0,2626.267578
86.811852,-67.105774,-65.912323,5.003684,-0.124824,5.003684,-0.124824,-69.999855,-70.0,31.305677,52.439697,513.289307,294.065796,283.158295,0.074813,-0.231904,419.91806,-0.003253,0.098258,0.109216,0.0,1.0,2627.925537
87.037903,-65.648354,-64.454903,5.07881,-0.242923,5.07881,-0.242923,-69.999855,-70.0,33.040592,52.855579,527.335327,294.294159,283.061523,0.074355,-0.175028,433.450592,0.001783,0.100074,0.102209,0.0,1.0,2628.997559
87.346321,-63.37846,-62.185017,5.191149,-0.144266,5.191149,-0.144266,-59.999859,-60.0,35.735523,53.470871,550.227112,294.683319,282.897614,0.091124,-0.087722,453.442719,0.00347,0.101576,0.090791,0.0,1.0,2630.539795
87.53624,-61.808208,-60.614765,5.265516,0.070024,5.265516,0.070024,-59.999859,-60.0,37.597221,53.875134,566.31427,294.882477,282.778687,0.108321,-0.043462,466.799164,0.002061,0.103823,0.071333,0.0,1.0,2631.52002
87.81427,-59.364719,-58.171276,5.347997,0.470433,5.347997,0.470433,-59.999859,-60.0,40.491199,54.472351,590.279541,294.961029,282.588837,0.133675,-0.018513,487.129364,-0.001,0.10531,0.061375,0.0,1.0,2632.929688
88.001549,-57.675888,-56.482445,5.396761,0.689439,5.396761,0.689439,-59.999859,-60.0,42.484417,54.86438,604.923706,294.859009,282.455048,0.142099,-0.029138,500.898773,-0.00672,0.10696,0.057448,0.0,1.0,2633.842285
88.288055,-55.053207,-53.859764,5.457922,0.787043,5.457922,0.787043,-49.999859,-50.0,45.561153,55.443451,624.796021,294.561981,282.242279,0.137646,-0.069965,521.671143,-0.009849,0.107935,0.062549,0.0,1.0,2635.189697
88.480652,-53.246429,-52.052986,5.502494,0.687888,5.502494,0.687888,-49.999859,-50.0,47.665138,55.823704,637.069214,294.35202,282.091339,0.124741,-0.098625,535.429993,-0.011243,0.109158,0.0774,0.0,1.0,2636.080811
88.766167,-50.451839,-49.258392,5.571184,0.358617,5.571184,0.358617,-49.999859,-50.0,50.897007,56.385635,655.134521,294.180359,281.85022,0.09794,-0.11687,555.71167,-0.009827,0.11005,0.087898,0.0,1.0,2637.407959
88.949402,-48.534718,-47.341274,5.627974,0.110021,5.627974,0.110021,-49.999859,-50.0,53.102043,56.754665,667.523132,294.206268,281.680389,0.083672,-0.105832,568.894409,-0.005123,0.111424,0.096481,0.0,1.0,2638.283203
89.204033,-45.577587,-44.38414,5.721679,-0.125339,5.721679,-0.125339,-49.999859,-50.0,56.490143,57.299671,687.38739,294.441193,281.415619,0.075313,-0.057809,588.404236,-0.001572,0.112559,0.095186,0.0,1.0,2639.568115
89.355904,-43.552673,-42.359226,5.795584,-0.141385,5.795584,-0.141385,-39.999859,-40.0,58.805855,57.657135,701.669861,294.668243,281.235474,0.08058,-0.016049,601.247314,0.001791,0.114434,0.08344,0.0,1.0,2640.395752
89.561111,-40.433723,-39.24028,5.89396,0.061052,5.89396,0.061052,-39.999859,-40.0,62.371922,58.184162,724.143311,294.95401,280.965118,0.101027,0.034324,620.49646,0.00202,0.115912,0.072087,0.0,1.0,2641.581787
89.689873,-38.298866,-37.105423,5.954352,0.279945,5.954352,0.279945,-39.999859,-40.0,64.811485,58.529266,739.007202,295.041077,280.78717,0.115649,0.048934,633.426025,-8.72E-4,0.117879,0.057799,0.0,1.0,2642.33667
89.883972,-35.011913,-33.81847,6.019303,0.56938,6.019303,0.56938,-29.999857,-30.0,68.561157,59.037521,759.767761,294.963379,280.525574,0.130442,0.034561,653.013245,-0.003999,0.119087,0.053445,0.0,1.0,2643.429688
90.017128,-32.764378,-31.570934,6.058918,0.662574,6.058918,0.662574,-29.999857,-30.0,71.115143,59.370216,771.990356,294.803436,280.354584,0.130294,0.007305,666.130981,-0.008134,0.120386,0.05733,0.0,1.0,2644.143555
90.221306,-29.311216,-28.117771,6.111006,0.574167,6.111006,0.574167,-29.999857,-30.0,75.018257,59.860371,788.414734,294.531464,280.101929,0.1152,-0.037677,685.658142,-0.009465,0.121178,0.065327,0.0,1.0,2645.20459
90.357948,-26.956739,-25.763296,6.149817,0.396665,6.149817,0.396665,-29.999857,-30.0,77.663918,60.181408,798.55896,294.405182,279.935394,0.100073,-0.057367,698.433228,-0.008202,0.12222,0.078926,0.0,1.0,2645.908203
90.557259,-23.350504,-22.157059,6.210716,0.078524,6.210716,0.078524,-19.999857,-20.0,81.695488,60.654518,813.628662,294.398926,279.68869,0.078463,-0.055215,717.064575,-0.005667,0.122996,0.08524,0.0,1.0,2646.955078
90.680962,-20.898617,-19.705173,6.262387,-0.085602,6.262387,-0.085602,-19.999857,-20.0,84.425377,60.964287,824.012573,294.517975,279.52771,0.071648,-0.033608,729.102295,-0.001122,0.124214,0.085553,0.0,1.0,2647.641357
90.845871,-17.151291,-15.957848,6.343686,-0.135187,6.343686,-0.135187,-19.999857,-20.0,88.587883,61.420288,840.682922,294.795319,279.295197,0.076134,0.013941,746.647339,0.001223,0.125248,0.0796,0.0,1.0,2648.638428
90.939522,-14.717776,-13.524332,6.399077,-0.044245,6.399077,-0.044245,-9.999858,-10.0,91.291908,61.706051,851.914185,294.967926,279.15448,0.086766,0.042107,757.310425,0.001931,0.126874,0.065733,0.0,1.0,2649.248291
91.072289,-10.836935,-9.643491,6.465491,0.221527,6.465491,0.221527,-9.999858,-10.0,95.597008,62.144424,869.413452,295.104919,278.949524,0.107284,0.061997,774.210754,6.32E-4,0.127982,0.057103,0.0,1.0,2650.153809
91.166412,-8.089857,-6.896413,6.504013,0.41091,6.504013,0.41091,-9.999858,-10.0,98.636162,62.442474,880.6073,295.075226,278.818909,0.116587,0.054467,786.075623,-0.003165,0.12931,0.050253,0.0,1.0,2650.74292
91.307526,-4.065924,-2.87248,6.542488,0.543181,6.542488,0.543181,1.42E-4,0.0,103.076744,62.862694,894.738708,294.884674,278.646851,0.118432,0.019129,802.814209,-0.00587,0.13008,0.051738,0.0,1.0,2651.55542
91.407562,-1.340722,-0.147278,6.566895,0.508866,6.566895,0.508866,1.42E-4,0.0,106.073318,63.137177,902.770081,294.719452,278.541443,0.110677,-0.009729,813.652161,-0.00776,0.13085,0.061266,0.0,1.0,2652.084473
91.530594,2.876426,4.06987,6.601433,0.298338,6.601433,0.298338,1.42E-4,0.0,110.488541,63.529659,913.232971,294.550842,278.399017,0.090029,-0.038104,828.500854,-0.00727,0.131338,0.069527,0.0,1.0,2652.830322
91.592361,5.943244,7.136688,6.631801,0.096479,6.631801,0.096479,10.000142,10.0,113.672089,63.804493,920.242249,294.534271,278.30484,0.076909,-0.040378,839.36615,-0.004262,0.132029,0.077957,0.0,1.0,2653.329102
91.688774,10.416562,11.610006,6.680571,-0.124436,6.680571,-0.124436,10.000142,10.0,118.299744,64.192261,930.586487,294.680115,278.180908,0.065807,-0.015195,854.173218,-0.001378,0.132636,0.078786,0.0,1.0,2654.004639
91.742706,13.434107,14.627551,6.720164,-0.173028,6.720164,-0.173028,10.000142,10.0,121.414215,64.44548,937.903992,294.850586,278.107178,0.067393,0.012851,863.534363,0.001778,0.133611,0.071493,0.0,1.0,2654.425781
91.809158,18.01173,19.205175,6.773998,-0.059632,6.773998,-0.059632,20.000143,20.0,126.133301,64.817215,949.409912,295.091583,278.012512,0.081599,0.050711,876.950806,0.002472,0.134403,0.06297,0.0,1.0,2655.009766
91.848267,21.097204,22.290649,6.806214,0.095187,6.806214,0.095187,20.000143,20.0,129.311111,65.059586,956.967224,295.182831,277.960999,0.093392,-0.192503,885.564819,8.52E-4,0.13548,0.05092,0.0,1.0,2655.369629
91.909386,25.775127,26.968571,6.83525,0.322401,6.83525,0.322401,30.000143,30.0,134.123062,65.415039,967.154602,295.154846,277.901276,0.107079,-0.514541,898.0896,-0.00136,0.136124,0.046358,0.0,1.0,2655.877197
91.954361,28.924795,30.11824,6.848612,0.405909,6.848612,0.405909,30.000143,30.0,137.356689,65.646751,972.666382,295.042816,277.872192,0.108344,-0.703858,906.115479,-0.004606,0.136705,0.047757,0.0,1.0,2656.204102
92.03299,33.696064,34.889507,6.861949,0.35293,6.861949,0.35293,30.000143,30.0,142.237808,65.986824,979.285828,294.831116,277.841705,0.097645,-0.954531,917.824524,-0.005799,0.136972,0.053358,0.0,1.0,2656.690674
92.08886,36.904392,38.097836,6.872076,0.218443,6.872076,0.218443,40.000141,40.0,145.508545,66.208755,982.959045,294.723541,277.82843,0.085509,-1.101894,925.245911,-0.005042,0.137239,0.063943,0.0,1.0,2657.016846
92.173256,41.753841,42.947289,6.892673,-0.038642,6.892673,-0.038642,40.000141,40.0,150.437073,66.534729,988.335938,294.701965,277.817078,0.066957,-1.297016,935.719238,-0.003121,0.137442,0.069322,0.0,1.0,2657.509521
92.225403,45.009411,46.202854,6.914122,-0.180056,6.914122,-0.180056,40.000141,40.0,153.738266,66.74749,992.315308,294.786713,277.814941,0.060361,-1.411722,942.254639,5.52E-4,0.137853,0.070401,0.0,1.0,2657.836426
92.291252,49.924515,51.117958,6.952586,-0.240912,6.952586,-0.240912,50.000141,50.0,158.7173,67.059723,999.290466,295.000061,277.820648,0.06244,-1.563604,951.456604,0.002572,0.138282,0.066164,0.0,1.0,2658.312256
92.326523,53.222008,54.415455,6.980806,-0.178014,6.980806,-0.178014,50.000141,50.0,162.057297,67.263206,1004.580078,295.142792,277.831146,0.070426,-1.652891,957.268372,0.003442,0.139052,0.055496,0.0,1.0,2658.614014
92.373245,58.199707,59.39315,7.010488,0.020073,7.010488,0.020073,60.000141,60.0,167.101151,67.561333,1012.618469,295.251709,277.857544,0.086802,-1.771115,965.656372,0.002543,0.139616,0.04836,0.0,1.0,2659.040771
92.405388,61.53936,62.732807,7.023977,0.157454,7.023977,0.157454,60.000141,60.0,170.48497,67.755402,1017.40332,295.230255,277.881775,0.094409,-1.840615,971.095398,-2.87E-4,0.14021,0.042914,0.0,1.0,2659.312256
92.460655,66.580063,67.773506,7.032977,0.255999,7.032977,0.255999,70.000145,70.0,175.587723,68.039726,1023.21051,295.080811,277.925903,0.096039,-1.93264,979.054504,-0.002249,0.14048,0.043986,0.0,1.0,2659.711914
92.502625,69.96032,71.153763,7.037163,0.225748,7.037163,0.225748,70.000145,70.0,179.003647,68.224953,1026.138062,294.949677,277.958618,0.089729,-1.986739,984.200073,-0.003657,0.14066,0.051459,0.0,1.0,2659.979248
92.570572,75.057678,76.251129,7.045296,0.049324,7.045296,0.049324,70.000145,70.0,184.144073,68.496635,1029.848755,294.813477,278.009491,0.072986,-2.05837,991.590759,-0.003225,0.140743,0.058015,0.0,1.0,2660.387451
92.616295,78.472267,79.66571,7.055447,-0.104234,7.055447,-0.104234,80.000145,80.0,187.581146,68.673782,1032.328735,294.80127,278.043335,0.062577,-2.100481,996.258545,-7.05E-4,0.140906,0.064825,0.0,1.0,2660.663574
92.678848,83.616493,84.809937,7.079166,-0.273233,7.079166,-0.273233,80.000145,80.0,192.753632,68.933609,1036.706055,294.912567,278.093231,0.054077,-2.156238,1002.85614,0.001489,0.141109,0.065436,0.0,1.0,2661.077148
92.713242,87.060265,88.253708,7.101311,-0.306223,7.101311,-0.306223,90.000145,90.0,196.215378,69.102867,1040.297485,295.041534,278.126251,0.055687,-2.189016,1007.014343,0.003903,0.141583,0.059871,0.0,1.0,2661.346191
92.753983,92.247459,93.440903,7.132142,-0.20998,7.132142,-0.20998,90.000145,90.0,201.43248,69.350693,1046.448242,295.218048,278.176331,0.067388,-2.232418,1012.994507,0.004375,0.142026,0.053423,0.0,1.0,2661.730957
92.777168,95.720444,96.913887,7.149589,-0.086188,7.149589,-0.086188,100.000145,100.0,204.927917,69.511841,1050.64624,295.278381,278.210388,0.076792,-2.257932,1016.877563,0.003,0.142643,0.044597,0.0,1.0,2661.973145
92.813484,100.952957,102.1464,7.162301,0.088859,7.162301,0.088859,100.000145,100.0,210.196106,69.747528,1056.23584,295.23999,278.261871,0.087241,-2.291716,1022.627502,0.001231,0.142992,0.04158,0.0,1.0,2662.320801
92.841629,104.456612,105.650063,7.166008,0.14909,7.166008,0.14909,100.000145,100.0,213.722076,69.900757,1059.128418,295.144226,278.29538,0.087822,-2.311576,1026.419434,-0.001269,0.143246,0.0435,0.0,1.0,2662.54834
92.890564,109.733818,110.927261,7.168159,0.099613,7.168159,0.099613,110.000145,110.0,219.026581,70.125053,1062.384644,294.975342,278.341888,0.078797,-2.337873,1031.992554,-0.00213,0.14332,0.048288,0.0,1.0,2662.89209
92.926346,113.264076,114.45752,7.171211,-0.007297,7.171211,-0.007297,110.000145,110.0,222.570923,70.271065,1064.126953,294.894897,278.369049,0.069233,-2.353332,1035.516113,-0.001423,0.143363,0.056732,0.0,1.0,2663.125488
92.980026,118.579254,119.772697,7.182406,-0.200227,7.182406,-0.200227,120.000145,120.0,227.898392,70.484978,1066.858398,294.887939,278.402557,0.055371,-2.373801,1040.678955,1.04E-4,0.143424,0.060754,0.0,1.0,2663.481934
93.012299,122.133545,123.326988,7.196176,-0.298302,7.196176,-0.298302,120.000145,120.0,231.458374,70.624222,1069.125488,294.959717,278.420074,0.051119,-2.385834,1043.929077,0.00286,0.143648,0.061102,0.0,1.0,2663.719482
93.050987,127.480652,128.674088,7.221681,-0.321761,7.221681,-0.321761,130.000137,130.0,236.814606,70.827972,1073.396729,295.126038,278.440277,0.054387,-2.401767,1048.558838,0.004261,0.143924,0.057513,0.0,1.0,2664.066895
93.070419,131.056046,132.249496,7.240043,-0.257587,7.240043,-0.257587,130.000137,130.0,240.398254,70.960342,1076.727417,295.22998,278.450562,0.061473,-2.411134,1051.53064,0.004597,0.144434,0.049197,0.0,1.0,2664.287598
93.095337,136.436081,137.629517,7.257807,-0.091342,7.257807,-0.091342,140.000137,140.0,245.795044,71.153656,1081.744507,295.295685,278.462219,0.074709,-2.423536,1055.90979,0.00368,0.144801,0.044,0.0,1.0,2664.601074
93.112953,140.034515,141.227951,7.26452,0.015124,7.26452,0.015124,140.000137,140.0,249.405945,71.279091,1084.613525,295.264801,278.46756,0.080333,-2.430827,1058.812744,0.001305,0.145156,0.040715,0.0,1.0,2664.80127
93.145004,145.449692,146.643143,7.266647,0.079883,7.266647,0.079883,140.000137,140.0,254.837982,71.462265,1087.871338,295.134674,278.470856,0.080493,-2.440481,1063.142822,-2.16E-4,0.14529,0.042259,0.0,1.0,2665.0979
93.170509,149.069687,150.263123,7.266715,0.046223,7.266715,0.046223,150.000137,150.0,258.466919,71.58123,1089.362061,295.031525,278.469086,0.074937,-2.446156,1065.916138,-0.001141,0.145333,0.048766,0.0,1.0,2665.297363
93.212646,154.516541,155.709991,7.269558,-0.098896,7.269558,-0.098896,150.000137,150.0,263.918488,71.755211,1091.180664,294.93631,278.459076,0.061634,-2.453671,1070.061646,-6.6E-4,0.145334,0.053923,0.0,1.0,2665.603516
93.240814,158.156525,159.34996,7.27566,-0.214953,7.27566,-0.214953,160.000137,160.0,267.557953,71.868301,1092.488892,294.938629,278.447296,0.05409,-2.458088,1072.683472,0.001413,0.145391,0.058684,0.0,1.0,2665.811523
93.277725,163.628326,164.821777,7.292088,-0.327215,7.292088,-0.327215,160.000137,160.0,273.026703,72.033638,1095.076782,295.039368,278.422791,0.049209,-2.463938,1076.390625,0.003071,0.145513,0.058568,0.0,1.0,2666.123291
93.296539,167.283875,168.47731,7.307383,-0.334914,7.307383,-0.334914,170.000137,170.0,276.680786,72.140961,1097.366211,295.141998,278.402893,0.05174,-2.467376,1078.732544,0.004674,0.145842,0.053531,0.0,1.0,2666.325928
93.31749,172.777939,173.971375,7.327317,-0.237239,7.327317,-0.237239,170.000137,170.0,282.177734,72.297501,1101.336182,295.268555,278.369629,0.062245,-2.471929,1082.053467,0.004784,0.146148,0.048399,0.0,1.0,2666.615234
93.328102,176.449158,177.642593,7.337448,-0.133503,7.337448,-0.133503,180.000137,180.0,285.853424,72.39888,1103.970703,295.301178,278.346069,0.069738,-2.474606,1084.25293,0.003389,0.146546,0.042071,0.0,1.0,2666.797852
93.347366,181.971237,183.164688,7.342636,-0.00328,7.342636,-0.00328,180.000137,180.0,291.382294,72.546562,1107.278809,295.249237,278.309082,0.076966,-2.47815,1087.638428,0.001907,0.146749,0.04044,0.0,1.0,2667.0625
93.363754,185.661453,186.854904,7.342602,0.031467,7.342602,0.031467,190.000137,190.0,295.075989,72.642212,1108.806763,295.165314,278.283112,0.07644,-2.480233,1089.876587,4.7E-5,0.146853,0.043037,0.0,1.0,2667.236816
93.393867,191.20903,192.402481,7.341249,-0.027136,7.341249,-0.027136,190.000137,190.0,300.624268,72.781715,1110.339111,295.034882,278.241211,0.068086,-2.482992,1093.160156,-4.5E-4,0.146852,0.047234,0.0,1.0,2667.502686
93.416283,194.914673,196.108124,7.342044,-0.118462,7.342044,-0.118462,190.000137,190.0,304.326782,72.872192,1111.123901,294.982178,278.210938,0.060431,-2.484614,1095.263306,3.88E-4,0.146825,0.053755,0.0,1.0,2667.684326
93.449211,200.482529,201.675964,7.349444,-0.264236,7.349444,-0.264236,200.000137,200.0,309.885773,73.004265,1112.524292,294.997345,278.16214,0.050554,-2.486761,1098.24231,0.001692,0.146841,0.05639,0.0,1.0,2667.96167
93.467827,204.200104,205.393539,7.359298,-0.327643,7.359298,-0.327643,200.000137,200.0,313.596436,73.089882,1113.883545,295.064453,278.12796,0.04844,-2.488024,1100.106201,0.003775,0.146989,0.055632,0.0,1.0,2668.146484
93.488098,209.784821,210.978271,7.376947,-0.319778,7.376947,-0.319778,210.000137,210.0,319.172607,73.214615,1116.625854,295.197266,278.07608,0.052969,-2.489695,1102.755127,0.004681,0.147186,0.052277,0.0,1.0,2668.41626
93.497185,213.51387,214.707321,7.388762,-0.254816,7.388762,-0.254816,210.000137,210.0,322.898376,73.295258,1118.781738,295.270172,278.042175,0.059288,-2.490678,1104.460815,0.004568,0.147539,0.045636,0.0,1.0,2668.587646
93.508774,219.117157,220.310608,7.398333,-0.118191,7.398333,-0.118191,220.000137,220.0,328.50058,73.41243,1121.905151,295.299469,277.993591,0.069568,-2.491979,1106.994751,0.00364,0.147775,0.041991,0.0,1.0,2668.832275
93.518036,222.859512,224.052948,7.400532,-0.041543,7.400532,-0.041543,220.000137,220.0,332.243225,73.488075,1123.547607,295.260223,277.962982,0.073163,-2.492743,1108.688843,0.001688,0.147967,0.040526,0.0,1.0,2668.98999
93.536957,228.483093,229.676544,7.398732,-0.012435,7.398732,-0.012435,230.000137,230.0,337.865631,73.598015,1125.196289,295.146912,277.919159,0.071507,-2.493756,1111.225952,5.93E-4,0.148011,0.042488,0.0,1.0,2669.22583
93.552971,232.238327,233.431778,7.396897,-0.053969,7.396897,-0.053969,230.000137,230.0,341.617432,73.66909,1125.82605,295.068787,277.890839,0.066284,-2.494352,1112.886841,1.78E-4,0.147975,0.048154,0.0,1.0,2669.385986
93.579659,237.879044,239.072495,7.397688,-0.178595,7.397688,-0.178595,240.000137,240.0,347.248474,73.772545,1126.578003,295.011383,277.84906,0.055623,-2.49514,1115.27356,7.71E-4,0.147938,0.05206,0.0,1.0,2669.632813
93.596863,241.644028,242.837479,7.401994,-0.266035,7.401994,-0.266035,240.000137,240.0,351.004852,73.83947,1127.25769,295.028168,277.821686,0.050405,-2.495603,1116.771118,0.002551,0.147954,0.05493,0.0,1.0,2669.800293
93.616013,247.297546,248.490982,7.415336,-0.357677,7.415336,-0.357677,250.000137,250.0,356.644989,73.936775,1128.868164,295.174835,277.782257,0.039795,-2.496217,1118.873169,0.001267,0.14804,0.1,0.0,1.0,2670.050293
93.616684,251.070572,252.264008,7.433668,-0.361228,7.433668,-0.361228,250.000137,250.0,360.410614,73.999474,1130.563599,295.417206,277.758362,0.040676,-2.496578,1120.198975,0.001703,0.148307,0.1,0.0,1.0,2670.20752
93.59156,256.737122,257.930573,7.470098,-0.152443,7.470098,-0.152443,260.000153,260.0,366.073151,74.089943,1134.643921,295.877167,277.730103,0.061784,-2.497055,1122.151367,0.00172,0.148673,0.1,0.0,1.0,2670.407959
93.559807,260.520813,261.714233,7.493245,0.13269,7.493245,0.13269,260.000153,260.0,369.86142,74.147644,1138.269775,296.164063,277.718842,0.084245,-2.497336,1123.50061,7.26E-4,0.149402,0.1,0.0,1.0,2670.509277
93.502876,266.208191,267.401642,7.506655,0.696341,7.506655,0.696341,270.000153,270.0,375.567047,74.229996,1143.638062,296.465668,277.716461,0.120065,-2.497708,1125.726685,-6.32E-4,0.149865,0.1,0.0,1.0,2670.612549
93.466782,270.009033,271.202484,7.505949,1.100494,7.505949,1.100494,270.000153,270.0,379.384003,74.282074,1146.302856,296.560455,277.725433,0.139768,-2.497926,1127.38501,-0.003316,0.150133,0.1,0.0,1.0,2670.658203
93.423424,275.724579,276.91803,7.496977,1.628134,7.496977,1.628134,280.000153,280.0,385.122192,74.35614,1148.524536,296.569,277.754181,0.156933,-2.498216,1130.094604,-0.00524,0.150119,0.1,0.0,1.0,2670.712158
93.402687,279.543701,280.737152,7.489684,1.893913,7.489684,1.893913,280.000153,280.0,388.951355,74.403023,1148.814453,296.524963,277.782501,0.159452,-2.498386,1131.977051,-0.007753,0.14994,0.1,0.0,1.0,2670.748535
93.381767,285.282654,286.476105,7.480735,2.133021,7.480735,2.133021,280.000153,280.0,394.693848,74.470001,1148.015625,296.463745,277.836334,0.152514,-2.498611,1134.748413,-0.009019,0.149794,0.1,0.0,1.0,2670.815186
93.372498,289.113525,290.306946,7.474472,2.207615,7.474472,2.207615,290.000153,290.0,398.51889,74.512634,1146.987305,296.465027,277.878632,0.144093,-2.498744,1136.467041,-0.010157,0.149615,0.1,0.0,1.0,2670.869385
93.361397,294.863739,296.05719,7.466449,2.244973,7.466449,2.244973,290.000153,290.0,404.249268,74.573845,1145.229858,296.566132,277.9505,0.13157,-2.498919,1138.727661,-0.010512,0.149489,0.1,0.0,1.0,2670.963867
93.353279,298.698181,299.891632,7.461924,2.25979,7.461924,2.25979,300.000153,300.0,408.064911,74.612915,1144.210449,296.700378,278.00412,0.126075,-2.499022,1139.981934,-0.01069,0.149329,0.1,0.0,1.0,2671.032471
93.336548,304.44928,305.642731,7.45872,2.318365,7.45872,2.318365,300.000153,300.0,413.783173,74.668953,1143.254883,296.974823,278.094086,0.12428,-2.499159,1141.471924,-0.010761,0.149238,0.1,0.0,1.0,2671.136475
93.321503,308.282379,309.47583,7.457772,2.397715,7.457772,2.397715,310.000153,310.0,417.593628,74.704582,1143.072754,297.181702,278.161285,0.127194,-2.499239,1142.227417,-0.01104,0.149174,0.1,0.0,1.0,2671.202148
93.294243,314.030487,315.223938,7.456778,2.575202,7.456778,2.575202,310.000153,310.0,423.309296,74.755402,1143.263916,297.485962,278.274475,0.135506,-2.499345,1143.077637,-0.011418,0.149155,0.1,0.0,1.0,2671.291016
93.274582,317.861694,319.055145,7.455348,2.720864,7.455348,2.720864,320.000153,320.0,427.120605,74.787514,1143.502441,297.667419,278.358795,0.141861,-2.499408,1143.503906,-0.012263,0.149136,0.1,0.0,1.0,2671.343506
93.246002,323.607697,324.801147,7.451598,2.943667,7.451598,2.943667,320.000153,320.0,432.838715,74.833076,1143.658691,297.896271,278.498962,0.149739,-2.49949,1144.000366,-0.012956,0.149107,0.1,0.0,1.0,2671.415283
93.228912,327.437897,328.631348,7.447955,3.07951,7.447955,3.07951,330.000153,330.0,436.650665,74.861778,1143.478882,298.023743,278.601349,0.152842,-2.499539,1144.259155,-0.014017,0.149032,0.1,0.0,1.0,2671.461182
93.211182,333.020691,334.214142,7.442041,3.235065,7.442041,3.235065,330.000153,330.0,442.207642,74.90139,1142.749268,298.191254,278.762787,0.153731,-2.499601,1144.434082,-0.014664,0.148959,0.1,0.0,1.0,2671.530273
93.193581,337.004791,338.198242,7.436985,3.314084,7.436985,3.314084,340.000153,340.0,446.174133,74.928154,1141.932007,298.311462,278.886292,0.152267,-2.499641,1144.376343,-0.015405,0.148841,0.1,0.0,1.0,2671.582764
93.188057,342.586121,343.779572,7.429904,3.384226,7.429904,3.384226,340.000153,340.0,451.721741,74.963638,1140.531372,298.499207,279.069763,0.148556,-2.49969,1144.504761,-0.015781,0.14874,0.1,0.0,1.0,2671.662842
93.190346,346.521057,347.714508,7.424675,3.416616,7.424675,3.416616,350.000153,350.0,455.679962,74.987663,1139.435181,298.6539,279.207886,0.146049,-2.499721,1141.91626,-0.016115,0.148598,0.1,0.0,1.0,2671.721191
93.146179,352.08725,353.280701,7.418141,3.45448,7.418141,3.45448,350.000153,350.0,461.215393,75.019524,1138.086426,298.900208,279.410706,0.143558,-2.499758,1142.058838,-0.01627,0.148493,0.1,0.0,1.0,2671.810547
93.140953,356.076843,357.270294,7.413297,3.48661,7.413297,3.48661,360.000153,360.0,465.165558,75.041069,1137.248657,299.092712,279.562225,0.143134,-2.499783,1142.789673,-0.01645,0.148363,0.1,0.0,1.0,2671.876953
93.126396,361.812073,363.005493,7.407917,3.548026,7.407917,3.548026,360.000153,360.0,470.849121,75.070343,1136.258545,299.381989,279.789948,0.144281,-2.499813,1143.170044,-0.016603,0.148266,0.1,0.0,1.0,2671.97168
93.115799,365.63031,366.82373,7.4046,3.599616,7.4046,3.599616,370.000153,370.0,474.635773,75.088737,1135.746094,299.575378,279.947937,0.145871,-2.454,1143.127686,-0.016895,0.148158,0.1,0.0,1.0,2672.033936
93.099266,371.350677,372.544128,7.4003,3.685672,7.4003,3.685672,370.000153,370.0,480.312775,75.114693,1135.085693,299.857483,280.193817,0.148602,-2.264933,1142.762939,-0.017141,0.148092,0.1,0.0,1.0,2672.125732
93.088364,375.160126,376.353546,7.397123,3.74441,7.397123,3.74441,370.000153,370.0,484.095642,75.130928,1134.649292,300.038025,280.363342,0.150174,-2.093031,1142.382202,-0.017551,0.148006,0.1,0.0,1.0,2672.186035
93.072899,380.868622,382.062073,7.392498,3.823778,7.392498,3.823778,380.000153,380.0,489.767029,75.15377,1133.90271,300.299103,280.625214,0.151591,-1.810048,1141.681152,-0.017831,0.147942,0.1,0.0,1.0,2672.2771
93.063393,384.670807,385.864227,7.388997,3.868443,7.388997,3.868443,380.000153,380.0,493.545746,75.16803,1133.325073,300.469635,280.804352,0.15183,-1.621988,1141.156128,-0.018208,0.14785,0.1,0.0,1.0,2672.338867
93.050369,390.368988,391.562439,7.383944,3.919522,7.383944,3.919522,390.000153,390.0,499.2099,75.188072,1132.350952,300.726715,281.078827,0.151299,-1.358834,1140.311035,-0.018421,0.14778,0.1,0.0,1.0,2672.433838
93.042397,394.164429,395.35788,7.380197,3.945059,7.380197,3.945059,390.000153,390.0,502.983215,75.200577,1131.658569,300.902161,281.265137,0.15062,-1.20075,1139.71814,-0.018664,0.147679,0.1,0.0,1.0,2672.499023
93.031006,399.85257,401.046021,7.375061,3.974287,7.375061,3.974287,400.000153,400.0,508.638824,75.21814,1130.61499,301.174683,281.548706,0.149573,-0.989924,1138.793335,-0.018786,0.147604,0.1,0.0,1.0,2672.599854
93.023521,403.641296,404.834747,7.371465,3.991472,7.371465,3.991472,400.000153,400.0,512.406372,75.229088,1129.952271,301.362762,281.740021,0.149099,-0.865033,1138.157227,-0.018925,0.147501,0.1,0.0,1.0,2672.668457
92.994026,409.319336,410.512787,7.366983,4.014957,7.366983,4.014957,410.000153,410.0,518.053345,75.244423,1128.802979,301.653809,282.029816,0.148103,-0.698313,1137.180542,-0.019007,0.147429,0.1,0.0,1.0,2672.761475
92.972382,413.101257,414.294708,7.363708,4.025276,7.363708,4.025276,410.000153,410.0,521.814453,75.253983,1127.872314,301.856262,282.224518,0.146914,-0.599071,1136.513184,-0.019119,0.14734,0.1,0.0,1.0,2672.811279
92.940804,418.768677,419.962128,7.357784,4.034862,7.357784,4.034862,420.000153,420.0,527.449951,75.26738,1126.348511,302.175446,282.518524,0.145339,-0.465373,1135.476318,-0.019168,0.147274,0.1,0.0,1.0,2672.873779
92.920074,422.54306,423.736511,7.352784,4.041831,7.352784,4.041831,420.000153,420.0,531.202576,75.275726,1125.264038,302.397522,282.715729,0.144794,-0.385315,1134.754395,-0.019214,0.147156,0.1,0.0,1.0,2672.910156
92.888618,428.197205,429.390656,7.345712,4.058887,7.345712,4.058887,430.000153,430.0,536.824646,75.287422,1123.608398,302.739594,283.013306,0.14492,-0.277811,1133.554199,-0.019247,0.147056,0.1,0.0,1.0,2672.958984
92.868614,431.963318,433.156738,7.340729,4.076127,7.340729,4.076127,430.000153,430.0,540.568115,75.294678,1122.527222,302.969788,283.212891,0.145533,-0.214181,1132.776367,-0.019328,0.146914,0.1,0.0,1.0,2672.989014
92.838409,437.605621,438.799042,7.333983,4.108866,7.333983,4.108866,440.000153,440.0,546.176636,75.30481,1120.933105,303.312805,283.514038,0.146866,-0.130171,1131.540527,-0.01941,0.146815,0.1,0.0,1.0,2673.031738
92.818802,441.362518,442.555969,7.32904,4.133295,7.32904,4.133295,440.000153,440.0,549.911255,75.311066,1119.871704,303.537903,283.715973,0.147768,-0.081307,1130.675415,-0.019566,0.14668,0.1,0.0,1.0,2673.072998
92.790581,446.990784,448.184235,7.322009,4.168348,7.322009,4.168348,450.000153,450.0,555.506409,75.319778,1118.228516,303.869568,284.020447,0.148765,-0.017579,1129.32373,-0.019682,0.146581,0.1,0.0,1.0,2673.100586
92.764137,452.610443,453.803864,7.314287,4.197432,7.314287,4.197432,450.000153,450.0,561.093201,75.327736,1116.502808,304.196167,284.326508,0.14913,0.036358,1127.913574,-0.019849,0.14644,0.1,0.0,1.0,2673.143799
92.747505,456.351959,457.54538,7.309418,4.211763,7.309418,4.211763,460.000153,460.0,564.812805,75.332657,1115.31543,304.413147,284.53125,0.149028,0.067856,1126.942261,-0.019946,0.146336,0.1,0.0,1.0,2673.174316
92.725204,461.645508,462.838959,7.301861,4.22587,7.301861,4.22587,460.000153,460.0,570.075439,75.339157,1113.597168,304.722321,284.822021,0.148549,0.107561,1125.52417,-0.020056,0.146188,0.1,0.0,1.0,2673.220215
92.70874,465.685791,466.879242,7.295934,4.232938,7.295934,4.232938,470.000153,470.0,574.094238,75.343796,1112.261597,304.961517,285.04483,0.148161,0.134697,1124.303589,-0.020123,0.146037,0.1,0.0,1.0,2673.25708
92.68737,471.275482,472.468903,7.288692,4.239767,7.288692,4.239767,470.000153,470.0,579.65094,75.34977,1110.470337,305.297516,285.353882,0.147661,0.168418,1122.765015,-0.020157,0.145919,0.1,0.0,1.0,2673.3125
92.673553,474.996521,476.189972,7.284148,4.244025,7.284148,4.244025,470.000153,470.0,583.350525,75.3535,1109.356201,305.524323,285.560181,0.147485,0.188667,1121.70166,-0.020179,0.145819,0.1,0.0,1.0,2673.351563
92.65345,480.570129,481.76355,7.276684,4.251972,7.276684,4.251972,480.000153,480.0,588.893127,75.358734,1107.738037,305.867065,285.870056,0.147502,0.215898,1120.066895,-0.02021,0.145683,0.1,0.0,1.0,2673.412598
92.640419,484.280579,485.47403,7.272295,4.258632,7.272295,4.258632,480.000153,480.0,592.583801,75.362007,1106.701416,306.096252,286.076874,0.147664,0.232035,1118.959351,-0.020234,0.145581,0.1,0.0,1.0,2673.455078
92.621475,489.838531,491.031982,7.265567,4.270334,7.265567,4.270334,490.000153,490.0,598.113464,75.366615,1105.214355,306.439392,286.387482,0.148018,0.253323,1117.2854,-0.020279,0.145446,0.1,0.0,1.0,2673.520752
92.609283,493.538818,494.732239,7.261626,4.278493,7.261626,4.278493,490.000153,490.0,601.795837,75.369499,1104.268433,306.667175,286.594757,0.148252,0.265691,1116.168335,-0.020316,0.145354,0.1,0.0,1.0,2673.566406
92.591736,499.081848,500.275299,7.255344,4.290082,7.255344,4.290082,500.000153,500.0,607.31366,75.373589,1102.890991,307.007202,286.905884,0.148497,0.28179,1114.502197,-0.020374,0.145233,0.1,0.0,1.0,2673.636963
92.580551,502.77243,503.965881,7.251551,4.296577,7.251551,4.296577,500.000153,500.0,610.988403,75.376175,1101.994507,307.233093,287.113434,0.148558,0.291108,1113.402588,-0.020412,0.145147,0.1,0.0,1.0,2673.685791
92.564575,508.301331,509.494781,7.245522,4.304083,7.245522,4.304083,510.000153,510.0,616.494995,75.37986,1100.673218,307.571594,287.424744,0.148504,0.303346,1111.776367,-0.02046,0.145031,0.1,0.0,1.0,2673.761719
92.554443,511.982727,513.176147,7.241914,4.307496,7.241914,4.307496,510.000153,510.0,620.162354,75.38221,1099.815918,307.797607,287.632294,0.148395,0.310563,1110.709595,-0.020485,0.144949,0.1,0.0,1.0,2673.814209
92.539925,517.498169,518.691589,7.236206,4.310875,7.236206,4.310875,520.000122,520.0,625.658264,75.385605,1098.567749,308.137726,287.943512,0.148195,0.320259,1109.138794,-0.020512,0.144838,0.1,0.0,1.0,2673.895752
92.530632,521.170776,522.364197,7.232815,4.312381,7.232815,4.312381,520.000122,520.0,629.318726,75.387794,1097.769531,308.365417,288.150909,0.148074,0.326092,1108.112305,-0.020524,0.14476,0.1,0.0,1.0,2673.95166
92.516975,526.671509,527.864929,7.227503,4.314458,7.227503,4.314458,530.000122,530.0,634.804626,75.38913,1096.622192,308.70816,288.461853,0.147945,0.333992,1106.5271,-0.020535,0.144656,0.1,0.0,1.0,2674.037842
92.508377,530.336182,531.529602,7.224379,4.31592,7.224379,4.31592,530.000122,530.0,638.45874,75.389549,1095.898804,308.937256,288.669037,0.147922,0.338731,1105.578613,-0.020542,0.144584,0.1,0.0,1.0,2674.097168
92.495895,535.827148,537.020569,7.219515,4.318565,7.219515,4.318565,540.000122,540.0,643.935608,75.390221,1094.867188,309.281219,288.979675,0.147959,0.345064,1104.178101,-0.020552,0.144488,0.1,0.0,1.0,2674.187988
92.487885,539.483887,540.677307,7.216666,4.320596,7.216666,4.320596,540.000122,540.0,647.583984,75.390701,1094.216187,309.510498,289.186676,0.14801,0.348785,1103.263794,-0.02056,0.144421,0.1,0.0,1.0,2674.249756
92.476303,544.96344,546.15686,7.212208,4.323782,7.212208,4.323782,540.000122,540.0,653.052673,75.391487,1093.284668,309.854004,289.49704,0.14809,0.353647,1101.927246,-0.020574,0.144333,0.1,0.0,1.0,2674.344727
92.469704,548.611633,549.805054,7.209576,4.325749,7.209576,4.325749,550.000122,550.0,656.695923,75.392067,1092.692017,310.082733,289.703857,0.148127,0.356454,1100.991089,-0.020584,0.144272,0.1,0.0,1.0,2674.40918
92.458092,554.080933,555.274414,7.205434,4.328238,7.205434,4.328238,550.000122,550.0,662.157166,75.393036,1091.835815,310.425354,290.013916,0.148144,0.360092,1099.768433,-0.020599,0.144192,0.1,0.0,1.0,2674.507813
92.451294,557.723816,558.917236,7.202975,4.329359,7.202975,4.329359,560.000122,560.0,665.795715,75.393745,1091.289551,310.653656,290.22052,0.148121,0.362207,1098.974365,-0.020607,0.144135,0.1,0.0,1.0,2674.574951
92.441528,563.183289,564.376709,7.199115,4.330315,7.199115,4.330315,560.000122,560.0,671.250122,75.394943,1090.500854,310.996246,290.530243,0.148057,0.365007,1097.818604,-0.020616,0.144059,0.1,0.0,1.0,2674.67749
92.435326,566.819824,568.013245,7.196834,4.330546,7.196834,4.330546,570.000122,570.0,674.884216,75.395821,1089.999268,311.224854,290.736633,0.148004,0.366678,1097.072876,-0.020619,0.144007,0.1,0.0,1.0,2674.746826
92.426399,572.270142,573.463562,7.193256,4.330513,7.193256,4.330513,570.000122,570.0,680.332397,75.397293,1089.281616,311.568115,291.046051,0.147929,0.368939,1095.992798,-0.020622,0.143937,0.1,0.0,1.0,2674.853027
92.420677,575.900818,577.094299,7.191151,4.33038,7.191151,4.33038,580.000122,580.0,683.962524,75.398376,1088.828613,311.797211,291.252228,0.14789,0.370306,1095.298828,-0.020622,0.143888,0.1,0.0,1.0,2674.924805
92.412407,581.342712,582.536194,7.187867,4.330204,7.187867,4.330204,580.000122,580.0,689.405029,75.400162,1088.184692,312.141083,291.561401,0.147858,0.372152,1094.297485,-0.020621,0.143823,0.1,0.0,1.0,2675.03418
92.407089,584.968018,586.161499,7.185943,4.330173,7.185943,4.330173,580.000122,580.0,693.031555,75.401459,1087.780518,312.370422,291.767487,0.147851,0.373251,1093.656128,-0.02062,0.143778,0.1,0.0,1.0,2675.108154
92.399406,590.402161,591.595581,7.182942,4.330247,7.182942,4.330247,590.000122,590.0,698.468994,75.403595,1087.206909,312.714355,292.076538,0.147856,-0.027745,1092.733521,-0.02062,0.143719,0.1,0.0,1.0,2675.220459
92.394485,594.022461,595.215942,7.181179,4.330335,7.181179,4.330335,590.000122,590.0,702.092407,75.405136,1086.846313,312.943573,292.282562,0.147862,-0.263478,1092.144531,-0.02062,0.143678,0.1,0.0,1.0,2675.296387
92.38739,599.449463,600.642944,7.178421,4.330404,7.178421,4.330404,600.000122,600.0,707.525269,75.407639,1086.332764,313.28714,292.591553,0.147864,-0.575611,1091.299561,-0.020621,0.143624,0.1,0.0,1.0,2675.411377
