airspeed_indicator_indicated_speed_kt,altimeter_indicated_altitude_ft,altimeter_pressure_alt_ft,attitude_indicator_indicated_pitch_deg,attitude_indicator_indicated_roll_deg,attitude_indicator_internal_pitch_deg,attitude_indicator_internal_roll_deg,encoder_indicated_altitude_ft,encoder_pressure_alt_ft,gps_indicated_altitude_ft,gps_indicated_ground_speed_kt,gps_indicated_vertical_speed,indicated_heading_deg,magnetic_compass_indicated_heading_deg,slip_skid_ball_indicated_slip_skid,turn_indicator_indicated_turn_rate,vertical_speed_indicator_indicated_speed_fpm,flight_aileron,flight_elevator,flight_rudder,flight_flaps,engine_throttle,engine_rpm
6.538819,-87.941147,-86.747704,2.970196,1.356676,2.591043,0.09283,-89.999855,-90.0,2.286523,0.0,0.008274,297.866974,278.624359,0.012376,-0.044841,-14.169591,-0.0,0.0,0.0,0.0,0.0,600.221863
6.591568,-87.954666,-86.761223,2.927737,1.21495,2.591053,0.092671,-89.999855,-90.0,2.286558,0.0,0.00278,297.865753,281.937012,0.012415,-0.038748,-15.958338,-0.019381,0.051821,0.0,0.0,1.0,608.62439
6.632864,-87.961952,-86.768509,2.772158,0.721177,2.583532,0.092423,-89.999855,-90.0,2.286541,3.5E-5,-0.012461,297.864868,284.162048,0.012362,-0.035072,-13.410337,-0.017356,0.051821,6.1E-5,0.0,1.0,672.773743
6.700488,-87.97036,-86.776917,2.581643,0.206713,2.546678,0.090161,-89.999855,-90.0,2.286409,2.2E-4,-0.042507,297.863403,287.302338,0.012069,-0.030409,-16.795971,-0.010303,0.051671,1.05E-4,0.0,1.0,846.979065
6.774923,-87.974937,-86.781494,2.511547,0.086358,2.511547,0.086358,-89.999855,-90.0,2.286292,7.03E-4,-0.021103,297.862244,289.364075,0.012084,-0.027657,-14.534077,-0.002953,0.050934,1.79E-4,0.0,1.0,998.091309
6.97598,-87.980522,-86.787079,2.491118,0.076334,2.491118,0.076334,-89.999855,-90.0,2.286348,0.003819,0.040999,297.860168,292.36438,0.01326,-0.024059,-16.302839,-0.001234,0.050231,2.36E-4,0.0,1.0,1245.639526
7.172807,-87.983353,-86.789909,2.495497,0.067712,2.495497,0.067712,-89.999855,-90.0,2.286556,0.008773,0.080357,297.858368,294.178711,0.014729,-0.022135,-17.342928,-0.00109,0.049822,3.4E-4,0.0,1.0,1401.200195
7.574659,-87.986656,-86.793213,2.5144,0.052962,2.5144,0.052962,-89.999855,-90.0,2.287108,0.023143,0.135726,297.853729,296.682068,0.018506,-0.01994,-7.315583,-9.67E-4,0.04991,4.3E-4,0.0,1.0,1610.973267
7.912797,-87.988327,-86.794884,2.530364,0.042745,2.530364,0.042745,-89.999855,-90.0,2.287632,0.038863,0.173342,297.84848,298.194092,0.021565,-0.019011,-16.665651,-7.57E-4,0.050288,6.62E-4,0.0,1.0,1730.470947
8.515686,-87.990173,-86.79673,2.554596,0.028016,2.554596,0.028016,-89.999855,-90.0,2.288654,0.074028,0.229113,297.835907,300.210999,0.027999,-0.018521,-13.489787,-6.11E-4,0.050607,9.25E-4,0.0,1.0,1877.399414
8.739495,-87.990631,-86.797188,2.562372,0.023475,2.562372,0.023475,-89.999855,-90.0,2.289061,0.089253,0.24968,297.830017,300.813843,0.030887,-0.018641,-15.605904,-6.11E-4,0.050607,9.25E-4,0.0,1.0,1918.147827
8.739495,-87.990631,-86.797188,2.562372,0.023475,2.562372,0.023475,-89.999855,-90.0,2.289061,0.089253,0.24968,297.830017,300.813843,0.030887,-0.018641,-15.605904,-6.11E-4,0.050607,9.25E-4,0.0,1.0,1918.147827
10.267027,-87.992332,-86.798889,2.601283,0.002539,2.601283,0.002539,-89.999855,-90.0,2.292249,0.222836,0.382525,297.77475,303.673309,0.030001,-0.022116,-11.434159,-3.35E-4,0.051247,0.001848,0.0,1.0,2090.888916
11.141907,-87.992157,-86.798714,2.61552,-0.004459,2.61552,-0.004459,-89.999855,-90.0,2.294413,0.32208,0.457623,297.732635,304.629669,0.029195,-0.025473,-10.330888,-3.6E-5,0.052026,0.004611,0.0,1.0,2143.11377
11.731117,-87.991798,-86.798355,2.62242,-0.007607,2.62242,-0.007607,-89.999855,-90.0,2.296025,0.398139,0.507532,297.703217,305.064514,0.02861,-0.027672,-7.638404,6.4E-5,0.05231,0.006717,0.0,1.0,2167.710938
12.61109,-87.990936,-86.797493,2.630749,-0.010633,2.630749,-0.010633,-89.999855,-90.0,2.298686,0.525755,0.584908,297.660126,305.4422,0.027956,-0.030483,7.570488,1.09E-4,0.052448,0.008188,0.0,1.0,2193.718018
13.250931,-87.990082,-86.796638,2.636088,-0.011896,2.636088,-0.011896,-89.999855,-90.0,2.300821,0.629052,0.641919,297.62915,305.530914,0.027628,-0.032262,13.108384,1.52E-4,0.052615,0.010342,0.0,1.0,2206.757813
14.182266,-87.988503,-86.795059,2.642762,-0.012626,2.642762,-0.012626,-89.999855,-90.0,2.304244,0.795448,0.724352,297.587494,305.405304,0.027114,-0.033995,6.341457,1.7E-4,0.052722,0.011891,0.0,1.0,2220.154053
14.781631,-87.987289,-86.793846,2.646707,-0.012456,2.646707,-0.012456,-89.999855,-90.0,2.30665,0.912529,0.778114,297.562958,305.176208,0.026864,-0.034628,14.275885,1.8E-4,0.052855,0.013974,0.0,1.0,2227.081055
15.724829,-87.985039,-86.791595,2.652465,-0.011539,2.652465,-0.011539,-89.999855,-90.0,2.310764,1.112357,0.863663,297.530396,304.600739,0.026626,-0.034558,12.717523,1.78E-4,0.052934,0.015201,0.0,1.0,2236.077148
16.356121,-87.983315,-86.789871,2.65632,-0.010663,2.65632,-0.010663,-89.999855,-90.0,2.313745,1.256622,0.921175,297.512085,304.08078,0.026644,-0.033983,7.095493,1.65E-4,0.053049,0.016829,0.0,1.0,2241.068115
17.305599,-87.980392,-86.786949,2.661936,-0.009131,2.661936,-0.009131,-89.999855,-90.0,2.318577,1.489235,1.007595,297.490936,303.116699,0.02678,-0.03222,10.024602,1.52E-4,0.053126,0.017744,0.0,1.0,2247.390869
17.93977,-87.978218,-86.784767,2.665788,-0.007924,2.665788,-0.007924,-89.999855,-90.0,2.32204,1.654906,1.065008,297.480133,302.363983,0.026967,-0.030671,6.928186,1.3E-4,0.053239,0.018802,0.0,1.0,2250.990967
18.918386,-87.974495,-86.781044,2.671612,-0.005887,2.671612,-0.005887,-89.999855,-90.0,2.327756,1.926521,1.154911,297.46814,301.055328,0.027443,-0.027845,14.272272,1.13E-4,0.053316,0.019342,0.0,1.0,2255.807617
19.527525,-87.971954,-86.778511,2.675346,-0.004433,2.675346,-0.004433,-89.999855,-90.0,2.331541,2.105055,1.212491,297.462402,300.16449,0.027736,-0.026034,14.162634,8.4E-5,0.053432,0.019942,0.0,1.0,2258.44873
20.453241,-87.967773,-86.77433,2.680927,-0.001994,2.680927,-0.001994,-89.999855,-90.0,2.337642,2.390633,1.294556,297.454926,298.71759,0.028126,-0.0234,8.465564,6.3E-5,0.053507,0.020229,0.0,1.0,2262.072998
21.114637,-87.964546,-86.771095,2.685046,-1.8E-5,2.685046,-1.8E-5,-89.999855,-90.0,2.342252,2.60465,1.355686,297.44931,297.631195,0.028249,-0.021797,12.731367,2.8E-5,0.053619,0.020602,0.0,1.0,2264.432861
22.066467,-87.959534,-86.76609,2.69092,0.003122,2.69092,0.003122,-89.999855,-90.0,2.34926,2.927125,1.442542,297.439362,296.013763,0.028104,-0.020058,11.971529,0.0,0.053701,0.020883,0.0,1.0,2267.577393
22.727018,-87.955811,-86.762367,2.695129,0.005527,2.695129,0.005527,-89.999855,-90.0,2.354384,3.160747,1.504107,297.430267,294.868622,0.027756,-0.019341,17.364676,-4.5E-5,0.053818,0.021381,0.0,1.0,2269.624756
23.650597,-87.950256,-86.756813,2.700981,0.009131,2.700981,0.009131,-89.999855,-90.0,2.361909,3.500775,1.588451,297.414246,293.257263,0.026816,-0.01896,18.817457,-7.9E-5,0.053903,0.021835,0.0,1.0,2272.349854
24.309694,-87.946045,-86.752602,2.70532,0.011869,2.70532,0.011869,-89.999855,-90.0,2.367537,3.752674,1.649145,297.400208,292.1138,0.025952,-0.019129,15.059894,-1.3E-4,0.05402,0.022636,0.0,1.0,2274.217773
25.230938,-87.939812,-86.746368,2.711393,0.015788,2.711393,0.015788,-89.999855,-90.0,2.37577,4.117606,1.73379,297.377808,290.54306,0.024308,-0.019754,19.215313,-1.7E-4,0.054106,0.023338,0.0,1.0,2276.750488
25.861799,-87.93531,-86.741859,2.715723,0.018552,2.715723,0.018552,-89.999855,-90.0,2.381654,4.375909,1.791839,297.360779,289.497192,0.023149,-0.020391,16.751633,-2.26E-4,0.054228,0.024458,0.0,1.0,2278.444092
26.80632,-87.928192,-86.734749,2.724639,0.024074,2.724639,0.024074,-89.999855,-90.0,2.391066,4.775306,2.005611,297.334473,287.993195,0.021655,-0.02129,13.87421,-2.65E-4,0.054314,0.02531,0.0,1.0,2280.935059
27.460691,-87.922935,-86.729492,2.732853,0.031437,2.732853,0.031437,-89.999855,-90.0,2.39826,5.06087,2.15785,297.315826,287.004272,0.0205,-0.021834,14.320012,-3.44E-4,0.054493,0.026625,0.0,1.0,2282.637695
28.376144,-87.915039,-86.721588,2.739527,0.035797,2.739527,0.035797,-89.999855,-90.0,2.408971,5.471612,2.248893,297.291138,285.709656,0.018406,-0.022385,14.832535,-4.49E-4,0.054657,0.027557,0.0,1.0,2284.994385
29.002964,-87.909233,-86.715782,2.743804,0.038396,2.743804,0.038396,-89.999855,-90.0,2.416569,5.760454,2.308047,297.27533,284.889404,0.017468,-0.022555,17.20817,-5.11E-4,0.054791,0.028792,0.0,1.0,2286.602539
29.942478,-87.899971,-86.706528,2.750487,0.042038,2.750487,0.042038,-89.999855,-90.0,2.428365,6.204356,2.404013,297.254059,283.772003,0.016483,-0.022394,12.913519,-5.49E-4,0.054876,0.029582,0.0,1.0,2289.007568
30.593649,-87.893166,-86.699722,2.755433,0.044626,2.755433,0.044626,-89.999855,-90.0,2.436841,6.519929,2.471441,297.240448,283.080963,0.01609,-0.022126,19.690048,-6.01E-4,0.05501,0.030646,0.0,1.0,2290.67334
31.503607,-87.883163,-86.68972,2.762328,0.04826,2.762328,0.04826,-89.999855,-90.0,2.449097,6.971484,2.565129,297.222809,282.236481,0.015663,-0.021569,18.377165,-6.38E-4,0.055109,0.031326,0.0,1.0,2293.0
32.152336,-87.875687,-86.682243,2.767404,0.051021,2.767404,0.051021,-89.999855,-90.0,2.45813,7.300797,2.631719,297.210327,281.723785,0.015434,-0.021208,16.759714,-6.89E-4,0.055247,0.032208,0.0,1.0,2294.658691
33.032658,-87.865112,-86.671669,2.774189,0.054906,2.774189,0.054906,-89.999855,-90.0,2.470787,7.757443,2.725039,297.192871,281.14978,0.014937,-0.020852,17.772779,-7.29E-4,0.055348,0.032832,0.0,1.0,2296.910889
33.678936,-87.857033,-86.663582,2.7793,0.057987,2.7793,0.057987,-89.999855,-90.0,2.480367,8.099488,2.789352,297.178741,280.818634,0.014452,-0.02083,19.316746,-7.84E-4,0.055484,0.033705,0.0,1.0,2298.564941
34.633209,-87.844612,-86.651169,2.790752,0.062667,2.790752,0.062667,-89.999855,-90.0,2.495177,8.615159,3.028179,297.155518,280.468689,0.013388,-0.021158,16.442556,-8.28E-4,0.055586,0.034412,0.0,1.0,2301.010254
35.198368,-87.836868,-86.643425,2.798234,0.065687,2.798234,0.065687,-89.999855,-90.0,2.505141,8.926961,3.286869,297.13974,280.338348,0.012274,-0.021648,16.252899,-8.95E-4,0.055815,0.035573,0.0,1.0,2302.462646
36.173271,-87.822723,-86.62928,2.805471,0.070882,2.805471,0.070882,-89.999855,-90.0,2.522765,9.474328,3.389568,297.109894,280.244873,0.010393,-0.022776,9.180659,-9.38E-4,0.055965,0.036362,0.0,1.0,2304.969238
36.737305,-87.81414,-86.620689,2.809671,0.074037,2.809671,0.074037,-89.999855,-90.0,2.533223,9.796176,3.451234,297.090942,280.263855,0.008852,-0.023619,13.261153,-0.001013,0.056109,0.037854,0.0,1.0,2306.419678
37.655331,-87.799484,-86.606041,2.816666,0.07896,2.816666,0.07896,-89.999855,-90.0,2.550756,10.330401,3.555507,297.059143,280.403687,0.006567,-0.024944,19.02804,-0.001058,0.056193,0.038802,0.0,1.0,2308.79126
38.292137,-87.788918,-86.595467,2.821814,0.082404,2.821814,0.082404,-89.999855,-90.0,2.563242,10.706755,3.629366,297.036591,280.575104,0.005064,-0.025829,19.259357,-0.001128,0.056333,0.040392,0.0,1.0,2310.4375
39.181206,-87.77359,-86.580147,2.828946,0.086915,2.828946,0.086915,-89.999855,-90.0,2.581151,11.24078,3.734979,297.006073,280.908417,0.003061,-0.026741,18.197128,-0.001177,0.056436,0.041519,0.0,1.0,2312.740723
39.814854,-87.762291,-86.568848,2.834151,0.090112,2.834151,0.090112,-89.999855,-90.0,2.594266,11.62716,3.982415,296.985046,281.207001,0.002001,-0.027205,20.278906,-0.001242,0.056579,0.043045,0.0,1.0,2314.38501
40.749146,-87.74501,-86.551567,2.85203,0.097652,2.85203,0.097652,-89.999855,-90.0,2.614682,12.206277,4.265624,296.955963,281.729828,0.001009,-0.027401,15.263724,-0.001287,0.056683,0.044096,0.0,1.0,2316.81665
41.353081,-87.733292,-86.539848,2.856955,0.101991,2.856955,0.101991,-89.999855,-90.0,2.62922,12.586404,4.40413,296.937927,282.113739,3.12E-4,-0.027411,19.599966,-0.001395,0.057041,0.045551,0.0,1.0,2318.392822
42.231422,-87.715393,-86.52195,2.86129,0.106069,2.86129,0.106069,-89.999855,-90.0,2.650902,13.146845,4.511117,296.913696,282.72583,-2.61E-4,-0.02714,19.345402,-0.001457,0.057139,0.046452,0.0,1.0,2320.689453
42.832001,-87.702614,-86.509171,2.865367,0.108934,2.865367,0.108934,-89.999855,-90.0,2.666081,13.535188,4.588459,296.897583,283.174774,-4.55E-4,-0.026913,18.064014,-0.001515,0.057226,0.047664,0.0,1.0,2322.265869
43.754967,-87.682205,-86.488762,2.872506,0.113469,2.872506,0.113469,-89.999855,-90.0,2.68999,14.140079,4.708375,296.872681,283.90152,-6.73E-4,-0.026608,11.542751,-0.001556,0.057307,0.04847,0.0,1.0,2325.753418
44.327286,-87.669098,-86.475655,2.877247,0.116558,2.877247,0.116558,-89.999855,-90.0,2.705163,14.519753,4.783038,296.856079,284.368011,-9.64E-4,-0.026631,10.924972,-0.001621,0.05745,0.049715,0.0,1.0,2328.621582
45.195969,-87.648483,-86.45504,2.890642,0.121648,2.890642,0.121648,-89.999855,-90.0,2.730033,15.102709,5.377961,296.828949,285.089142,-0.001635,-0.026934,19.430891,-0.001665,0.057545,0.050545,0.0,1.0,2333.605713
45.815353,-87.63308,-86.439636,2.896969,0.126419,2.896969,0.126419,-89.999855,-90.0,2.748889,15.522826,5.482302,296.807312,285.605957,-0.00243,-0.027472,17.043316,-0.001738,0.057813,0.051901,0.0,1.0,2337.461426
46.73114,-87.6092,-86.415756,2.903699,0.131727,2.903699,0.131727,-89.999855,-90.0,2.777391,16.150101,5.607309,296.772583,286.362335,-0.004156,-0.028607,19.551163,-0.001806,0.057939,0.052983,0.0,1.0,2343.435059
47.324932,-87.593132,-86.399681,2.908319,0.135253,2.908319,0.135253,-89.999855,-90.0,2.796225,16.560396,5.687633,296.74823,286.841583,-0.005658,-0.029549,20.096846,-0.001882,0.058074,0.05472,0.0,1.0,2347.419678
48.18996,-87.568939,-86.375496,2.91513,0.140072,2.91513,0.140072,-89.999855,-90.0,2.824194,17.163406,5.810764,296.712128,287.515747,-0.007906,-0.030835,18.436876,-0.001932,0.058166,0.055937,0.0,1.0,2353.323486
48.782722,-87.551903,-86.358459,2.920028,0.14337,2.920028,0.14337,-89.999855,-90.0,2.843722,17.580013,5.89695,296.687073,287.95636,-0.0094,-0.031659,18.885992,-0.002001,0.058303,0.057742,0.0,1.0,2357.414551
49.694885,-87.524857,-86.331406,2.934805,0.156283,2.934805,0.156283,-89.999855,-90.0,2.875557,18.227087,6.881701,296.650299,288.593231,-0.010885,-0.032265,18.714548,-0.002048,0.058401,0.058995,0.0,1.0,2363.762207
50.26049,-87.507263,-86.31382,2.942984,0.161139,2.942984,0.161139,-89.999855,-90.0,2.897564,18.632168,6.926451,296.627838,288.959442,-0.01229,-0.032654,12.936182,-0.002233,0.058696,0.060834,0.0,1.0,2367.723389
51.145302,-87.478386,-86.284943,2.949194,0.165345,2.949194,0.165345,-89.999855,-90.0,2.932531,19.270443,7.05444,296.595001,289.481201,-0.013463,-0.032864,20.102379,-0.002302,0.05886,0.061957,0.0,1.0,2373.939453
51.734745,-87.458366,-86.264915,2.953489,0.168063,2.953489,0.168063,-89.999855,-90.0,2.956216,19.698755,7.147592,296.574066,289.791565,-0.013884,-0.03285,15.704414,-0.002362,0.058984,0.063599,0.0,1.0,2378.092285
52.61776,-87.427307,-86.233856,2.96021,0.171751,2.96021,0.171751,-89.999855,-90.0,2.992332,20.345276,7.290286,296.544434,290.197113,-0.01394,-0.032555,16.299355,-0.002401,0.05907,0.064645,0.0,1.0,2384.331299
53.205803,-87.40596,-86.212517,2.964964,0.174264,2.964964,0.174264,-89.999855,-90.0,3.016809,20.778915,7.386151,296.52478,290.425995,-0.013731,-0.032384,16.769419,-0.002454,0.059204,0.066127,0.0,1.0,2388.495605
54.086998,-87.373077,-86.179634,2.971803,0.177821,2.971803,0.177821,-89.999855,-90.0,3.054121,21.433182,7.529514,296.495087,290.705261,-0.013185,-0.032196,17.395966,-0.002489,0.059299,0.06711,0.0,1.0,2394.749023
54.64925,-87.351563,-86.158119,2.976274,0.180211,2.976274,0.180211,-89.999855,-90.0,3.078336,21.853508,7.625313,296.474945,290.842987,-0.012856,-0.032284,13.775376,-0.00254,0.059436,0.068594,0.0,1.0,2398.748535
55.577564,-87.3153,-86.121849,2.98328,0.183986,2.98328,0.183986,-89.999855,-90.0,3.118987,22.55179,7.776548,296.43985,291.001099,-0.012494,-0.032692,21.554819,-0.002574,0.059525,0.069601,0.0,1.0,2405.365723
56.431339,-87.280983,-86.08754,2.989814,0.187502,2.989814,0.187502,-89.999855,-90.0,3.157133,23.199022,7.910834,296.404358,291.071259,-0.012494,-0.033512,18.863401,-0.002628,0.059666,0.071356,0.0,1.0,2411.466309
57.016258,-87.257027,-86.063583,2.994103,0.190172,2.994103,0.190172,-89.999855,-90.0,3.183631,23.645018,7.94577,296.378296,291.078644,-0.012706,-0.034272,13.692724,-0.002662,0.059753,0.072513,0.0,1.0,2415.654785
57.868031,-87.221535,-86.028091,2.999611,0.194326,2.999611,0.194326,-89.999855,-90.0,3.222432,24.2985,8.043579,296.338501,291.032318,-0.01324,-0.035517,20.797535,-0.002717,0.059882,0.074434,0.0,1.0,2421.769287
58.451759,-87.196869,-86.003426,3.004066,0.196424,3.004066,0.196424,-89.999855,-90.0,3.249407,24.748642,8.138808,296.311066,290.963135,-0.013601,-0.0363,18.971024,-0.002776,0.059992,0.076424,0.0,1.0,2425.967285
59.058949,-87.170853,-85.977409,3.008634,0.198298,3.008634,0.198298,-89.999855,-90.0,3.277846,25.21925,8.236047,296.283539,290.860504,-0.013781,-0.036861,12.78898,-0.002806,0.060081,0.077795,0.0,1.0,2430.343018
59.400349,-87.132614,-85.939171,3.019717,0.19879,3.019717,0.19879,-89.999855,-90.0,3.321165,25.899881,8.82943,296.247101,290.661652,-0.013361,-0.037113,21.235952,-0.002833,0.060173,0.079172,0.0,1.0,2436.64917
59.407993,-87.093132,-85.899689,3.033566,0.200653,3.033566,0.200653,-89.999855,-90.0,3.367393,26.583862,9.851395,296.213715,290.40799,-0.011931,-0.036844,15.334664,-0.00284,0.060394,0.080994,0.0,1.0,2443.029541
59.413067,-87.066887,-85.873444,3.03872,0.201581,3.03872,0.201581,-89.999855,-90.0,3.399015,27.022528,9.941165,296.193451,290.220337,-0.010427,-0.036535,18.887478,-0.002866,0.060671,0.082663,0.0,1.0,2447.1521
59.421543,-87.023079,-85.829636,3.043592,0.202541,3.043592,0.202541,-89.999855,-90.0,3.450468,27.730848,10.081379,296.162811,289.88205,-0.007341,-0.035798,16.356939,-0.00288,0.060774,0.083676,0.0,1.0,2453.832764
59.426991,-86.994934,-85.801491,3.047225,0.203114,3.047225,0.203114,-89.999855,-90.0,3.48285,28.172743,10.188333,296.14386,289.652283,-0.00492,-0.0354,18.804344,-0.002893,0.060872,0.085208,0.0,1.0,2458.004883
59.435986,-86.948463,-85.75502,3.053621,0.20351,3.053621,0.20351,-89.999855,-90.0,3.535658,28.88607,10.444611,296.113068,289.257263,-7.38E-4,-0.034885,19.083954,-0.002902,0.060945,0.086156,0.0,1.0,2464.739258
59.441727,-86.918777,-85.725334,3.062457,0.209298,3.062457,0.209298,-89.999855,-90.0,3.570349,29.330961,11.025366,296.093018,288.999115,0.001865,-0.034634,14.259886,-0.002907,0.061072,0.087695,0.0,1.0,2468.935059
59.451263,-86.869492,-85.676041,3.068487,0.208641,3.068487,0.208641,-89.999855,-90.0,3.627405,30.048922,11.176734,296.05899,288.569458,0.006738,-0.034774,20.175234,-0.00299,0.061249,0.088698,0.0,1.0,2475.695557
59.457638,-86.836548,-85.643105,3.071794,0.207826,3.071794,0.207826,-89.999855,-90.0,3.664858,30.516073,11.284558,296.035339,288.284607,0.010195,-0.035112,20.622755,-0.002981,0.06137,0.090399,0.0,1.0,2480.086182
59.467148,-86.787376,-85.593933,3.076611,0.205883,3.076611,0.205883,-89.999855,-90.0,3.720133,31.199297,11.451436,296.000336,287.865814,0.015813,-0.035624,16.064262,-0.002969,0.061436,0.091582,0.0,1.0,2486.497559
59.474091,-86.751503,-85.55806,3.085924,0.203317,3.085924,0.203317,-89.999855,-90.0,3.760983,31.688694,12.681813,295.975098,287.567383,0.019999,-0.036016,21.573977,-0.002941,0.061532,0.093332,0.0,1.0,2491.083252
59.48415,-86.699425,-85.505981,3.096175,0.200044,3.096175,0.200044,-89.999855,-90.0,3.823513,32.375683,12.937924,295.941681,287.155243,0.027044,-0.036165,17.53195,-0.002905,0.061718,0.094594,0.0,1.0,2497.508301
59.491615,-86.660805,-85.467361,3.099435,0.197011,3.099435,0.197011,-89.999855,-90.0,3.86864,32.867661,13.047457,295.919037,286.867737,0.032616,-0.036086,23.26976,-0.002858,0.061924,0.096265,0.0,1.0,2502.101074
59.502388,-86.60508,-85.411636,3.103458,0.191621,3.103458,0.191621,-89.999855,-90.0,3.932498,33.558144,13.221435,295.890625,286.479126,0.042336,-0.035482,22.398188,-0.002814,0.061989,0.097397,0.0,1.0,2508.537354
59.50996,-86.565903,-85.372459,3.106708,0.187302,3.106708,0.187302,-89.999855,-90.0,3.976775,34.032734,13.36165,295.87323,286.224335,0.049804,-0.034813,23.403093,-0.002737,0.062069,0.098817,0.0,1.0,2512.955322
59.521606,-86.505646,-85.312202,3.093752,0.140304,3.093752,0.140304,-89.999855,-90.0,4.046586,34.746265,14.652655,295.851013,285.863678,0.059655,-0.034369,17.779154,-0.002676,0.062134,0.099687,0.0,1.0,2519.591309
59.529991,-86.462204,-85.268761,3.04857,0.038704,3.04857,0.038704,-89.999855,-90.0,4.099216,35.242882,15.623505,295.840424,285.63092,0.065839,-0.034912,16.266954,-0.002004,0.061875,0.100798,0.0,1.0,2524.209717
59.542286,-86.398491,-85.205048,2.946541,-0.139446,2.946541,-0.139446,-89.999855,-90.0,4.176771,35.939621,15.985464,295.841705,285.33429,0.074722,-0.033705,22.959858,-5.53E-4,0.060971,0.101328,0.0,1.0,2530.695557
59.551052,-86.353065,-85.159622,2.888374,-0.250427,2.888374,-0.250427,-89.999855,-90.0,4.230331,36.418339,16.076439,295.85495,285.153687,0.080503,-0.030747,23.313421,0.001992,0.058931,0.101263,0.0,1.0,2535.154297
59.564636,-86.28273,-85.089279,2.832991,-0.363188,2.832991,-0.363188,-89.999855,-90.0,4.311839,37.137794,16.69183,295.885529,284.922058,0.089201,-0.023979,24.09446,0.003578,0.057767,0.100601,0.0,1.0,2541.844727
59.574379,-86.232254,-85.038803,2.776529,-0.402134,2.776529,-0.402134,-89.999855,-90.0,4.370897,37.638332,17.182915,295.907715,284.790924,0.094926,-0.018842,20.963629,0.005188,0.05666,0.099072,0.0,1.0,2546.490967
59.588863,-86.157204,-84.96376,2.687432,-0.401545,2.687432,-0.401545,-79.999855,-80.0,4.456633,38.360344,17.075762,295.927795,284.647491,0.10288,-0.013004,17.401917,0.005745,0.055531,0.097963,0.0,1.0,2553.186035
59.598339,-86.108109,-84.914665,2.651782,-0.376277,2.651782,-0.376277,-79.999855,-80.0,4.512683,38.823059,18.305401,295.927673,284.584778,0.107106,-0.011234,21.223583,0.005736,0.053749,0.096959,0.0,1.0,2557.467041
59.613827,-86.027618,-84.834175,2.700978,-0.321948,2.700978,-0.321948,-79.999855,-80.0,4.623192,39.550362,27.550383,295.901428,284.531372,0.111051,-0.012564,20.717175,0.005375,0.053036,0.096965,0.0,1.0,2564.162109
59.625996,-85.963913,-84.77047,2.791066,-0.287849,2.791066,-0.287849,-79.999855,-80.0,4.741594,40.055984,41.044609,295.866791,284.524231,0.111823,-0.015999,20.43162,0.004599,0.05402,0.098277,0.0,1.0,2568.794434
59.648594,-85.844765,-84.651321,2.941475,-0.26161,2.941475,-0.26161,-79.999855,-80.0,5.013415,40.784466,68.00248,295.809509,284.551208,0.110731,-0.021848,28.68051,0.004112,0.055821,0.100009,0.0,1.0,2575.417969
59.668179,-85.741226,-84.547775,3.045983,-0.257257,3.045983,-0.257257,-79.999855,-80.0,5.263106,41.249851,87.7733,295.778442,284.587891,0.10913,-0.02445,36.604763,0.003737,0.05883,0.102873,0.0,1.0,2579.608887
59.710346,-85.518333,-84.32489,3.199299,-0.259586,3.199299,-0.259586,-79.999855,-80.0,5.784591,41.977711,119.882561,295.756683,284.669342,0.106659,-0.023887,52.597389,0.003675,0.06092,0.104427,0.0,1.0,2586.081055
59.749886,-85.309731,-84.116287,3.316199,-0.254633,3.316199,-0.254633,-79.999855,-80.0,6.240769,42.482391,142.086502,295.765076,284.739319,0.105814,-0.019669,65.750732,0.003708,0.063986,0.105515,0.0,1.0,2590.443604
59.824173,-84.918274,-83.724831,3.476478,-0.220498,3.476478,-0.220498,-79.999855,-80.0,7.032408,43.207306,173.371368,295.806946,284.85318,0.106463,-0.009108,87.108894,0.003638,0.066324,0.105095,0.0,1.0,2595.628906
59.883232,-84.607262,-83.413818,3.579842,-0.176302,3.579842,-0.176302,-79.999855,-80.0,7.617824,43.668919,192.289001,295.844849,284.930908,0.10834,-9.65E-4,101.861183,0.00315,0.06953,0.103001,0.0,1.0,2598.349854
59.994572,-84.021439,-82.827995,3.713291,-0.07554,3.713291,-0.07554,-79.999855,-80.0,8.654693,44.388355,221.459259,295.901764,285.055084,0.112601,0.010462,125.388557,0.002519,0.071597,0.101106,0.0,1.0,2601.97998
60.082123,-83.560623,-82.36718,3.802617,0.006207,3.802617,0.006207,-79.999855,-80.0,9.425446,44.865513,240.225388,295.929352,285.13678,0.115664,0.015792,141.671707,0.001079,0.074266,0.09826,0.0,1.0,2604.092285
60.238472,-82.737076,-81.543633,3.930674,0.128766,3.930674,0.128766,-79.999855,-80.0,10.734888,45.596645,268.439026,295.94458,285.256042,0.119497,0.018608,167.276367,-8.9E-5,0.076052,0.096881,0.0,1.0,2607.012695
60.348705,-82.155556,-80.962105,4.01371,0.193709,4.01371,0.193709,-79.999855,-80.0,11.620771,46.048103,285.494598,295.939087,285.323486,0.12081,0.017568,183.369629,-0.00184,0.078613,0.09612,0.0,1.0,2608.675537
60.540756,-81.141045,-79.947601,4.126718,0.258678,4.126718,0.258678,-79.999855,-80.0,13.114608,46.749596,310.908478,295.919647,285.414459,0.120879,0.013723,208.042725,-0.002767,0.080274,0.096394,0.0,1.0,2611.106934
60.682026,-80.393303,-79.19986,4.202035,0.279599,4.202035,0.279599,-79.999855,-80.0,14.179212,47.213531,327.556061,295.909546,285.463043,0.119861,0.011512,224.505386,-0.003695,0.082534,0.097366,0.0,1.0,2612.635254
60.913464,-79.164848,-77.971405,4.314821,0.283385,4.314821,0.283385,-79.999855,-80.0,15.88776,47.903427,355.546844,295.914948,285.514893,0.117629,0.011298,249.262573,-0.003994,0.084041,0.097871,0.0,1.0,2614.818359
61.080704,-78.274712,-77.081268,4.410814,0.279151,4.410814,0.279151,-79.999855,-80.0,17.107931,48.359112,376.098206,295.93634,285.534088,0.116495,0.01384,265.709503,-0.004048,0.086296,0.097601,0.0,1.0,2616.211426
61.351326,-76.829437,-75.635994,4.561344,0.28213,4.561344,0.28213,-79.999855,-80.0,19.065897,49.035797,405.246368,295.990234,285.537781,0.116398,0.020758,290.907562,-0.003988,0.088216,0.096532,0.0,1.0,2618.215576
61.561729,-75.701622,-74.508179,4.657893,0.30053,4.657893,0.30053,-69.999855,-70.0,20.562901,49.519154,422.79599,296.037903,285.520599,0.117597,0.026806,309.481659,-0.00403,0.091227,0.093837,0.0,1.0,2619.602051
61.855202,-74.122749,-72.929306,4.725437,0.346766,4.725437,0.346766,-69.999855,-70.0,22.607613,50.144154,442.269714,296.094727,285.472473,0.120678,0.03327,333.537659,-0.004293,0.093158,0.091454,0.0,1.0,2621.344727
62.083233,-72.891594,-71.698143,4.765415,0.389593,4.765415,0.389593,-69.999855,-70.0,24.166658,50.598484,455.136414,296.125763,285.419006,0.122717,0.035919,350.48349,-0.004954,0.094509,0.088612,0.0,1.0,2622.581787
62.41832,-71.074394,-69.880951,4.834072,0.443591,4.834072,0.443591,-69.999855,-70.0,26.423119,51.226967,472.783081,296.146332,285.319519,0.124746,0.035401,373.011993,-0.005566,0.095308,0.087061,0.0,1.0,2624.258301
62.678478,-69.657455,-68.464012,4.897877,0.468863,4.897877,0.468863,-69.999855,-70.0,28.155867,51.688019,486.538483,296.146667,285.227631,0.12477,0.032417,388.959106,-0.006337,0.096681,0.086032,0.0,1.0,2625.465576
63.043152,-67.661446,-66.468002,4.978261,0.471461,4.978261,0.471461,-69.999855,-70.0,30.569464,52.300686,506.023438,296.138641,285.080505,0.122949,0.026968,409.81546,-0.006698,0.097958,0.086015,0.0,1.0,2627.043945
63.30257,-66.234688,-65.041245,5.036148,0.454931,5.036148,0.454931,-69.999855,-70.0,32.279758,52.715443,519.683472,296.136841,284.964752,0.120865,0.023924,423.835297,-0.006735,0.099565,0.086417,0.0,1.0,2628.0979
63.693306,-64.074677,-62.881229,5.116,0.41639,5.116,0.41639,-59.999859,-60.0,34.856155,53.312389,539.66217,296.151428,284.775726,0.117518,0.022465,443.536896,-0.006499,0.100723,0.086507,0.0,1.0,2629.59668
63.969875,-62.538029,-61.344582,5.175773,0.389671,5.175773,0.389671,-59.999859,-60.0,36.678551,53.716263,553.313477,296.175781,284.633362,0.115863,0.023843,456.92392,-0.005948,0.10232,0.085777,0.0,1.0,2630.599121
64.409889,-60.079388,-58.885944,5.262988,0.36606,5.262988,0.36606,-59.999859,-60.0,39.578728,54.330097,574.819641,296.229065,284.396088,0.114812,0.028487,477.589386,-0.005567,0.103515,0.08456,0.0,1.0,2632.104492
64.704094,-58.4263,-57.232857,5.324948,0.371296,5.324948,0.371296,-59.999859,-60.0,41.519054,54.7225,588.868347,296.249542,284.232208,0.124086,0.028173,490.985016,-0.005229,0.10526,0.0,0.0,1.0,2633.05542
65.1446,-55.936722,-54.743279,5.39608,0.392282,5.39608,0.392282,-59.999859,-60.0,44.432495,55.286682,608.965088,295.983093,283.980865,0.133376,-0.020034,510.228241,-0.005304,0.106499,-0.001024,0.0,1.0,2634.417236
65.45459,-54.174801,-52.981354,5.434357,0.28643,5.434357,0.28643,-49.999859,-50.0,46.484631,55.668148,621.692139,295.637024,283.799377,0.122275,-0.076719,523.387085,-0.005604,0.107922,0.012299,0.0,1.0,2635.344238
65.944824,-51.371731,-50.178284,5.478596,-0.166026,5.478596,-0.166026,-49.999859,-50.0,49.727245,56.248013,639.4646,295.092377,283.502197,0.084634,-0.159516,543.563538,-0.004092,0.108687,0.029602,0.0,1.0,2636.773926
66.270653,-49.497108,-48.303661,5.517699,-0.595687,5.517699,-0.595687,-49.999859,-50.0,51.877888,56.618935,650.553711,294.85672,283.297302,0.054238,-0.190105,556.618286,0.002372,0.109572,0.056834,0.0,1.0,2637.700928
66.75528,-46.69199,-45.498547,5.602406,-1.202809,5.602406,-1.202809,-49.999859,-50.0,55.084023,57.152264,668.461548,294.823181,282.982391,0.0165,-0.179468,574.864502,0.00851,0.110354,0.068617,0.0,1.0,2639.039307
67.093834,-44.719898,-43.526455,5.677629,-1.48656,5.677629,-1.48656,-39.999859,-40.0,57.335953,57.512714,682.362244,295.001312,282.758118,0.006568,-0.138693,587.063904,0.017183,0.112048,0.070294,0.0,1.0,2639.946777
67.626495,-41.597309,-40.403866,5.801435,-1.525149,5.801435,-1.525149,-39.999859,-40.0,60.90279,58.059731,705.452271,295.43042,282.406433,0.016845,-0.051919,605.980957,0.021237,0.113553,0.061388,0.0,1.0,2641.310303
67.964592,-39.601746,-38.408302,5.887748,-1.323338,5.887748,-1.323338,-39.999859,-40.0,63.18174,58.394161,720.962219,295.674835,282.188171,0.036515,-0.004012,618.177429,0.021788,0.116029,0.039932,0.0,1.0,2642.119629
68.504005,-36.397854,-35.204411,5.986174,-0.801681,5.986174,-0.801681,-39.999859,-40.0,66.850868,58.908562,745.765503,295.820557,281.851837,0.070753,0.028258,637.352783,0.018905,0.117755,0.027711,0.0,1.0,2643.319824
68.870743,-34.205063,-33.011616,6.033861,-0.450166,6.033861,-0.450166,-29.999857,-30.0,69.363441,59.245296,761.013062,295.717224,281.632141,0.085521,0.015544,650.35675,0.011453,0.119723,0.020425,0.0,1.0,2644.084717
69.447594,-30.732607,-29.539164,6.079278,-0.162596,6.079278,-0.162596,-29.999857,-30.0,73.329437,59.754955,781.166748,295.316193,281.299103,0.087093,-0.044221,670.831177,0.006431,0.120677,0.025592,0.0,1.0,2645.233643
69.829025,-28.419493,-27.226049,6.109721,-0.18211,6.109721,-0.18211,-29.999857,-30.0,75.952675,60.079666,792.199341,295.001587,281.085083,0.073405,-0.090364,684.368958,0.002323,0.121586,0.045644,0.0,1.0,2645.970703
70.394554,-24.967319,-23.773876,6.15803,-0.475359,6.15803,-0.475359,-19.999857,-20.0,79.841461,60.5453,807.180969,294.682465,280.773376,0.041012,-0.132084,703.830505,0.002602,0.122194,0.061374,0.0,1.0,2647.041748
70.78759,-22.552519,-21.359076,6.202914,-0.747109,6.202914,-0.747109,-19.999857,-20.0,82.549683,60.85928,817.432495,294.634338,280.559814,0.022305,-0.131456,716.509216,0.006791,0.123161,0.07733,0.0,1.0,2647.774414
71.418495,-18.647383,-17.453938,6.293663,-1.035595,6.293663,-1.035595,-19.999857,-20.0,86.910561,61.347462,834.936951,294.861633,280.225189,0.010445,-0.080243,736.111816,0.010673,0.124058,0.079736,0.0,1.0,2648.918213
71.805519,-16.234606,-15.041161,6.364996,-1.04378,6.364996,-1.04378,-19.999857,-20.0,89.597092,61.637417,846.796692,295.111877,280.02771,0.018168,-0.032374,747.831421,0.014794,0.125873,0.068372,0.0,1.0,2649.587402
72.418312,-12.387524,-11.194079,6.462217,-0.755093,6.462217,-0.755093,-9.999858,-10.0,93.882004,62.082455,866.648926,295.465546,279.731995,0.047161,0.032851,765.735352,0.014911,0.1273,0.055859,0.0,1.0,2650.577881
72.848946,-9.663887,-8.470443,6.519487,-0.423117,6.519487,-0.423117,-9.999858,-10.0,96.915939,62.385002,880.369995,295.58255,279.538879,0.069531,0.054475,778.086304,0.010787,0.129244,0.038176,0.0,1.0,2651.211426
73.441284,-5.89136,-4.697916,6.564028,-8.3E-5,6.564028,-8.3E-5,-9.999858,-10.0,101.115028,62.787888,896.910217,295.490601,279.293793,0.093935,0.040046,794.792236,0.006045,0.13039,0.032326,0.0,1.0,2651.986816
73.881836,-3.065466,-1.872021,6.587669,0.18613,6.587669,0.18613,1.42E-4,0.0,104.247185,63.078018,906.574524,295.27243,279.125793,0.096557,0.004712,807.16333,1.0E-6,0.131281,0.036923,0.0,1.0,2652.503174
74.505173,1.067974,2.261419,6.612974,0.155324,6.612974,0.155324,1.42E-4,0.0,108.682426,63.475979,917.429626,294.90979,278.905182,0.080399,-0.052889,824.32959,-0.002659,0.131753,0.047832,0.0,1.0,2653.185547
74.935616,4.00602,5.199464,6.631578,-0.027292,6.631578,-0.027292,1.42E-4,0.0,111.751488,63.743599,923.683594,294.724243,278.762177,0.06203,-0.080476,835.386719,-0.002219,0.132259,0.065964,0.0,1.0,2653.637939
75.585373,8.473247,9.666691,6.666441,-0.392842,6.666441,-0.392842,10.000142,10.0,116.392883,64.137291,932.628723,294.681915,278.559265,0.036259,-0.081107,851.138489,3.9E-4,0.132632,0.075241,0.0,1.0,2654.302734
76.020996,11.490273,12.683718,6.702715,-0.58516,6.702715,-0.58516,10.000142,10.0,119.51255,64.394615,939.046692,294.816986,278.432648,0.029277,-0.054761,861.164429,0.005612,0.133329,0.077358,0.0,1.0,2654.734619
76.695938,16.198696,17.392141,6.770893,-0.626326,6.770893,-0.626326,20.000143,20.0,124.367516,64.783058,950.428711,295.16864,278.2547,0.038039,0.007922,875.893372,0.008359,0.134054,0.070604,0.0,1.0,2655.366943
77.11721,19.159121,20.352566,6.817185,-0.491376,6.817185,-0.491376,20.000143,20.0,127.416626,65.019302,958.385254,295.384827,278.156982,0.054541,0.044534,884.642883,0.008948,0.135418,0.053021,0.0,1.0,2655.730713
77.778442,23.838467,25.031912,6.864513,-0.12151,6.864513,-0.12151,20.000143,20.0,132.241104,65.380852,970.824524,295.549255,278.02652,0.083951,0.070166,897.54303,0.00702,0.136344,0.042212,0.0,1.0,2656.251709
78.239502,27.124296,28.317741,6.884466,0.140391,6.884466,0.140391,30.000143,30.0,135.625687,65.626053,978.254395,295.499542,277.952362,0.097166,0.059974,906.282776,0.001736,0.13729,0.03399,0.0,1.0,2656.588623
78.887421,31.777643,32.971088,6.894366,0.326349,6.894366,0.326349,30.000143,30.0,140.402527,65.961563,986.312134,295.245392,277.869049,0.100176,0.015004,918.524231,-0.002006,0.137689,0.036476,0.0,1.0,2657.046875
79.351074,35.129982,36.323429,6.89796,0.288399,6.89796,0.288399,30.000143,30.0,143.834747,66.195969,990.316833,295.013519,277.821869,0.089829,-0.024128,926.697144,-0.004662,0.137887,0.049184,0.0,1.0,2657.375244
80.001427,39.866413,41.059856,6.906388,0.022684,6.906388,0.022684,40.000141,40.0,148.660248,66.517258,994.793762,294.789368,277.769379,0.063701,-0.060024,937.765686,-0.00412,0.137959,0.060777,0.0,1.0,2657.844971
80.48481,43.411392,44.604836,6.920691,-0.237581,6.920691,-0.237581,40.000141,40.0,152.258713,66.750931,998.151733,294.767426,277.739136,0.048254,-0.061681,945.408569,-3.24E-4,0.138128,0.071985,0.0,1.0,2658.200928
81.116539,48.077415,49.270859,6.9531,-0.482863,6.9531,-0.482863,50.000141,50.0,156.984772,67.050117,1003.543762,294.938416,277.710663,0.037096,-0.030246,954.660034,0.003394,0.138414,0.073082,0.0,1.0,2658.666748
81.56205,51.390018,52.583462,6.986141,-0.526439,6.986141,-0.526439,50.000141,50.0,160.337982,67.256859,1008.36731,295.145294,277.699097,0.041736,0.005246,960.717651,0.006898,0.139062,0.064532,0.0,1.0,2658.98584
82.229622,56.38802,57.581463,7.033307,-0.355793,7.033307,-0.355793,60.000141,60.0,165.401382,67.55983,1016.909851,295.430878,277.697083,0.062582,0.052184,969.23938,0.007521,0.139723,0.054189,0.0,1.0,2659.433105
82.674568,59.74242,60.935863,7.058686,-0.143989,7.058686,-0.143989,60.000141,60.0,168.801346,67.756958,1022.839172,295.529022,277.706665,0.078949,0.066754,974.812744,0.005083,0.140666,0.039909,0.0,1.0,2659.708252
83.360451,64.949242,66.142685,7.074002,0.165132,7.074002,0.165132,60.000141,60.0,174.079514,68.053329,1030.728516,295.461151,277.737579,0.096329,0.051504,983.313782,0.002057,0.141174,0.035002,0.0,1.0,2660.107422
83.786919,68.209396,69.402847,7.076266,0.27,7.076266,0.27,70.000145,70.0,177.37822,68.233124,1034.248779,295.308441,277.764984,0.097042,0.024162,988.655823,-0.002359,0.14148,0.038396,0.0,1.0,2660.350342
84.490059,73.619736,74.813179,7.076026,0.194642,7.076026,0.194642,70.000145,70.0,182.848267,68.523209,1038.177734,295.013092,277.819183,0.082553,-0.026545,996.703369,-0.003857,0.141525,0.046031,0.0,1.0,2660.757568
84.896515,76.768295,77.961739,7.077829,0.039594,7.077829,0.039594,80.000145,80.0,186.023209,68.687401,1039.871338,294.889343,277.853424,0.066941,-0.046732,1001.159119,-0.002781,0.141521,0.060799,0.0,1.0,2661.000244
85.560684,81.946411,83.139854,7.090319,-0.267641,7.090319,-0.267641,80.000145,80.0,191.229874,68.950394,1042.836914,294.869202,277.911194,0.045457,-0.047924,1008.227478,-5.66E-4,0.141557,0.066986,0.0,1.0,2661.408203
86.020714,85.556259,86.74971,7.10952,-0.430472,7.10952,-0.430472,90.000145,90.0,194.855621,69.128906,1045.621948,294.987244,277.952209,0.03963,-0.02692,1012.728943,0.003823,0.141806,0.067993,0.0,1.0,2661.693359
86.663002,90.62999,91.823433,7.145707,-0.4646,7.145707,-0.4646,90.000145,90.0,199.951111,69.373001,1050.910278,295.247253,278.011719,0.046332,0.017261,1018.661987,0.00615,0.14219,0.062091,0.0,1.0,2662.079834
87.102371,94.122787,95.316238,7.173187,-0.360335,7.173187,-0.360335,90.000145,90.0,203.46167,69.536346,1055.360474,295.416473,278.05484,0.058288,0.044735,1022.565735,0.006637,0.142914,0.049091,0.0,1.0,2662.328369
87.760086,99.385635,100.579079,7.198201,-0.086334,7.198201,-0.086334,100.000145,100.0,208.756561,69.775078,1062.278442,295.528809,278.123718,0.080403,0.060509,1028.378174,0.005148,0.143464,0.04063,0.0,1.0,2662.672852
88.197609,102.90831,104.101753,7.205244,0.093865,7.205244,0.093865,100.000145,100.0,212.304398,69.930084,1066.166016,295.482025,278.171844,0.089713,0.050465,1032.13562,0.001233,0.143964,0.035013,0.0,1.0,2662.88916
88.852562,108.215202,109.408653,7.203405,0.213215,7.203405,0.213215,110.000145,110.0,217.646713,70.156654,1070.263062,295.271271,278.244659,0.090047,0.01233,1037.735962,-0.001341,0.144105,0.037352,0.0,1.0,2663.20874
89.288368,111.768173,112.961617,7.200213,0.168129,7.200213,0.168129,110.000145,110.0,221.217209,70.303986,1071.865967,295.098816,278.291443,0.081206,-0.017217,1041.432495,-0.003046,0.144068,0.04789,0.0,1.0,2663.426025
89.958557,117.266838,118.460281,7.200306,-0.068879,7.200306,-0.068879,120.000145,120.0,226.73027,70.525665,1073.671997,294.928406,278.357178,0.059491,-0.044895,1046.963623,-0.002402,0.144004,0.056512,0.0,1.0,2663.773682
93.085304,120.847099,122.04055,7.206602,-0.259282,7.206602,-0.259282,120.000145,120.0,230.311432,70.666069,1075.022461,294.926636,278.39447,0.047194,-0.044062,1050.45813,9.84E-4,0.144006,0.065033,0.0,1.0,2664.006836
93.13298,126.079453,127.272896,7.227967,-0.444253,7.227967,-0.444253,130.000137,130.0,235.543976,70.866051,1077.941772,295.080261,278.441284,0.039632,-0.016601,1055.026001,0.003704,0.144132,0.065121,0.0,1.0,2664.348877
93.157326,129.973267,131.166702,7.252106,-0.459633,7.252106,-0.459633,130.000137,130.0,239.44223,71.010857,1081.135132,295.261169,278.471283,0.044409,0.013917,1058.03418,0.006346,0.144559,0.05744,0.0,1.0,2664.594727
93.178459,135.233215,136.426666,7.280709,-0.301702,7.280709,-0.301702,130.000137,130.0,244.710693,71.200554,1086.384644,295.463623,278.507172,0.062133,0.04648,1062.137451,0.006566,0.145042,0.048395,0.0,1.0,2664.904297
93.183617,138.700043,139.893494,7.294089,-0.137378,7.294089,-0.137378,140.000137,140.0,248.186905,71.321899,1089.86853,295.517914,278.528625,0.074842,0.053912,1064.819824,0.00431,0.145614,0.038272,0.0,1.0,2665.092773
93.205032,144.140503,145.333954,7.299491,0.084587,7.299491,0.084587,140.000137,140.0,253.648407,71.506615,1094.30896,295.439301,278.558563,0.08667,0.037649,1068.871216,0.001963,0.145882,0.035558,0.0,1.0,2665.373047
93.227257,148.082748,149.276199,7.297208,0.1515,7.297208,0.1515,150.000137,150.0,257.604095,71.636261,1096.316406,295.290985,278.576263,0.085568,0.011336,1071.828247,-0.001208,0.14599,0.039488,0.0,1.0,2665.573242
93.26133,153.254883,154.448318,7.292479,0.067338,7.292479,0.067338,150.000137,150.0,262.785126,71.801376,1097.789551,295.087067,278.592041,0.071893,-0.023427,1075.736084,-0.002164,0.145944,0.046904,0.0,1.0,2665.842285
93.294106,157.068085,158.261536,7.291364,-0.0831,7.291364,-0.0831,160.000137,160.0,266.598175,71.919769,1098.487305,294.993927,278.597076,0.059315,-0.038473,1078.534424,-9.62E-4,0.14585,0.0571,0.0,1.0,2666.048096
93.335747,162.417618,163.611053,7.299141,-0.313007,7.299141,-0.313007,160.000137,160.0,271.940979,72.081406,1099.789185,295.010101,278.594208,0.043736,-0.034091,1082.176025,0.001187,0.145827,0.061757,0.0,1.0,2666.345459
93.360458,166.397614,167.591049,7.313639,-0.424066,7.313639,-0.424066,170.000137,170.0,275.915405,72.198372,1101.489746,295.12442,278.585236,0.040742,-0.014041,1084.618164,0.004472,0.145983,0.060948,0.0,1.0,2666.567383
93.383827,171.92189,173.115326,7.339595,-0.407137,7.339595,-0.407137,170.000137,170.0,281.431458,72.355804,1105.03833,295.337494,278.565674,0.048554,0.021815,1087.957031,0.006058,0.146273,0.055232,0.0,1.0,2666.86377
93.388878,175.303879,176.49733,7.355333,-0.311125,7.355333,-0.311125,170.000137,170.0,284.812134,72.449356,1107.707642,295.44519,278.550934,0.059263,0.039037,1089.894897,0.005816,0.146792,0.044579,0.0,1.0,2667.033203
93.402473,180.847824,182.041275,7.368437,-0.091184,7.368437,-0.091184,180.000137,180.0,290.361877,72.598022,1111.934692,295.497467,278.523926,0.075698,0.045369,1092.932251,0.004445,0.147107,0.039194,0.0,1.0,2667.291992
93.411407,184.553238,185.746689,7.370501,0.035621,7.370501,0.035621,180.000137,180.0,294.072235,72.694145,1114.103149,295.438599,278.504059,0.081319,0.033903,1095.027222,0.001303,0.147369,0.03658,0.0,1.0,2667.456299
93.432129,190.123901,191.317337,7.365685,0.091775,7.365685,0.091775,190.000137,190.0,299.648499,72.834114,1116.075195,295.259796,278.470642,0.078594,0.002146,1098.155151,-5.09E-4,0.14741,0.039523,0.0,1.0,2667.702637
93.455864,194.000824,195.194275,7.361049,0.028521,7.361049,0.028521,190.000137,190.0,303.524902,72.928528,1116.646606,295.127716,278.443909,0.070393,-0.020195,1100.292603,-0.001311,0.147314,0.048463,0.0,1.0,2667.87915
93.488976,199.441071,200.634521,7.359563,-0.161399,7.359563,-0.161399,200.000137,200.0,308.954254,73.057137,1117.137939,295.030914,278.400604,0.053264,-0.035428,1103.304932,-4.07E-4,0.147221,0.055067,0.0,1.0,2668.136963
93.511925,203.173904,204.367355,7.364165,-0.302178,7.364165,-0.302178,200.000137,200.0,312.678986,73.142998,1117.732178,295.051605,278.367004,0.044929,-0.031007,1105.069824,0.002306,0.147191,0.059908,0.0,1.0,2668.319092
93.539719,209.093948,210.287384,7.382152,-0.418778,7.382152,-0.418778,210.000137,210.0,318.582794,73.275032,1119.686157,295.208282,278.309113,0.042118,-0.003507,1107.769897,0.004317,0.147283,0.058873,0.0,1.0,2668.607666
93.551033,212.683319,213.87677,7.397662,-0.402249,7.397662,-0.402249,210.000137,210.0,322.162628,73.352554,1121.605469,295.334564,278.272705,0.047392,0.017538,1109.372803,0.005983,0.147643,0.051039,0.0,1.0,2668.776367
93.555305,218.15126,219.344696,7.415418,-0.255288,7.415418,-0.255288,220.000137,220.0,327.623505,73.466919,1125.074707,295.472229,278.217773,0.062655,0.039249,1111.639526,0.005746,0.147953,0.044725,0.0,1.0,2669.016113
93.560593,221.904861,223.098312,7.422411,-0.118604,7.422411,-0.118604,220.000137,220.0,331.377655,73.542809,1127.303345,295.492737,278.181366,0.07198,0.041273,1113.101196,0.003647,0.148308,0.037842,0.0,1.0,2669.169678
93.570335,227.547012,228.740448,7.421876,0.033013,7.421876,0.033013,230.000137,230.0,337.021057,73.652893,1129.74231,295.398621,278.128967,0.078708,0.023269,1115.445679,0.001694,0.148448,0.036816,0.0,1.0,2669.391602
93.581512,231.31691,232.510345,7.417465,0.059453,7.417465,0.059453,230.000137,230.0,340.788422,73.723915,1130.54248,295.282288,278.095001,0.076139,0.002955,1117.132813,-4.72E-4,0.148438,0.041522,0.0,1.0,2669.540039
93.604919,236.97876,238.172211,7.410938,-0.040727,7.410938,-0.040727,240.000137,240.0,346.442352,73.827202,1130.914063,295.12149,278.04422,0.06326,-0.024052,1119.503662,-8.49E-4,0.148349,0.047339,0.0,1.0,2669.77124
93.623924,240.756378,241.949829,7.409267,-0.166252,7.409267,-0.166252,240.000137,240.0,350.212189,73.89402,1130.98877,295.069519,278.009979,0.053247,-0.032129,1120.91626,5.82E-4,0.148219,0.055379,0.0,1.0,2669.932373
93.652802,246.42865,247.622101,7.415967,-0.343527,7.415967,-0.343527,250.000137,250.0,355.868225,73.991287,1131.568726,295.116302,277.958191,0.04275,-0.022829,1122.908203,0.002375,0.148185,0.057977,0.0,1.0,2670.181152
93.66674,250.533051,251.726486,7.427761,-0.409526,7.427761,-0.409526,250.000137,250.0,359.95639,74.059296,1132.706543,295.224884,277.921478,0.042194,-0.004101,1124.449219,0.004908,0.148319,0.055638,0.0,1.0,2670.361084
93.674774,255.901993,257.095428,7.445548,-0.365796,7.445548,-0.365796,260.000153,260.0,365.310699,74.145287,1135.069824,295.386139,277.876373,0.051328,0.022703,1126.144287,0.00585,0.148555,0.050209,0.0,1.0,2670.586182
93.678551,259.693268,260.886688,7.456401,-0.265368,7.456401,-0.265368,260.000153,260.0,369.097656,74.203903,1137.046387,295.465607,277.847626,0.060585,0.035151,1127.187256,0.005226,0.148911,0.042146,0.0,1.0,2670.735107
93.679802,265.704926,266.898346,7.461973,-0.078045,7.461973,-0.078045,270.000153,270.0,375.10672,74.293167,1139.830078,295.468414,277.808502,0.072767,0.033473,1128.959351,0.003791,0.149128,0.038173,0.0,1.0,2670.956299
93.685555,269.191925,270.385376,7.460371,-7.13E-4,7.460371,-7.13E-4,270.000153,270.0,378.591278,74.342926,1140.864014,295.40332,277.789246,0.075505,0.021508,1130.112305,0.001115,0.149239,0.038033,0.0,1.0,2671.080566
93.699753,275.063782,276.257202,7.453249,0.003705,7.453249,0.003705,270.000153,270.0,384.456482,74.423668,1141.587402,295.243652,277.761261,0.070376,-0.00634,1132.063232,1.0E-5,0.149207,0.041287,0.0,1.0,2671.292969
93.713615,278.717133,279.910583,7.448736,-0.06577,7.448736,-0.06577,280.000153,280.0,388.103241,74.472137,1141.571777,295.154816,277.745758,0.062276,-0.021121,1133.192383,-5.3E-5,0.149065,0.049271,0.0,1.0,2671.430176
93.736771,284.756287,285.949707,7.447883,-0.24319,7.447883,-0.24319,280.000153,280.0,394.127899,74.54953,1141.52478,295.107727,277.72226,0.048982,-0.027868,1134.868042,9.4E-4,0.148975,0.053712,0.0,1.0,2671.666992
93.751762,288.577606,289.771057,7.452559,-0.344354,7.452559,-0.344354,290.000153,290.0,397.933472,74.59671,1141.865479,295.151886,277.708771,0.043885,-0.019731,1136.072021,0.003474,0.148958,0.056067,0.0,1.0,2671.821045
93.766716,294.149139,295.34256,7.466039,-0.395431,7.466039,-0.395431,290.000153,290.0,403.48703,74.663109,1143.158936,295.285736,277.691956,0.044632,0.003405,1137.42627,0.004919,0.149051,0.053859,0.0,1.0,2672.043213
93.769455,297.812592,299.006042,7.477038,-0.359162,7.477038,-0.359162,300.000153,300.0,407.140991,74.705116,1144.534668,295.382355,277.683533,0.05066,0.019397,1138.268188,0.005649,0.149321,0.047166,0.0,1.0,2672.183105
93.76992,303.547913,304.741364,7.488131,-0.218574,7.488131,-0.218574,300.000153,300.0,412.869965,74.768204,1146.971558,295.469849,277.675781,0.063163,0.032777,1139.41748,0.005131,0.149541,0.042335,0.0,1.0,2672.388916
93.770073,307.374512,308.567963,7.49084,-0.111759,7.49084,-0.111759,310.000153,310.0,416.695679,74.808441,1148.356689,295.463104,277.674438,0.069566,0.03054,1140.196045,0.003122,0.149763,0.037961,0.0,1.0,2672.518555
93.775337,313.285034,314.478485,7.486747,-0.016661,7.486747,-0.016661,310.000153,310.0,422.600861,74.867767,1149.630981,295.359009,277.677551,0.072271,0.011506,1141.727783,0.001597,0.149817,0.038298,0.0,1.0,2672.715332
93.78347,316.961151,318.154602,7.481826,-0.022071,7.481826,-0.022071,320.000153,320.0,426.273712,74.903107,1149.819092,295.266663,277.681763,0.068243,-0.004362,1142.590332,2.38E-4,0.149735,0.043503,0.0,1.0,2672.8396
93.798645,322.718445,323.911896,7.476196,-0.130401,7.476196,-0.130401,320.000153,320.0,432.02243,74.956253,1149.631836,295.157227,277.690186,0.05686,-0.022415,1143.869751,3.15E-4,0.149637,0.04812,0.0,1.0,2673.041992
93.813713,326.879974,328.073425,7.475549,-0.243091,7.475549,-0.243091,330.000153,330.0,436.173615,74.993088,1149.512817,295.138275,277.69693,0.049468,-0.024904,1144.795654,0.001863,0.149524,0.053592,0.0,1.0,2673.194824
93.831207,332.485474,333.678925,7.482277,-0.358994,7.482277,-0.358994,330.000153,330.0,441.762146,75.040665,1149.89563,295.206573,277.706665,0.043491,-0.012388,1145.954102,0.003473,0.149511,0.05454,0.0,1.0,2673.404785
93.836433,336.169159,337.362579,7.49066,-0.383091,7.49066,-0.383091,340.000153,340.0,445.436584,75.070633,1150.65918,295.290375,277.713928,0.045,0.001944,1146.587402,0.005128,0.149646,0.051125,0.0,1.0,2673.541016
93.838852,341.935059,343.12851,7.503631,-0.31698,7.503631,-0.31698,340.000153,340.0,451.194336,75.115372,1152.471436,295.415161,277.727631,0.053785,0.022476,1147.430176,0.005473,0.149813,0.046935,0.0,1.0,2673.745361
93.837234,345.782867,346.976318,7.510118,-0.227615,7.510118,-0.227615,350.000153,350.0,455.038239,75.143677,1153.829102,295.460358,277.7388,0.061057,0.029258,1148.092163,0.004528,0.150073,0.040695,0.0,1.0,2673.873779
93.836868,351.559326,352.752747,7.511185,-0.096063,7.511185,-0.096063,350.000153,350.0,460.811981,75.183868,1155.465088,295.436279,277.758575,0.069086,0.023608,1149.142944,0.003252,0.150202,0.038435,0.0,1.0,2674.058105
93.838066,355.411682,356.605133,7.507944,-0.046517,7.507944,-0.046517,350.000153,350.0,464.664581,75.209229,1156.005493,295.368439,277.773193,0.06965,0.011447,1149.787354,0.001372,0.150224,0.039639,0.0,1.0,2674.179199
93.84993,361.195923,362.389374,7.501133,-0.072531,7.501133,-0.072531,360.000153,360.0,470.445099,75.2453,1156.080811,295.244781,277.795685,0.063383,-0.009782,1150.861938,6.65E-4,0.150159,0.043031,0.0,1.0,2674.36499
93.86013,365.376709,366.570129,7.497115,-0.151845,7.497115,-0.151845,360.000153,360.0,474.619385,75.270004,1155.831299,295.180084,277.81134,0.056468,-0.020322,1151.662109,0.001036,0.150023,0.049214,0.0,1.0,2674.505127
93.876167,371.170685,372.364136,7.497644,-0.286923,7.497644,-0.286923,370.000153,370.0,480.397888,75.302467,1155.647827,295.175079,277.831177,0.046885,-0.02016,1152.804565,0.002169,0.149942,0.052449,0.0,1.0,2674.707031
93.892433,374.867767,376.061218,7.502094,-0.351004,7.502094,-0.351004,370.000153,370.0,484.089874,75.322151,1155.890625,295.223846,277.842743,0.044225,-0.011438,1153.163818,0.004099,0.149953,0.052699,0.0,1.0,2674.837646
93.891411,380.658966,381.852417,7.513104,-0.362536,7.513104,-0.362536,380.000153,380.0,489.871704,75.351227,1156.943237,295.34082,277.859894,0.047223,0.008548,1153.862549,0.005014,0.150042,0.050261,0.0,1.0,2675.038818
93.890152,384.685669,385.87912,7.521266,-0.310611,7.521266,-0.310611,380.000153,380.0,493.890839,75.370117,1158.080078,295.415405,277.871704,0.052893,0.020672,1154.524902,0.005179,0.150262,0.044412,0.0,1.0,2675.172607
93.888237,390.159668,391.353088,7.526548,-0.195633,7.526548,-0.195633,390.000153,390.0,499.363495,75.394028,1159.651978,295.455017,277.888306,0.062694,0.026143,1155.166382,0.004437,0.150425,0.040683,0.0,1.0,2675.344971
93.885704,394.025604,395.219055,7.526452,-0.119112,7.526452,-0.119112,390.000153,390.0,503.230469,75.409698,1160.458252,295.430603,277.900269,0.066664,0.021175,1155.646729,0.002795,0.150531,0.038702,0.0,1.0,2675.462402
93.89399,399.98587,401.179321,7.521254,-0.073102,7.521254,-0.073102,400.000153,400.0,509.195709,75.432014,1160.977539,295.331757,277.918274,0.066367,0.003551,1156.268799,0.001702,0.150529,0.039923,0.0,1.0,2675.642578
93.905106,403.855591,405.049042,7.516605,-0.099019,7.516605,-0.099019,400.000153,400.0,513.065552,75.445404,1160.881592,295.257446,277.928864,0.061943,-0.009032,1156.784058,0.001044,0.150425,0.044865,0.0,1.0,2675.762695
93.878616,409.826111,411.019562,7.512443,-0.211392,7.512443,-0.211392,410.000153,410.0,519.029663,75.464531,1160.244873,295.194092,277.942291,0.051317,-0.019158,1157.688232,0.001415,0.150332,0.048581,0.0,1.0,2675.93457
93.867645,413.377319,414.57074,7.51182,-0.295749,7.51182,-0.295749,410.000153,410.0,522.574158,75.475105,1159.794434,295.205444,277.948395,0.044838,-0.016997,1158.188599,0.00302,0.150249,0.051749,0.0,1.0,2676.025146
93.850922,419.184814,420.378265,7.515423,-0.393317,7.515423,-0.393317,420.000153,420.0,528.371582,75.491158,1159.260254,295.30368,277.955902,0.040192,-5.68E-4,1158.715576,0.004225,0.150236,0.051181,0.0,1.0,2676.158447
93.834412,423.057495,424.250946,7.520271,-0.409011,7.520271,-0.409011,420.000153,420.0,532.235596,75.500969,1159.198242,295.401581,277.959991,0.042007,0.015006,1159.068848,0.005619,0.150308,0.046269,0.0,1.0,2676.237793
93.805374,429.191193,430.384613,7.526264,-0.340513,7.526264,-0.340513,430.000153,430.0,538.354126,75.514946,1159.413086,295.535187,277.966766,0.049853,0.034768,1159.633301,0.005843,0.150405,0.041374,0.0,1.0,2676.346191
93.788673,432.741333,433.934784,7.526754,-0.272711,7.526754,-0.272711,430.000153,430.0,541.896912,75.522163,1159.487671,295.574615,277.971527,0.055522,0.039272,1159.856567,0.004864,0.150525,0.034694,0.0,1.0,2676.400391
93.760498,438.705383,439.898834,7.519511,-0.179764,7.519511,-0.179764,440.000153,440.0,547.854553,75.532883,1159.001831,295.552368,277.981262,0.060821,0.031509,1159.878052,0.003896,0.150535,0.032722,0.0,1.0,2676.482666
93.746544,442.415466,443.608917,7.511073,-0.164407,7.511073,-0.164407,440.000153,440.0,551.555603,75.53875,1158.140381,295.49585,277.988159,0.059492,0.01978,1160.038452,0.002568,0.15039,0.033835,0.0,1.0,2676.533203
93.732796,448.221619,449.41507,7.497203,-0.234118,7.497203,-0.234118,450.000153,450.0,557.341431,75.54689,1156.146729,295.397552,277.99939,0.051238,4.31E-4,1160.235352,0.002349,0.150221,0.036661,0.0,1.0,2676.618408
93.72657,452.411194,453.604645,7.488029,-0.345363,7.488029,-0.345363,450.000153,450.0,561.513306,75.552101,1154.481934,295.36969,278.007233,0.038349,-0.0052,1160.184082,0.001115,0.149944,0.1,0.0,1.0,2676.686768
93.708633,457.880035,459.073456,7.492614,-0.522281,7.492614,-0.522281,460.000153,460.0,566.960144,75.558052,1152.680542,295.62146,278.017548,0.02052,0.034213,1159.676514,0.001645,0.149761,0.1,0.0,1.0,2676.780029
93.684937,461.73642,462.929871,7.511742,-0.534606,7.511742,-0.534606,460.000153,460.0,570.801941,75.561516,1152.596436,295.958893,278.026794,0.026343,0.085776,1159.213623,0.002487,0.149852,0.1,0.0,1.0,2676.83667
93.615517,467.521576,468.715027,7.548162,-0.27529,7.548162,-0.27529,470.000153,470.0,576.569458,75.565086,1154.739258,296.536926,278.048798,0.056505,0.170003,1158.720703,0.002546,0.150235,0.1,0.0,1.0,2676.881104
93.52005,473.460632,474.654083,7.568407,0.289514,7.568407,0.289514,470.000153,470.0,582.513,75.566086,1158.362671,297.022278,278.087677,0.098795,0.232547,1158.051147,0.001311,0.150963,0.1,0.0,1.0,2676.857178
93.451019,477.155029,478.34848,7.563805,0.715439,7.563805,0.715439,480.000153,480.0,586.21637,75.565147,1160.043457,297.209229,278.122101,0.12527,0.25006,1157.867188,-4.73E-4,0.151325,0.1,0.0,1.0,2676.811035
94.07254,482.940186,484.133636,7.543883,1.366045,7.543883,1.366045,480.000153,480.0,592.019043,75.561317,1160.579346,297.318085,278.192444,0.153064,0.245336,1157.809204,-0.003407,0.151276,0.1,0.0,1.0,2676.713623
94.556725,487.124054,488.317505,7.528041,1.740483,7.528041,1.740483,490.000153,490.0,596.208252,75.556938,1159.478149,297.295929,278.2547,0.160839,0.224775,1158.083374,-0.005698,0.151002,0.1,0.0,1.0,2676.640381
95.186295,492.59671,493.790131,7.507084,2.066877,7.507084,2.066877,490.000153,490.0,601.67688,75.549553,1156.477173,297.225586,278.348083,0.157832,0.191641,1158.457031,-0.008288,0.150561,0.1,0.0,1.0,2676.557129
95.627365,496.452881,497.646332,7.494874,2.180568,7.494874,2.180568,500.000153,500.0,605.527039,75.543449,1153.680786,297.199493,278.420532,0.149004,0.172445,1158.345703,-0.009487,0.150255,0.1,0.0,1.0,2676.510742
96.284615,502.232147,503.425568,7.475306,2.229736,7.475306,2.229736,500.000153,500.0,611.283752,75.533257,1149.069214,297.259827,278.537354,0.132896,0.160275,1157.994629,-0.010384,0.149897,0.1,0.0,1.0,2676.462402
96.719894,506.082001,507.275421,7.46384,2.223829,7.46384,2.223829,510.000153,510.0,615.108643,75.525902,1146.036865,297.380829,278.62027,0.124015,0.165042,1157.682007,-0.010596,0.149632,0.1,0.0,1.0,2676.442139
97.188614,510.247192,511.440643,7.451821,2.223319,7.451821,2.223319,510.000153,510.0,619.241455,75.517479,1143.057129,297.578308,278.714905,0.118725,0.180235,1157.145264,-0.01059,0.149277,0.1,0.0,1.0,2676.427246
97.814217,515.838318,517.031738,7.441198,2.278368,7.441198,2.278368,520.000122,520.0,624.789429,75.505363,1139.816284,297.917328,278.851593,0.118709,0.210546,1155.804932,-0.010587,0.149036,0.1,0.0,1.0,2676.409912
98.433998,521.413879,522.607361,7.432755,2.420297,7.432755,2.420297,520.000122,520.0,630.32428,75.492249,1137.580811,298.280975,279.001099,0.126465,0.241966,1154.067017,-0.010849,0.148824,0.1,0.0,1.0,2676.386475
98.891068,525.548584,526.742065,7.426286,2.572493,7.426286,2.572493,520.000122,520.0,634.429749,75.481781,1136.296021,298.533508,279.121613,0.133789,0.260544,1152.716431,-0.011249,0.14871,0.1,0.0,1.0,2676.363281
99.310547,529.36084,530.554321,7.418504,2.733781,7.418504,2.733781,530.000122,530.0,638.215393,75.471542,1135.122925,298.739777,279.240509,0.141108,0.272106,1151.484009,-0.01225,0.148526,0.1,0.0,1.0,2676.337646
99.900291,534.748291,535.941772,7.406929,2.958613,7.406929,2.958613,530.000122,530.0,643.571167,75.456131,1133.19104,298.983887,279.421631,0.149356,0.278996,1149.449829,-0.013018,0.14837,0.1,0.0,1.0,2676.297852
100.519112,540.436035,541.629456,7.393055,3.157699,7.393055,3.157699,540.000122,540.0,649.230774,75.438759,1130.615234,299.196533,279.628906,0.152511,0.277492,1147.040649,-0.014089,0.148139,0.1,0.0,1.0,2676.257813
100.962975,544.538025,545.731506,7.383064,3.260181,7.383064,3.260181,540.000122,540.0,653.309509,75.425652,1128.420166,299.339478,279.78775,0.151773,0.274098,1145.412231,-0.014754,0.147953,0.1,0.0,1.0,2676.234619
101.336479,548.004089,549.197571,7.373522,3.321207,7.373522,3.321207,550.000122,550.0,656.754211,75.414261,1126.371094,299.464966,279.927612,0.149415,0.271732,1144.027588,-0.015525,0.147661,0.1,0.0,1.0,2676.219971
101.960075,553.819824,555.013245,7.358695,3.37868,7.358695,3.37868,550.000122,550.0,662.53302,75.394615,1122.763306,299.703613,280.173218,0.14461,0.271651,1141.525391,-0.015815,0.14747,0.1,0.0,1.0,2676.206055
102.544754,559.306091,560.499573,7.344293,3.407777,7.344293,3.407777,560.000122,560.0,667.982422,75.375587,1119.404663,299.971283,280.416718,0.140535,0.277571,1139.022583,-0.016089,0.147174,0.1,0.0,1.0,2676.203613
102.942841,563.059875,564.253357,7.335885,3.427245,7.335885,3.427245,560.000122,560.0,671.710083,75.362343,1117.288574,300.176727,280.589752,0.139109,0.284562,1137.27063,-0.016185,0.146978,0.1,0.0,1.0,2676.206543
103.371651,567.119873,568.313293,7.326185,3.456873,7.326185,3.456873,570.000122,570.0,675.740784,75.347809,1115.197266,300.413177,280.782715,0.138927,0.293718,1135.388184,-0.01632,0.146718,0.1,0.0,1.0,2676.212402
103.928452,572.417664,573.611084,7.315608,3.513984,7.315608,3.513984,570.000122,570.0,681.000854,75.328522,1112.73938,300.732086,281.043701,0.140639,0.306088,1132.873413,-0.016461,0.146524,0.1,0.0,1.0,2676.2229
104.512657,578.007202,579.200623,7.305159,3.595458,7.305159,3.595458,580.000122,580.0,686.558655,75.307755,1110.47583,301.065399,281.330505,0.14371,0.317067,1129.911987,-0.016733,0.146312,0.1,0.0,1.0,2676.234131
104.931877,582.038269,583.231689,7.298296,3.660304,7.298296,3.660304,580.000122,580.0,690.565796,75.292542,1108.959106,301.296906,281.544037,0.145752,0.32267,1127.964478,-0.017006,0.146158,0.1,0.0,1.0,2676.243408
105.316734,585.753418,586.946838,7.291149,3.719842,7.291149,3.719842,590.000122,590.0,694.259949,75.278351,1107.556641,301.502625,281.745605,0.147411,0.326054,1126.195679,-0.01743,0.145966,0.1,0.0,1.0,2676.253418
105.889977,591.312866,592.506287,7.281246,3.797669,7.281246,3.797669,590.000122,590.0,699.792114,75.256844,1105.360596,301.80014,282.055115,0.148712,0.328585,1123.452148,-0.017714,0.145823,0.1,0.0,1.0,2676.27124
106.237762,594.700928,595.894348,7.274853,3.836279,7.274853,3.836279,590.000122,590.0,703.167419,75.243591,1103.970459,301.978729,282.248016,0.148747,0.329273,1121.653687,-0.018084,0.145625,0.1,0.0,1.0,2676.284424
106.834892,600.5448,601.73822,7.264461,3.884072,7.264461,3.884072,600.000122,600.0,708.987305,75.220604,1101.526489,302.289581,282.586761,0.147848,0.330328,1118.812012,-0.018268,0.145497,0.1,0.0,1.0,2676.313232
