airspeed_indicator_indicated_speed_kt,altimeter_indicated_altitude_ft,altimeter_pressure_alt_ft,attitude_indicator_indicated_pitch_deg,attitude_indicator_indicated_roll_deg,attitude_indicator_internal_pitch_deg,attitude_indicator_internal_roll_deg,encoder_indicated_altitude_ft,encoder_pressure_alt_ft,gps_indicated_altitude_ft,gps_indicated_ground_speed_kt,gps_indicated_vertical_speed,indicated_heading_deg,magnetic_compass_indicated_heading_deg,slip_skid_ball_indicated_slip_skid,turn_indicator_indicated_turn_rate,vertical_speed_indicator_indicated_speed_fpm,flight_aileron,flight_elevator,flight_rudder,flight_flaps,engine_throttle,engine_rpm
6.543335,-87.942413,-86.748962,2.970894,1.358864,2.591077,0.092808,-89.999855,-90.0,2.286526,0.0,0.007771,297.866821,278.91037,0.012383,-0.044044,-19.446712,-0.0,0.0,0.0,0.0,0.0,600.225891
6.597922,-87.95594,-86.762497,2.928629,1.217744,2.59111,0.092679,-89.999855,-90.0,2.286562,0.0,0.002613,297.86557,282.311066,0.012423,-0.0379,-8.796376,-0.019412,0.051822,0.0,0.0,1.0,608.62854
6.639647,-87.962997,-86.769554,2.772855,0.723294,2.583604,0.092457,-89.999855,-90.0,2.286545,3.5E-5,-0.012293,297.864685,284.527802,0.012366,-0.034304,-18.04961,-0.017396,0.051822,6.3E-5,0.0,1.0,672.776367
6.710413,-87.971352,-86.777908,2.577578,0.19817,2.545153,0.090085,-89.999855,-90.0,2.286407,2.29E-4,-0.043143,297.86319,287.738464,0.011971,-0.029627,-8.71873,-0.010333,0.051672,1.07E-4,0.0,1.0,852.915649
6.786552,-87.975761,-86.782318,2.510457,0.086198,2.510457,0.086198,-89.999855,-90.0,2.286293,7.4E-4,-0.019863,297.86203,289.78241,0.011986,-0.026953,-18.051378,-0.002831,0.050903,1.82E-4,0.0,1.0,1004.676025
6.98379,-87.98101,-86.787567,2.491194,0.076386,2.491194,0.076386,-89.999855,-90.0,2.286351,0.003818,0.041267,297.859985,292.67337,0.013122,-0.023549,-18.314171,-0.001231,0.050209,2.4E-4,0.0,1.0,1245.628662
7.180759,-87.983765,-86.790321,2.495588,0.067767,2.495588,0.067767,-89.999855,-90.0,2.28656,0.008771,0.080424,297.858154,294.468628,0.014621,-0.021674,-18.943525,-0.001091,0.049824,3.42E-4,0.0,1.0,1401.179565
7.582759,-87.986969,-86.793526,2.514479,0.05302,2.514479,0.05302,-89.999855,-90.0,2.287112,0.023139,0.135927,297.853485,296.940582,0.018419,-0.01955,-10.249548,-9.68E-4,0.049912,4.33E-4,0.0,1.0,1610.941406
7.920876,-87.988594,-86.795151,2.53044,0.042817,2.53044,0.042817,-89.999855,-90.0,2.287636,0.038856,0.172505,297.848145,298.430145,0.021791,-0.018675,-17.960407,-7.57E-4,0.05029,6.67E-4,0.0,1.0,1730.433716
8.10974,-87.989265,-86.795822,2.538616,0.037793,2.538616,0.037793,-89.999855,-90.0,2.287945,0.048923,0.191464,297.844666,299.124969,0.0238,-0.018396,-8.434422,-7.57E-4,0.05029,6.67E-4,0.0,1.0,1783.665649
8.310985,-87.989861,-86.796417,2.54673,0.032857,2.54673,0.032857,-89.999855,-90.0,2.288286,0.060609,0.209853,297.840576,299.785645,0.026115,-0.018232,-12.279342,-6.12E-4,0.050609,9.34E-4,0.0,1.0,1832.600098
9.735573,-87.99218,-86.798737,2.590653,0.008391,2.590653,0.008391,-89.999855,-90.0,2.291047,0.169825,0.337305,297.796051,303.004761,0.03157,-0.020347,-11.01573,-4.69E-4,0.050935,0.001312,0.0,1.0,2045.287842
10.275311,-87.992332,-86.798889,2.602208,0.002404,2.602208,0.002404,-89.999855,-90.0,2.292253,0.222799,0.382525,297.772858,303.786713,0.030751,-0.022137,-11.907319,-1.2E-4,0.051813,0.003539,0.0,1.0,2090.874512
11.126194,-87.99218,-86.798737,2.614728,-0.004291,2.614728,-0.004291,-89.999855,-90.0,2.294349,0.319064,0.45481,297.734497,304.684265,0.029685,-0.024997,-10.99006,-3.4E-5,0.052044,0.004698,0.0,1.0,2141.919922
11.714437,-87.991829,-86.798386,2.621816,-0.007449,2.621816,-0.007449,-89.999855,-90.0,2.295955,0.394727,0.50569,297.706055,305.100525,0.02917,-0.027094,-8.607707,6.1E-5,0.052295,0.006616,0.0,1.0,2166.776123
12.61913,-87.990959,-86.797508,2.63072,-0.010549,2.63072,-0.010549,-89.999855,-90.0,2.298689,0.525684,0.585042,297.662018,305.457703,0.028361,-0.030027,6.574532,1.06E-4,0.052436,0.008038,0.0,1.0,2193.680908
13.232957,-87.990143,-86.7967,2.635957,-0.011751,2.635957,-0.011751,-89.999855,-90.0,2.300736,0.624646,0.63944,297.631927,305.522888,0.027945,-0.031842,12.343648,1.51E-4,0.052614,0.01024,0.0,1.0,2206.270508
14.190005,-87.988533,-86.79509,2.642854,-0.012483,2.642854,-0.012483,-89.999855,-90.0,2.304249,0.79535,0.724654,297.588257,305.364716,0.0273,-0.033816,5.117297,1.68E-4,0.052719,0.011745,0.0,1.0,2220.130371
14.815608,-87.987259,-86.793816,2.646963,-0.012286,2.646963,-0.012286,-89.999855,-90.0,2.306764,0.917698,0.781061,297.562012,305.103027,0.026978,-0.03459,14.045805,1.78E-4,0.052857,0.013928,0.0,1.0,2227.347412
15.732732,-87.985069,-86.791626,2.652546,-0.011371,2.652546,-0.011371,-89.999855,-90.0,2.310769,1.112229,0.863261,297.529541,304.51297,0.026577,-0.034654,12.239548,1.76E-4,0.052939,0.01524,0.0,1.0,2236.075928
16.363884,-87.983353,-86.789909,2.65639,-0.010492,2.65639,-0.010492,-89.999855,-90.0,2.31375,1.25648,0.920807,297.510834,303.976166,0.026572,-0.034133,6.270393,1.62E-4,0.053051,0.016864,0.0,1.0,2241.072021
17.313303,-87.980423,-86.78698,2.662019,-0.008963,2.662019,-0.008963,-89.999855,-90.0,2.318582,1.489072,1.007863,297.489227,302.989563,0.026719,-0.032414,9.453981,1.5E-4,0.053128,0.017799,0.0,1.0,2247.399414
17.947399,-87.978241,-86.784798,2.665863,-0.007776,2.665863,-0.007776,-89.999855,-90.0,2.322044,1.654728,1.065644,297.478333,302.223755,0.026978,-0.030862,6.022629,1.28E-4,0.05324,0.01888,0.0,1.0,2251.001465
18.899523,-87.974632,-86.781189,2.671546,-0.005805,2.671546,-0.005805,-89.999855,-90.0,2.3276,1.918725,1.152332,297.466675,300.936005,0.027417,-0.028075,13.285423,1.11E-4,0.053317,0.019424,0.0,1.0,2255.699707
19.561249,-87.971878,-86.778435,2.675606,-0.004235,2.675606,-0.004235,-89.999855,-90.0,2.331715,2.112766,1.21373,297.460602,299.958435,0.027729,-0.026066,14.21924,8.3E-5,0.053431,0.020007,0.0,1.0,2258.571533
20.486895,-87.967682,-86.774239,2.681201,-0.001793,2.681201,-0.001793,-89.999855,-90.0,2.337827,2.398794,1.299815,297.4534,298.498596,0.028122,-0.023386,8.545927,6.0E-5,0.053512,0.020311,0.0,1.0,2262.18457
21.148542,-87.964439,-86.770996,2.685318,1.86E-4,2.685318,1.86E-4,-89.999855,-90.0,2.342446,2.613123,1.358366,297.447937,297.405609,0.02824,-0.021756,12.791989,2.6E-5,0.053624,0.020671,0.0,1.0,2264.538086
22.100304,-87.959427,-86.765984,2.691183,0.00334,2.691183,0.00334,-89.999855,-90.0,2.349466,2.936036,1.44626,297.438202,295.782501,0.028119,-0.019988,12.374115,-3.0E-6,0.053706,0.020944,0.0,1.0,2267.675781
22.734255,-87.955849,-86.762405,2.69523,0.005662,2.69523,0.005662,-89.999855,-90.0,2.354388,3.160446,1.50317,297.429596,294.681976,0.02775,-0.019286,16.93955,-4.8E-5,0.053824,0.021431,0.0,1.0,2269.639404
23.657867,-87.950294,-86.756851,2.701079,0.009274,2.701079,0.009274,-89.999855,-90.0,2.361914,3.500447,1.588183,297.413757,293.07193,0.026825,-0.018891,18.570223,-8.1E-5,0.053905,0.021861,0.0,1.0,2272.364258
24.290472,-87.946259,-86.752815,2.705248,0.011916,2.705248,0.011916,-89.999855,-90.0,2.367313,3.74211,1.646131,297.400299,291.976593,0.025962,-0.019054,14.193548,-1.32E-4,0.054022,0.022653,0.0,1.0,2274.158447
25.2381,-87.939857,-86.746407,2.711485,0.015971,2.711485,0.015971,-89.999855,-90.0,2.375775,4.117231,1.733355,297.377228,290.366791,0.024344,-0.019715,19.192692,-1.7E-4,0.054105,0.023326,0.0,1.0,2276.765137
25.868919,-87.935349,-86.741905,2.715822,0.018753,2.715822,0.018753,-89.999855,-90.0,2.381659,4.375515,1.791939,297.359985,289.326691,0.023155,-0.020388,16.745192,-2.28E-4,0.05423,0.02448,0.0,1.0,2278.458496
26.813354,-87.92823,-86.734787,2.72473,0.024293,2.72473,0.024293,-89.999855,-90.0,2.39107,4.774882,2.00541,297.333344,287.833405,0.021607,-0.021344,13.880387,-2.68E-4,0.054316,0.025342,0.0,1.0,2280.949463
27.467693,-87.922974,-86.72953,2.732957,0.031685,2.732957,0.031685,-89.999855,-90.0,2.398263,5.060424,2.157817,297.314362,286.85321,0.020337,-0.021934,14.321181,-3.47E-4,0.054495,0.026674,0.0,1.0,2282.651855
28.382801,-87.915062,-86.721619,2.739663,0.036065,2.739663,0.036065,-89.999855,-90.0,2.408974,5.471136,2.244672,297.289032,285.572327,0.018175,-0.022571,14.869882,-4.53E-4,0.054659,0.027623,0.0,1.0,2285.009033
29.03632,-87.909004,-86.715561,2.744098,0.038767,2.744098,0.038767,-89.999855,-90.0,2.416893,5.772115,2.310927,297.272217,284.729858,0.017218,-0.022784,18.160877,-5.15E-4,0.054793,0.028889,0.0,1.0,2286.685303
29.950193,-87.899986,-86.706543,2.750576,0.042291,2.750576,0.042291,-89.999855,-90.0,2.428367,6.203826,2.408166,297.251343,283.661377,0.016235,-0.02262,12.921463,-5.54E-4,0.054882,0.02973,0.0,1.0,2289.024414
30.574768,-87.893448,-86.700005,2.755319,0.044757,2.755319,0.044757,-89.999855,-90.0,2.436499,6.506641,2.468694,297.238373,283.008087,0.015882,-0.022321,18.731234,-6.04E-4,0.055012,0.030774,0.0,1.0,2290.623779
31.484739,-87.883461,-86.690018,2.762223,0.048335,2.762223,0.048335,-89.999855,-90.0,2.448742,6.957844,2.56255,297.221191,282.176727,0.01558,-0.021666,17.272972,-6.39E-4,0.055106,0.031422,0.0,1.0,2292.950928
32.133446,-87.875999,-86.682556,2.767323,0.051069,2.767323,0.051069,-89.999855,-90.0,2.457766,7.286911,2.62914,297.209137,281.673584,0.015422,-0.021229,15.501478,-6.91E-4,0.055244,0.032281,0.0,1.0,2294.609863
33.091564,-87.864471,-86.671028,2.774714,0.055273,2.774714,0.055273,-89.999855,-90.0,2.471546,7.783971,2.727551,297.190704,281.069855,0.015054,-0.020758,7.794471,-7.3E-4,0.055346,0.032884,0.0,1.0,2297.061035
33.711967,-87.856705,-86.663261,2.77962,0.058225,2.77962,0.058225,-89.999855,-90.0,2.480756,8.112613,2.793371,297.177338,280.768433,0.014615,-0.020713,8.319647,-7.9E-4,0.055494,0.033806,0.0,1.0,2298.648682
34.639854,-87.844604,-86.651161,2.790857,0.062803,2.790857,0.062803,-89.999855,-90.0,2.495177,8.61446,3.026336,297.154999,280.447845,0.013545,-0.021011,16.457001,-8.32E-4,0.055592,0.034474,0.0,1.0,2301.027832
35.256618,-87.836143,-86.6427,2.798772,0.066103,2.798772,0.066103,-89.999855,-90.0,2.506054,8.954771,3.292697,297.137787,280.319916,0.012437,-0.021555,18.982922,-8.97E-4,0.055817,0.035591,0.0,1.0,2302.612305
36.154228,-87.823097,-86.629654,2.805382,0.070932,2.805382,0.070932,-89.999855,-90.0,2.522292,9.459026,3.384912,297.110168,280.251801,0.010479,-0.022635,19.671659,-9.44E-4,0.055975,0.036452,0.0,1.0,2304.920898
36.79401,-87.813339,-86.619888,2.810091,0.074488,2.810091,0.074488,-89.999855,-90.0,2.53418,9.824828,3.456259,297.088684,280.285492,0.008984,-0.023591,16.851429,-0.001013,0.056108,0.037833,0.0,1.0,2306.568848
37.687607,-87.799057,-86.605614,2.816934,0.079336,2.816934,0.079336,-89.999855,-90.0,2.551246,10.344554,3.558354,297.057709,280.440857,0.006602,-0.024896,9.201368,-0.001064,0.056202,0.038907,0.0,1.0,2308.874512
38.298828,-87.788895,-86.595451,2.821888,0.082662,2.821888,0.082662,-89.999855,-90.0,2.563237,10.705912,3.629232,297.03595,280.615448,0.005091,-0.025769,8.821181,-0.001133,0.056339,0.040456,0.0,1.0,2310.45459
39.238743,-87.772682,-86.579239,2.829424,0.087446,2.829424,0.087446,-89.999855,-90.0,2.582183,11.270659,3.737223,297.00354,280.983307,0.003087,-0.026761,12.448426,-0.001181,0.056438,0.041544,0.0,1.0,2312.889404
39.821476,-87.762276,-86.568832,2.834219,0.090395,2.834219,0.090395,-89.999855,-90.0,2.59426,11.626255,3.981912,296.983978,281.266632,0.001986,-0.027218,10.345419,-0.001249,0.056588,0.043164,0.0,1.0,2314.4021
40.730522,-87.745483,-86.55204,2.85175,0.097651,2.85175,0.097651,-89.999855,-90.0,2.614082,12.189569,4.261236,296.955383,281.783478,8.82E-4,-0.027461,15.224989,-0.001291,0.056684,0.044142,0.0,1.0,2316.768311
41.334461,-87.73378,-86.540337,2.856903,0.10218,2.856903,0.10218,-89.999855,-90.0,2.628599,12.569527,4.400948,296.937073,282.171265,1.54E-4,-0.027509,19.57711,-0.001395,0.057035,0.045572,0.0,1.0,2318.344238
42.26297,-87.714859,-86.521416,2.861555,0.106546,2.861555,0.106546,-89.999855,-90.0,2.651518,13.16195,4.514064,296.910767,282.824738,-5.45E-4,-0.027316,12.898616,-0.00146,0.057138,0.046487,0.0,1.0,2320.771973
42.838482,-87.702614,-86.509171,2.865469,0.109303,2.865469,0.109303,-89.999855,-90.0,2.66607,13.534152,4.588358,296.894806,283.258484,-7.89E-4,-0.027158,19.93618,-0.001522,0.057231,0.047803,0.0,1.0,2322.283691
43.736485,-87.682762,-86.489319,2.872376,0.113703,2.872376,0.113703,-89.999855,-90.0,2.689323,14.122557,4.70459,296.870209,283.968445,-0.001049,-0.026885,11.524979,-0.001561,0.057309,0.048601,0.0,1.0,2325.667969
44.358521,-87.668526,-86.475082,2.87751,0.117029,2.87751,0.117029,-89.999855,-90.0,2.705814,14.535217,4.785751,296.852142,284.476746,-0.001286,-0.026881,15.9543,-0.001624,0.057448,0.049831,0.0,1.0,2328.789307
45.227112,-87.647881,-86.454437,2.891007,0.122137,2.891007,0.122137,-89.999855,-90.0,2.730764,15.11831,5.381612,296.825256,285.198456,-0.001892,-0.02711,11.742331,-0.001672,0.05755,0.050734,0.0,1.0,2333.794922
45.821663,-87.63308,-86.439629,2.897041,0.126656,2.897041,0.126656,-89.999855,-90.0,2.748871,15.521652,5.481565,296.804871,285.693939,-0.002587,-0.027545,18.821482,-0.001745,0.05782,0.052078,0.0,1.0,2337.501465
46.712769,-87.609863,-86.41642,2.903612,0.131761,2.903612,0.131761,-89.999855,-90.0,2.776592,16.131847,5.600308,296.771942,286.427887,-0.004191,-0.028512,17.133295,-0.001809,0.057941,0.053098,0.0,1.0,2343.312256
47.306381,-87.593811,-86.400368,2.908223,0.135247,2.908223,0.135247,-89.999855,-90.0,2.795414,16.542004,5.684216,296.748169,286.905334,-0.005496,-0.029371,17.672264,-0.001882,0.058072,0.054744,0.0,1.0,2347.294434
48.19606,-87.568954,-86.375511,2.915248,0.140216,2.915248,0.140216,-89.999855,-90.0,2.824171,17.162121,5.81063,296.711517,287.594788,-0.00763,-0.030646,18.433401,-0.001932,0.058164,0.055933,0.0,1.0,2353.366211
48.788689,-87.551895,-86.358452,2.920164,0.143551,2.920164,0.143551,-89.999855,-90.0,2.843698,17.578699,5.896179,296.686371,288.031769,-0.009097,-0.031509,18.904139,-0.002003,0.058305,0.057765,0.0,1.0,2357.456543
49.676331,-87.525581,-86.332138,2.934282,0.155908,2.934282,0.155908,-89.999855,-90.0,2.874574,18.208166,6.594539,296.649933,288.645935,-0.010642,-0.032225,15.823851,-0.002051,0.058403,0.059023,0.0,1.0,2363.631592
50.266533,-87.50724,-86.313797,2.943058,0.161409,2.943058,0.161409,-89.999855,-90.0,2.897533,18.630781,6.925781,296.625977,289.023926,-0.012153,-0.032712,12.926585,-0.002227,0.058686,0.060844,0.0,1.0,2367.764893
51.151333,-87.478378,-86.284935,2.949288,0.165696,2.949288,0.165696,-89.999855,-90.0,2.932498,19.269016,7.054205,296.592163,289.538086,-0.013527,-0.03306,20.094059,-0.002306,0.058861,0.062042,0.0,1.0,2373.981445
51.740665,-87.458351,-86.264908,2.953565,0.168444,2.953565,0.168444,-89.999855,-90.0,2.956181,19.697298,7.146989,296.570709,289.842987,-0.01407,-0.033111,15.720521,-0.002367,0.058986,0.063733,0.0,1.0,2378.134033
52.62373,-87.427277,-86.233833,2.960285,0.172148,2.960285,0.172148,-89.999855,-90.0,2.992295,20.343777,7.289884,296.540527,290.240051,-0.014257,-0.03286,16.304895,-0.002406,0.059071,0.064806,0.0,1.0,2384.372803
53.505646,-87.395096,-86.201653,2.967332,0.175814,2.967332,0.175814,-89.999855,-90.0,3.029128,20.994961,7.433548,296.510956,290.561737,-0.013948,-0.032576,16.976013,-0.002459,0.059206,0.066315,0.0,1.0,2390.62085
54.092941,-87.37307,-86.179626,2.97188,0.178154,2.97188,0.178154,-89.999855,-90.0,3.054081,21.43161,7.52918,296.491364,290.733337,-0.013532,-0.032395,17.387789,-0.002495,0.059301,0.067302,0.0,1.0,2394.791016
54.679729,-87.350632,-86.157188,2.976543,0.180598,2.976543,0.180598,-89.999855,-90.0,3.079356,21.870222,7.625347,296.470795,290.870331,-0.013129,-0.032396,17.777628,-0.002545,0.059438,0.068773,0.0,1.0,2398.9646
55.583374,-87.315277,-86.121834,2.983402,0.184208,2.983402,0.184208,-89.999855,-90.0,3.118942,22.550144,7.770854,296.437469,291.014008,-0.012605,-0.032647,21.585758,-0.00258,0.059531,0.069801,0.0,1.0,2405.406738
56.437027,-87.280975,-86.087532,2.990074,0.18768,2.990074,0.18768,-89.999855,-90.0,3.15708,23.197332,7.910231,296.402954,291.075714,-0.012401,-0.03332,18.852863,-0.002632,0.059668,0.071468,0.0,1.0,2411.507324
57.021706,-87.257027,-86.063576,2.994234,0.190179,2.994234,0.190179,-89.999855,-90.0,3.183576,23.643295,7.944028,296.378326,291.077545,-0.012364,-0.033864,12.423866,-0.002665,0.059757,0.072591,0.0,1.0,2415.695068
57.897881,-87.220505,-86.027061,3.000038,0.194509,3.000038,0.194509,-89.999855,-90.0,3.223493,24.315453,8.043077,296.339294,291.020996,-0.012595,-0.034912,12.592428,-0.002717,0.059885,0.074425,0.0,1.0,2421.983643
58.481255,-87.195801,-86.002357,3.004514,0.196606,3.004514,0.196606,-89.999855,-90.0,3.250481,24.765629,8.139478,296.312347,290.945679,-0.01279,-0.035685,21.81642,-0.002779,0.060001,0.076376,0.0,1.0,2426.180176
59.355045,-87.158195,-85.964752,3.013213,0.198298,3.013213,0.198298,-89.999855,-90.0,3.291833,25.443888,8.824238,296.27301,290.779968,-0.012885,-0.036553,17.58305,-0.002809,0.06009,0.077724,0.0,1.0,2432.481445
59.936157,-87.132591,-85.939148,3.020059,0.199075,3.020059,0.199075,-89.999855,-90.0,3.321096,25.897987,8.827454,296.247528,290.63681,-0.012616,-0.036947,19.120821,-0.002833,0.060264,0.079691,0.0,1.0,2436.686035
60.806065,-87.093109,-85.899666,3.033753,0.200899,3.033753,0.200899,-89.999855,-90.0,3.367302,26.581913,9.846639,296.212067,290.377716,-0.011522,-0.037013,13.466349,-0.002844,0.060401,0.080965,0.0,1.0,2443.066895
61.384521,-87.065727,-85.872284,3.039259,0.201933,3.039259,0.201933,-89.999855,-90.0,3.400293,27.03964,9.936643,296.189667,290.178284,-0.010309,-0.036876,20.351103,-0.00287,0.060675,0.082738,0.0,1.0,2447.369629
62.251385,-87.023064,-85.82962,3.044196,0.202906,3.044196,0.202906,-89.999855,-90.0,3.450356,27.728798,10.081179,296.158356,289.844452,-0.007626,-0.036344,13.783463,-0.002885,0.060785,0.083858,0.0,1.0,2453.869629
62.828594,-86.993706,-85.800262,3.047955,0.203486,3.047955,0.203486,-89.999855,-90.0,3.484154,28.18989,10.18649,296.138031,289.602081,-0.005405,-0.035959,19.826698,-0.002899,0.060884,0.085423,0.0,1.0,2458.223877
63.693371,-86.948479,-85.755035,3.054062,0.203828,3.054062,0.203828,-89.999855,-90.0,3.535549,28.883913,10.444644,296.108215,289.214569,-0.001369,-0.035357,18.983374,-0.002907,0.060959,0.086439,0.0,1.0,2464.775635
64.268562,-86.91748,-85.724037,3.063052,0.209605,3.063052,0.209605,-89.999855,-90.0,3.571773,29.348127,11.025533,296.087921,288.943604,0.001241,-0.034958,19.454744,-0.002912,0.061081,0.08793,0.0,1.0,2469.15332
65.134209,-86.869469,-85.676025,3.068059,0.22348,3.068059,0.22348,-89.999855,-90.0,3.627302,30.046673,11.174155,295.973846,288.523865,-5.1E-5,-0.049954,20.185181,-0.002994,0.061261,0.0,0.0,1.0,2475.733643
65.720032,-86.836548,-85.643105,3.067964,0.226542,3.067964,0.226542,-89.999855,-90.0,3.664726,30.513851,11.26905,295.687408,288.237549,-0.012205,-0.092665,20.607674,-0.003193,0.061361,0.005704,0.0,1.0,2480.147217
66.609138,-86.785995,-85.592552,3.065003,0.210504,3.065003,0.210504,-89.999855,-90.0,3.721485,31.216864,11.428156,295.013672,287.79892,-0.054182,-0.186458,21.167253,-0.003236,0.061359,0.020026,0.0,1.0,2486.834717
67.20546,-86.751564,-85.558121,3.068913,0.191327,3.068913,0.191327,-89.999855,-90.0,3.760689,31.687086,12.672166,294.483063,287.499054,-0.095946,-0.253548,21.546982,-0.003007,0.0613,0.053712,0.0,1.0,2491.339111
68.100693,-86.697975,-85.504532,3.07476,0.152406,3.07476,0.152406,-89.999855,-90.0,3.825081,32.394817,12.978723,293.770325,287.035004,-0.162425,-0.327488,22.628075,-0.002733,0.061378,0.080243,0.0,1.0,2498.151123
68.696739,-86.660873,-85.46743,3.078327,0.127893,3.078327,0.127893,-89.999855,-90.0,3.868622,32.868267,13.138498,293.435852,286.715088,-0.19954,-0.347953,23.269495,-0.002177,0.061495,0.11588,0.0,1.0,2502.721436
69.588203,-86.603226,-85.409782,3.072429,0.061562,3.072429,0.061562,-89.999855,-90.0,3.937508,33.58073,14.4835,293.278198,286.220642,-0.233451,-0.320973,19.002029,-0.001827,0.061567,0.132603,0.0,1.0,2509.598145
70.185799,-86.563065,-85.369621,3.037641,-0.028818,3.037641,-0.028818,-89.999855,-90.0,3.986931,34.057209,15.038999,293.421906,285.884949,-0.235562,-0.267145,15.914408,-8.79E-4,0.061449,0.140486,0.0,1.0,2514.200928
71.06884,-86.500099,-85.306656,2.97955,-0.16216,2.97955,-0.16216,-89.999855,-90.0,4.061692,34.774143,14.685716,293.951538,285.383911,-0.20399,-0.147638,19.644175,4.12E-4,0.060753,0.133301,0.0,1.0,2521.116699
71.638634,-86.456856,-85.263412,2.966538,-0.200714,2.966538,-0.200714,-89.999855,-90.0,4.10986,35.253399,14.162339,294.432129,285.060242,-0.161689,-0.057298,16.132914,0.002317,0.059591,0.106819,0.0,1.0,2525.69043
72.466927,-86.39106,-85.197617,2.97864,-0.14491,2.97864,-0.14491,-89.999855,-90.0,4.182092,35.973827,15.702321,295.117401,284.605072,-0.079958,0.057106,20.190596,0.002867,0.059331,0.08279,0.0,1.0,2532.431152
73.012833,-86.345848,-85.152405,2.935923,-0.006284,2.935923,-0.006284,-89.999855,-90.0,4.23867,36.454899,17.896917,295.444183,284.329163,-0.024293,0.105224,19.512367,0.00207,0.059573,0.048526,0.0,1.0,2536.84668
73.846855,-86.273979,-85.080536,2.778446,0.313938,2.778446,0.313938,-89.999855,-90.0,4.328991,37.177444,17.55385,295.581696,283.965942,0.046538,0.115095,21.023291,9.0E-5,0.058718,0.032187,0.0,1.0,2543.424805
74.417145,-86.224014,-85.030571,2.699591,0.5016,2.699591,0.5016,-89.999855,-90.0,4.385391,37.659779,16.320524,295.420502,283.760406,0.077268,0.080523,21.571623,-0.004485,0.055569,0.025311,0.0,1.0,2547.831055
75.288971,-86.148079,-84.954628,2.662592,0.552683,2.662592,0.552683,-79.999855,-80.0,4.46666,38.385849,16.817574,294.885925,283.506012,0.094718,-0.015205,25.089323,-0.007166,0.053992,0.033371,0.0,1.0,2554.52002
75.876442,-86.096588,-84.903145,2.642458,0.376087,2.642458,0.376087,-79.999855,-80.0,4.527461,38.87196,19.891373,294.438354,283.369202,0.088551,-0.089395,18.996641,-0.007895,0.053252,0.0601,0.0,1.0,2559.04126
76.75312,-86.013939,-84.820496,2.666131,-0.191818,2.666131,-0.191818,-79.999855,-80.0,4.648719,39.602627,29.58279,293.87439,283.207062,0.061785,-0.175461,19.070604,-0.005373,0.052849,0.082478,0.0,1.0,2565.896973
77.328918,-85.950447,-84.757004,2.730375,-0.685918,2.730375,-0.685918,-79.999855,-80.0,4.765798,40.09071,40.906605,293.669037,283.124847,0.041733,-0.200878,21.056137,0.00274,0.053323,0.110677,0.0,1.0,2570.493652
78.166183,-85.829376,-84.635933,2.887812,-1.362733,2.887812,-1.362733,-79.999855,-80.0,5.030306,40.823921,65.654037,293.712982,283.037598,0.020645,-0.177333,28.810925,0.009799,0.054607,0.120944,0.0,1.0,2577.378906
78.694923,-85.721146,-84.527702,3.032482,-1.656344,3.032482,-1.656344,-79.999855,-80.0,5.284722,41.313038,86.738907,293.949127,283.003174,0.019504,-0.127797,36.684258,0.019468,0.057756,0.118747,0.0,1.0,2581.917969
79.430336,-85.497437,-84.303993,3.260028,-1.693757,3.260028,-1.693757,-79.999855,-80.0,5.809786,42.046234,122.827637,294.452118,282.987457,0.038115,-0.031416,52.768578,0.023662,0.06065,0.10694,0.0,1.0,2588.554199
79.880737,-85.295708,-84.102264,3.416308,-1.462754,3.416308,-1.462754,-79.999855,-80.0,6.2631,42.534084,148.358978,294.770294,283.000549,0.060649,0.027123,66.083298,0.024197,0.065201,0.08179,0.0,1.0,2592.490234
80.515907,-84.896729,-83.703285,3.593212,-0.860159,3.593212,-0.860159,-79.999855,-80.0,7.102569,43.263348,185.681702,295.018921,283.052216,0.099133,0.072967,89.259315,0.020896,0.068326,0.065881,0.0,1.0,2597.229492
80.924614,-84.559052,-83.365608,3.68507,-0.414697,3.68507,-0.414697,-79.999855,-80.0,7.760129,43.747345,207.676361,294.980103,283.104034,0.118845,0.068324,106.135628,0.012288,0.071864,0.05345,0.0,1.0,2599.844971
81.530594,-83.938782,-82.745338,3.777528,0.065466,3.777528,0.065466,-79.999855,-80.0,8.876429,44.469505,237.13588,294.639771,283.198303,0.130819,0.014273,132.368179,0.005924,0.073701,0.055391,0.0,1.0,2603.234131
81.928566,-83.448753,-82.25531,3.839772,0.189774,3.839772,0.189774,-79.999855,-80.0,9.696635,44.948231,254.082413,294.303741,283.265778,0.124414,-0.038169,149.934174,-9.35E-4,0.075551,0.072407,0.0,1.0,2605.248291
82.512695,-82.601547,-81.408104,3.938266,0.034566,3.938266,0.034566,-79.999855,-80.0,11.028406,45.662086,277.682159,293.849762,283.363312,0.098687,-0.105532,175.750793,-0.002711,0.076795,0.089209,0.0,1.0,2608.020752
82.890778,-81.964279,-80.770836,4.014972,-0.218524,4.014972,-0.218524,-79.999855,-80.0,11.980446,46.135052,292.969086,293.679047,283.42099,0.078553,-0.126819,192.474991,-4.94E-4,0.078765,0.111908,0.0,1.0,2609.746582
83.43293,-80.903435,-79.709991,4.133407,-0.619628,4.133407,-0.619628,-79.999855,-80.0,13.504262,46.839676,315.887207,293.726593,283.491608,0.055903,-0.107281,216.87001,0.003122,0.080299,0.120444,0.0,1.0,2612.193115
83.77095,-80.127853,-78.934402,4.228706,-0.785195,4.228706,-0.785195,-79.999855,-80.0,14.58643,47.305855,333.284882,293.942413,283.527557,0.053102,-0.0649,232.774765,0.008852,0.082668,0.118066,0.0,1.0,2613.739502
84.233002,-78.86113,-77.667686,4.388843,-0.728699,4.388843,-0.728699,-79.999855,-80.0,16.331026,47.998966,364.582184,294.395691,283.566376,0.068559,0.01686,256.742859,0.011217,0.084574,0.107275,0.0,1.0,2615.93335
84.510612,-77.944572,-76.751129,4.514956,-0.495802,4.514956,-0.495802,-79.999855,-80.0,17.58709,48.456429,388.356201,294.677917,283.583191,0.088409,0.065059,273.275238,0.01041,0.087777,0.084611,0.0,1.0,2617.310303
84.899048,-76.454216,-75.260773,4.669754,0.028101,4.669754,0.028101,-79.999855,-80.0,19.614239,49.134945,420.380005,294.888306,283.594543,0.122178,0.097996,299.32431,0.007083,0.090299,0.0705,0.0,1.0,2619.257324
85.152855,-75.381821,-74.188377,4.739134,0.382306,4.739134,0.382306,-69.999855,-70.0,21.045559,49.581932,437.154846,294.847321,283.591339,0.138306,0.088703,317.181549,-4.01E-4,0.093395,0.059981,0.0,1.0,2620.492188
85.541023,-73.658661,-72.465218,4.777289,0.704282,4.777289,0.704282,-69.999855,-70.0,23.285784,50.244305,457.449829,294.556122,283.566345,0.144975,0.036355,343.649017,-0.005462,0.094783,0.06203,0.0,1.0,2622.282959
85.803612,-72.438072,-71.244629,4.800777,0.7318,4.800777,0.7318,-69.999855,-70.0,24.829666,50.680607,468.232513,294.289673,283.533661,0.136037,-0.009088,360.593628,-0.010061,0.095546,0.07659,0.0,1.0,2623.450928
86.196259,-70.509102,-69.315659,4.859385,0.489227,4.859385,0.489227,-69.999855,-70.0,27.210146,51.327385,483.601044,293.974915,283.456818,0.109465,-0.060665,384.460083,-0.010454,0.096016,0.089912,0.0,1.0,2625.173828
86.452614,-69.162697,-67.969254,4.914509,0.223168,4.914509,0.223168,-69.999855,-70.0,28.84107,51.753498,494.708954,293.899689,283.385925,0.091164,-0.071466,399.318909,-0.006989,0.097188,0.10565,0.0,1.0,2626.302979
86.819519,-67.057869,-65.864426,5.005394,-0.132068,5.005394,-0.132068,-69.999855,-70.0,31.362207,52.384899,513.608337,294.045135,283.251129,0.073789,-0.044118,420.371918,-0.003188,0.09829,0.109412,0.0,1.0,2627.959961
87.04525,-65.599113,-64.40567,5.080745,-0.24913,5.080745,-0.24913,-69.999855,-70.0,33.098213,52.800449,527.671814,294.277252,283.144592,0.074448,-0.004624,433.878052,0.001887,0.100108,0.102139,0.0,1.0,2629.031494
87.353043,-63.327301,-62.133858,5.193346,-0.145781,5.193346,-0.145781,-59.999859,-60.0,35.794926,53.415245,550.603333,294.669739,282.96521,0.092362,0.059349,453.842194,0.003559,0.101615,0.090533,0.0,1.0,2630.572021
87.542595,-61.755783,-60.56234,5.267677,0.07219,5.267677,0.07219,-59.999859,-60.0,37.657944,53.819176,566.726624,294.868866,282.835541,0.11037,0.089541,467.187408,0.002083,0.103867,0.070909,0.0,1.0,2631.551514
87.820366,-59.310375,-58.116928,5.349833,0.47603,5.349833,0.47603,-59.999859,-60.0,40.554054,54.415897,590.711121,294.944122,282.629181,0.135484,0.095318,487.5112,-0.001031,0.105354,0.060953,0.0,1.0,2632.959717
88.007652,-57.620235,-56.426792,5.398328,0.695081,5.398328,0.695081,-59.999859,-60.0,42.548687,54.807598,605.338806,294.838745,282.484253,0.143198,0.073194,501.280579,-0.0068,0.106997,0.05719,0.0,1.0,2633.871338
88.294266,-54.995594,-53.802151,5.459239,0.789077,5.459239,0.789077,-49.999859,-50.0,45.627415,55.386192,625.178284,294.537354,282.25473,0.137471,0.017198,522.053406,-0.00993,0.107967,0.062459,0.0,1.0,2635.218262
88.486954,-53.187527,-51.994083,5.503743,0.686067,5.503743,0.686067,-49.999859,-50.0,47.732635,55.766136,637.429871,294.32608,282.092682,0.123446,-0.020154,535.810913,-0.011273,0.109185,0.077528,0.0,1.0,2636.109131
88.77256,-50.391041,-49.197598,5.572456,0.351464,5.572456,0.351464,-49.999859,-50.0,50.966251,56.327618,655.477051,294.155823,281.835236,0.096251,-0.049377,556.087219,-0.009801,0.110075,0.088092,0.0,1.0,2637.436279
88.955856,-48.472076,-47.278633,5.629366,0.100822,5.629366,0.100822,-49.999859,-50.0,53.172424,56.696354,667.865967,294.184509,281.654877,0.08217,-0.044487,569.314514,-0.005021,0.111449,0.096605,0.0,1.0,2638.311523
89.21019,-45.513306,-44.319859,5.723424,-0.133847,5.723424,-0.133847,-49.999859,-50.0,56.562283,57.240929,687.751587,294.424286,281.375,0.07481,-0.004446,588.780334,-0.00144,0.112587,0.095171,0.0,1.0,2639.596191
89.361725,-43.487282,-42.293835,5.797586,-0.147395,5.797586,-0.147395,-39.999859,-40.0,58.87925,57.598106,702.060181,294.653839,281.185394,0.081226,0.032525,601.607605,0.001912,0.114468,0.083182,0.0,1.0,2640.423584
89.566437,-40.366615,-39.173172,5.896039,0.059947,5.896039,0.059947,-39.999859,-40.0,62.44738,58.124702,724.573425,294.94043,280.901947,0.102416,0.076106,620.847107,0.002106,0.115952,0.071704,0.0,1.0,2641.608643
89.694992,-38.230564,-37.037117,5.956278,0.281494,5.956278,0.281494,-39.999859,-40.0,64.888397,58.469521,739.448792,295.02597,280.716003,0.11734,0.086387,633.777161,-8.56E-4,0.117921,0.057375,0.0,1.0,2642.362793
89.889038,-34.941746,-33.748302,6.02088,0.571844,6.02088,0.571844,-29.999857,-30.0,68.640259,58.977352,760.194153,294.944122,280.443634,0.131444,0.065942,653.370605,-0.004021,0.119126,0.053098,0.0,1.0,2643.455322
90.022255,-32.69294,-31.499495,6.060281,0.66349,6.060281,0.66349,-29.999857,-30.0,71.195625,59.309769,772.389343,294.781372,280.266296,0.130327,0.035066,666.493347,-0.008169,0.120418,0.05719,0.0,1.0,2644.168945
90.226593,-29.237871,-28.044426,6.112185,0.570509,6.112185,0.570509,-29.999857,-30.0,75.100616,59.799522,788.768616,294.507141,280.005371,0.114194,-0.014425,686.025024,-0.009478,0.121206,0.065327,0.0,1.0,2645.229736
90.36351,-26.882153,-25.688707,6.151055,0.389713,6.151055,0.389713,-29.999857,-30.0,77.747368,60.1203,798.851379,294.381256,279.834167,0.098398,-0.036476,698.799805,-0.00815,0.122244,0.079039,0.0,1.0,2645.93335
90.56295,-23.274172,-22.080729,6.21295,0.068721,6.21295,0.068721,-19.999857,-20.0,81.780083,60.593037,813.822083,294.378174,279.581818,0.077,-0.037035,717.421631,-0.005567,0.123021,0.085333,0.0,1.0,2646.980713
90.686462,-20.821236,-19.62779,6.26502,-0.095381,6.26502,-0.095381,-19.999857,-20.0,84.510658,60.902561,824.237183,294.500153,279.417938,0.070861,-0.016879,729.446716,-9.82E-4,0.124259,0.085487,0.0,1.0,2647.666992
90.85083,-17.074125,-15.880682,6.345868,-0.142007,6.345868,-0.142007,-19.999857,-20.0,88.674423,61.358192,840.950928,294.780914,279.182404,0.076376,0.028627,746.841675,0.001363,0.1253,0.079388,0.0,1.0,2648.663818
90.947006,-14.528708,-13.335263,6.403041,-0.042288,6.403041,-0.042288,-9.999858,-10.0,91.497719,61.656029,852.674561,294.960724,279.034637,0.087905,0.056378,758.329102,0.002029,0.126917,0.06535,0.0,1.0,2649.298828
91.081688,-10.641546,-9.448102,6.468108,0.228978,6.468108,0.228978,-9.999858,-10.0,95.806511,62.093735,870.114319,295.090179,278.829895,0.108601,0.072869,775.303528,6.04E-4,0.128061,0.05636,0.0,1.0,2650.201172
91.171608,-8.004018,-6.810573,6.504251,0.410292,6.504251,0.410292,-9.999858,-10.0,98.725571,62.37952,880.794128,295.056488,278.705261,0.117604,0.063543,786.50708,-0.003271,0.129362,0.049887,0.0,1.0,2650.765625
91.27887,-3.980782,-2.787338,6.542436,0.538025,6.542436,0.538025,1.42E-4,0.0,103.166481,62.7994,894.595703,294.861664,278.535248,0.118167,0.025909,803.041687,-0.005861,0.130085,0.051572,0.0,1.0,2651.558105
91.347679,-1.254383,-0.060939,6.566617,0.497579,6.566617,0.497579,1.42E-4,0.0,106.161797,63.073685,902.154358,294.696655,278.431885,0.108982,-0.003866,813.91864,-0.007686,0.130849,0.061313,0.0,1.0,2652.046387
91.455429,3.096814,4.290258,6.599432,0.268525,6.599432,0.268525,1.42E-4,0.0,110.698669,63.477028,912.078064,294.533081,278.289642,0.087318,-0.032778,829.680786,-0.007108,0.131332,0.069563,0.0,1.0,2652.742432
91.526741,6.038901,7.232345,6.626063,0.070733,6.626063,0.070733,10.000142,10.0,113.749672,63.740685,918.292603,294.52713,278.202759,0.074285,-0.034195,839.729309,-0.003836,0.131989,0.077742,0.0,1.0,2653.188721
91.624786,10.506346,11.69979,6.672572,-0.145891,6.672572,-0.145891,10.000142,10.0,118.365707,64.128372,927.943359,294.683899,278.085114,0.064499,-0.008492,854.046143,-0.00101,0.132521,0.07804,0.0,1.0,2653.832031
91.68013,13.518912,14.712357,6.711504,-0.188114,6.711504,-0.188114,10.000142,10.0,121.470779,64.381577,934.939636,294.857513,278.016357,0.067443,0.019244,863.108032,0.002084,0.133451,0.070201,0.0,1.0,2654.239258
91.74894,18.087364,19.280809,6.764068,-0.065785,6.764068,-0.065785,20.000143,20.0,126.174156,64.753334,946.121704,295.094543,277.930176,0.082702,0.055295,876.096802,0.002687,0.13423,0.06152,0.0,1.0,2654.809814
91.790009,21.165632,22.359076,6.794715,0.091482,6.794715,0.091482,20.000143,20.0,129.340714,64.995758,953.509827,295.178558,277.884949,0.094761,0.065996,884.438416,9.4E-4,0.135281,0.049669,0.0,1.0,2655.164551
91.85463,25.830185,27.02363,6.821434,0.313931,6.821434,0.313931,30.000143,30.0,134.134674,65.351349,963.422119,295.138245,277.835236,0.107369,0.053539,896.507202,-0.001307,0.135894,0.045468,0.0,1.0,2655.669189
91.903114,28.971916,30.165361,6.83367,0.389904,6.83367,0.389904,30.000143,30.0,137.35556,65.583206,968.762939,295.020142,277.81308,0.107396,0.030562,904.380188,-0.004485,0.136429,0.047484,0.0,1.0,2655.996582
91.98436,33.728031,34.921478,6.846436,0.324153,6.846436,0.324153,30.000143,30.0,142.216721,65.923569,975.227722,294.806793,277.793213,0.095215,-0.008574,915.728333,-0.00557,0.136673,0.053389,0.0,1.0,2656.486816
92.042404,36.925468,38.118912,6.85661,0.183391,6.85661,0.183391,40.000141,40.0,145.473862,66.145744,978.876526,294.7435,277.787079,0.08238,-0.027081,922.926147,-0.004631,0.136929,0.064056,0.0,1.0,2656.816406
92.129593,41.757637,42.951084,6.877821,-0.07444,6.877821,-0.07444,40.000141,40.0,150.382095,66.472145,984.314331,294.733795,277.786407,0.064685,-0.02999,933.09613,-0.00262,0.137132,0.067221,0.0,1.0,2657.315186
92.18338,45.001221,46.194664,6.899636,-0.211904,6.899636,-0.211904,40.000141,40.0,153.670044,66.685211,988.393494,294.776367,277.791351,0.05909,-0.016354,939.454712,0.001063,0.137556,0.067706,0.0,1.0,2657.645996
92.252029,49.897961,51.091404,6.937641,-0.269006,6.937641,-0.269006,50.000141,50.0,158.629883,66.997963,995.514221,294.881104,277.807434,0.061595,0.01664,948.436401,0.003027,0.137993,0.065578,0.0,1.0,2658.128662
92.289337,53.18309,54.376534,6.965594,-0.20803,6.965594,-0.20803,50.000141,50.0,161.957352,67.201813,1000.834167,294.952515,277.824524,0.069092,0.038214,954.131653,0.003843,0.138753,0.060341,0.0,1.0,2658.435547
92.337585,58.142155,59.335602,6.996809,-0.01527,6.996809,-0.01527,60.000141,60.0,166.982605,67.500542,1008.948364,295.020874,277.860199,0.083624,0.056524,962.38385,0.002972,0.139312,0.05677,0.0,1.0,2658.869629
92.368744,61.4683,62.661747,7.012716,0.129186,7.012716,0.129186,60.000141,60.0,170.354492,67.695015,1013.921875,295.030243,277.890381,0.091312,0.056279,967.68927,2.18E-4,0.139936,0.053352,0.0,1.0,2659.144531
92.419365,66.490967,67.68441,7.02667,0.272321,7.02667,0.272321,70.000145,70.0,175.441071,67.979889,1020.262146,294.995117,277.943451,0.095955,0.039243,975.624695,-0.001846,0.140254,0.052884,0.0,1.0,2659.543945
92.456879,69.859627,71.05307,7.034437,0.296205,7.034437,0.296205,70.000145,70.0,178.848007,68.165398,1023.689758,294.953491,277.982513,0.093519,0.022247,980.782898,-0.00389,0.140533,0.05464,0.0,1.0,2659.807617
92.517586,74.940788,76.134239,7.045148,0.215177,7.045148,0.215177,70.000145,70.0,183.978058,68.437347,1028.080078,294.896606,278.043884,0.084001,-4.85E-4,988.255066,-0.004231,0.140689,0.056722,0.0,1.0,2660.204346
92.559494,78.345604,79.539047,7.054422,0.112224,7.054422,0.112224,80.000145,80.0,187.409668,68.614586,1030.778687,294.876923,278.085266,0.076545,-0.008802,993.02124,-0.003074,0.140903,0.059566,0.0,1.0,2660.471191
92.620728,83.476654,84.670097,7.071776,-0.04306,7.071776,-0.04306,80.000145,80.0,192.574203,68.874489,1034.965454,294.88623,278.146484,0.067859,-0.007229,999.811218,-0.001603,0.141088,0.06055,0.0,1.0,2660.872559
92.658211,86.9123,88.105743,7.087476,-0.115626,7.087476,-0.115626,90.000145,90.0,196.029343,69.043823,1038.049683,294.914429,278.186432,0.065763,0.001423,1004.102356,6.15E-4,0.141436,0.060085,0.0,1.0,2661.137695
92.707436,92.087357,93.2808,7.112005,-0.135214,7.112005,-0.135214,90.000145,90.0,201.23259,69.291931,1043.171875,294.970551,278.245026,0.068292,0.018951,1010.23407,0.001652,0.14175,0.058675,0.0,1.0,2661.525635
92.731491,95.406586,96.600029,7.128371,-0.098491,7.128371,-0.098491,100.000145,100.0,204.570694,69.446732,1046.658447,295.003326,278.281769,0.072554,0.028663,1013.971252,0.001932,0.14224,0.055868,0.0,1.0,2661.764893
92.774719,100.768013,101.961464,7.148366,0.005541,7.148366,0.005541,100.000145,100.0,209.964127,69.689682,1052.177856,295.03302,278.339539,0.079721,0.035486,1019.808228,0.001407,0.142567,0.05423,0.0,1.0,2662.134521
92.800308,104.261505,105.454948,7.159385,0.074236,7.159385,0.074236,100.000145,100.0,213.477158,69.843315,1055.482422,295.03418,278.375824,0.082907,0.033285,1023.569092,-7.9E-5,0.142967,0.052745,0.0,1.0,2662.366211
92.840385,109.522926,110.71637,7.170168,0.129783,7.170168,0.129783,110.000145,110.0,218.766144,70.068085,1059.836304,295.014893,278.427307,0.083767,0.022371,1029.078369,-0.001061,0.143188,0.052687,0.0,1.0,2662.706543
92.86412,112.896698,114.090149,7.176309,0.127929,7.176309,0.127929,110.000145,110.0,222.155746,70.208221,1062.220703,294.996674,278.457581,0.081608,0.013556,1032.480469,-0.001854,0.143403,0.053651,0.0,1.0,2662.921631
92.912651,118.343422,119.536865,7.185556,0.068016,7.185556,0.068016,120.000145,120.0,227.623657,70.428185,1065.673828,294.973602,278.500732,0.075889,0.002232,1037.773926,-0.001828,0.143526,0.054562,0.0,1.0,2663.267578
92.942429,121.889778,123.083221,7.193301,0.00893,7.193301,0.00893,120.000145,120.0,231.179626,70.567345,1067.821655,294.96875,278.524506,0.07195,-0.001037,1041.133667,-9.72E-4,0.143711,0.055716,0.0,1.0,2663.491943
92.985352,127.226028,128.419479,7.206614,-0.069953,7.206614,-0.069953,130.000137,130.0,236.527237,70.771011,1071.151245,294.979431,278.553497,0.067831,0.001156,1045.944092,-1.28E-4,0.143866,0.055959,0.0,1.0,2663.827148
93.011795,130.794205,131.98764,7.217691,-0.102309,7.217691,-0.102309,130.000137,130.0,240.101807,70.903442,1073.526611,294.995697,278.568481,0.067099,0.006031,1049.007202,9.99E-4,0.144132,0.055425,0.0,1.0,2664.048096
93.047562,136.162064,137.355499,7.23376,-0.103867,7.23376,-0.103867,140.000137,140.0,245.479095,71.097099,1077.300659,295.023865,278.584869,0.068764,0.014634,1053.419067,0.001462,0.144354,0.054611,0.0,1.0,2664.372314
93.069122,139.750977,140.944412,7.24477,-0.080237,7.24477,-0.080237,140.000137,140.0,249.074539,71.222893,1079.875,295.039581,278.592041,0.070935,0.018983,1056.262207,0.001484,0.144675,0.053203,0.0,1.0,2664.582764
93.099602,145.149841,146.343277,7.257514,-0.028823,7.257514,-0.028823,140.000137,140.0,254.483704,71.406677,1083.621826,295.051666,278.597504,0.074194,0.020797,1060.415527,0.001146,0.144895,0.052417,0.0,1.0,2664.890137
93.115364,148.609421,149.802856,7.264829,0.001096,7.264829,0.001096,150.000137,150.0,257.948975,71.521065,1085.831543,295.051636,278.597748,0.075371,0.018923,1063.049316,4.12E-4,0.14515,0.051813,0.0,1.0,2665.081787
93.150185,154.187637,155.381088,7.273682,0.021585,7.273682,0.021585,150.000137,150.0,263.537628,71.700241,1089.03772,295.042877,278.592712,0.075092,0.012542,1067.052124,-1.6E-5,0.145297,0.051814,0.0,1.0,2665.385742
93.171295,157.816971,159.010406,7.279371,0.014473,7.279371,0.014473,160.000137,160.0,267.17099,71.813362,1090.900391,295.035339,278.585846,0.073627,0.007869,1069.650146,-3.08E-4,0.145474,0.052252,0.0,1.0,2665.581055
93.203461,163.274567,164.468002,7.287323,-0.021045,7.287323,-0.021045,160.000137,160.0,272.632294,71.978577,1093.505005,295.028076,278.570099,0.070459,0.002792,1073.421509,-2.07E-4,0.145587,0.052629,0.0,1.0,2665.872803
93.224655,166.92157,168.115021,7.293678,-0.052144,7.293678,-0.052144,170.000137,170.0,276.280212,72.085815,1095.187256,295.028229,278.556091,0.06848,0.001574,1075.845215,3.01E-4,0.145746,0.052992,0.0,1.0,2666.066406
93.254951,172.403259,173.59671,7.303703,-0.090112,7.303703,-0.090112,170.000137,170.0,281.762756,72.242409,1097.75769,295.036255,278.530304,0.066595,0.003106,1079.295044,7.45E-4,0.145874,0.052985,0.0,1.0,2666.354736
93.273895,176.066437,177.259888,7.311498,-0.103989,7.311498,-0.103989,180.000137,180.0,285.425018,72.343994,1099.535889,295.045197,278.510315,0.066355,0.005566,1081.556396,0.001287,0.146074,0.052583,0.0,1.0,2666.544678
93.300133,181.572601,182.766052,7.322244,-0.101761,7.322244,-0.101761,180.000137,180.0,290.929718,72.49221,1102.269409,295.059235,278.476898,0.067262,0.009449,1084.822998,0.001486,0.14623,0.052136,0.0,1.0,2666.824463
93.316414,185.250885,186.444321,7.329542,-0.08924,7.329542,-0.08924,180.000137,180.0,294.607117,72.588272,1104.084961,295.06665,278.452789,0.068269,0.011144,1086.930176,0.001454,0.146445,0.051434,0.0,1.0,2667.007568
93.339722,190.778336,191.971786,7.338182,-0.065356,7.338182,-0.065356,190.000137,190.0,300.134369,72.728325,1106.706177,295.072357,278.414581,0.069616,0.011289,1089.950928,0.001275,0.146591,0.051064,0.0,1.0,2667.276611
93.355103,194.471512,195.664963,7.34369,-0.052543,7.34369,-0.052543,190.000137,190.0,303.826233,72.819038,1108.331177,295.072632,278.388031,0.069961,0.0099,1091.967163,9.34E-4,0.146764,0.050778,0.0,1.0,2667.453369
93.378273,200.02182,201.215256,7.350389,-0.047471,7.350389,-0.047471,200.000137,200.0,309.37384,72.951233,1110.595459,295.069824,278.347046,0.069483,0.006508,1094.904297,7.51E-4,0.146874,0.050764,0.0,1.0,2667.715088
93.393837,203.72879,204.922241,7.354956,-0.053791,7.354956,-0.053791,200.000137,200.0,313.078247,73.036827,1111.991089,295.067566,278.319153,0.068605,0.004189,1096.803467,6.78E-4,0.147008,0.050905,0.0,1.0,2667.888184
93.418312,209.297668,210.491104,7.361351,-0.073675,7.361351,-0.073675,210.000137,210.0,318.643402,73.16153,1113.984985,295.066315,278.276764,0.066941,0.001822,1099.488037,7.68E-4,0.147099,0.051018,0.0,1.0,2668.145996
93.432167,213.017471,214.210922,7.366257,-0.089431,7.366257,-0.089431,210.000137,210.0,322.358917,73.242249,1115.284546,295.067749,278.248444,0.065965,0.001313,1101.287109,0.001052,0.147227,0.05108,0.0,1.0,2668.316895
93.454048,218.605957,219.799393,7.373511,-0.107454,7.373511,-0.107454,220.000137,220.0,327.940399,73.359779,1117.244019,295.07309,278.206329,0.065078,0.002052,1103.879639,0.001278,0.147325,0.051009,0.0,1.0,2668.571045
93.46373,222.182343,223.375793,7.378712,-0.11348,7.378712,-0.11348,220.000137,220.0,331.511475,73.432671,1118.513184,295.077728,278.180023,0.064966,0.003072,1105.512451,0.001535,0.14747,0.050742,0.0,1.0,2668.731445
93.483055,227.786285,228.979736,7.386084,-0.112362,7.386084,-0.112362,230.000137,230.0,337.109161,73.543381,1120.503662,295.084961,278.140289,0.065347,0.004615,1107.88147,0.001621,0.147574,0.05051,0.0,1.0,2668.979736
93.499115,231.681625,232.875076,7.391341,-0.106552,7.391341,-0.106552,230.000137,230.0,341.002228,73.617867,1121.86084,295.088928,278.114044,0.065744,0.005182,1109.371826,0.001605,0.147722,0.050148,0.0,1.0,2669.149414
93.516914,237.303726,238.497162,7.397515,-0.096597,7.397515,-0.096597,240.000137,240.0,346.616486,73.721741,1123.753418,295.092255,278.078613,0.06621,0.004852,1111.713623,0.001522,0.147827,0.04995,0.0,1.0,2669.390869
93.528625,241.056854,242.25029,7.40157,-0.091937,7.40157,-0.091937,240.000137,240.0,350.36438,73.788811,1124.920288,295.093018,278.056732,0.066247,0.003975,1113.217285,0.00138,0.14795,0.049783,0.0,1.0,2669.549805
93.544914,246.691544,247.884995,7.40826,-0.109718,7.40826,-0.109718,250.000137,250.0,355.993225,73.886208,1126.553589,295.112274,278.026703,0.054988,0.013197,1115.27063,4.38E-4,0.148031,0.1,0.0,1.0,2669.785156
93.545448,250.452393,251.645828,7.419908,-0.107235,7.419908,-0.107235,250.000137,250.0,359.750488,73.948959,1127.811035,295.172394,278.009186,0.053388,0.040548,1116.592529,5.22E-4,0.148165,0.1,0.0,1.0,2669.935547
93.528252,256.10495,257.298401,7.448789,0.052998,7.448789,0.052998,260.000153,260.0,365.396881,74.039619,1130.954346,295.304443,277.989532,0.067754,0.097501,1118.751099,5.11E-4,0.148398,0.1,0.0,1.0,2670.13501
93.503654,259.878723,261.072174,7.469366,0.281762,7.469366,0.281762,260.000153,260.0,369.171814,74.097572,1133.986328,295.395233,277.982941,0.085295,0.13409,1120.177368,-2.52E-4,0.148976,0.1,0.0,1.0,2670.242432
93.455688,265.390106,266.583557,7.484034,0.742485,7.484034,0.742485,260.000153,260.0,374.696167,74.178276,1138.661255,295.500244,277.985504,0.115464,0.170936,1122.251709,-0.001342,0.149387,0.1,0.0,1.0,2670.358887
93.424194,269.331604,270.525055,7.486092,1.113886,7.486092,1.113886,270.000153,270.0,378.654877,74.233116,1141.360352,295.545654,277.997223,0.133261,0.181343,1123.688599,-0.003536,0.149681,0.1,0.0,1.0,2670.418701
93.381493,275.029449,276.2229,7.480645,1.606641,7.480645,1.606641,270.000153,270.0,384.368835,74.30809,1143.833008,295.569763,278.028564,0.150751,0.175067,1126.44043,-0.005304,0.149722,0.1,0.0,1.0,2670.487305
93.360565,278.835846,280.029297,7.475103,1.872772,7.475103,1.872772,280.000153,280.0,388.182922,74.355606,1144.458984,295.568024,278.058289,0.154975,0.162184,1128.300903,-0.007651,0.149613,0.1,0.0,1.0,2670.530762
93.335098,284.395813,285.589233,7.467729,2.133041,7.467729,2.133041,280.000153,280.0,393.746185,74.4217,1144.25061,295.56015,278.112579,0.151781,0.141105,1130.931641,-0.008918,0.149502,0.1,0.0,1.0,2670.600586
93.329063,288.369781,289.563232,7.461952,2.239178,7.461952,2.239178,290.000153,290.0,397.718079,74.466782,1143.527466,295.562683,278.158173,0.145644,0.130504,1132.557129,-0.010157,0.149355,0.1,0.0,1.0,2670.658203
93.315796,294.101929,295.29538,7.454528,2.311959,7.454528,2.311959,290.000153,290.0,403.43219,74.528862,1142.123657,295.591003,278.232697,0.13532,0.127542,1134.895752,-0.010663,0.149239,0.1,0.0,1.0,2670.753418
93.307961,297.924652,299.118103,7.450068,2.341054,7.450068,2.341054,300.000153,300.0,407.237671,74.568497,1141.222778,295.62796,278.288116,0.130168,0.134251,1136.208496,-0.011009,0.149091,0.1,0.0,1.0,2670.822266
93.293167,303.658783,304.852234,7.446209,2.401552,7.446209,2.401552,300.000153,300.0,412.941101,74.625389,1140.272705,295.705292,278.380432,0.127411,0.154046,1137.79541,-0.011148,0.149001,0.1,0.0,1.0,2670.928223
93.281502,307.479614,308.673065,7.44462,2.470796,7.44462,2.470796,310.000153,310.0,416.741455,74.661629,1140.000854,295.765411,278.448853,0.129048,0.170401,1138.545898,-0.011436,0.148924,0.1,0.0,1.0,2670.996826
93.256653,313.211792,314.405243,7.443135,2.62319,7.443135,2.62319,310.000153,310.0,422.441376,74.713417,1140.024536,295.857056,278.563019,0.135291,0.193675,1139.518799,-0.011766,0.148892,0.1,0.0,1.0,2671.092529
93.239326,317.03241,318.22583,7.441747,2.750589,7.441747,2.750589,320.000153,320.0,426.24173,74.746231,1140.186523,295.91391,278.647461,0.140531,0.205757,1140.008057,-0.012491,0.148863,0.1,0.0,1.0,2671.150635
93.21051,322.603851,323.797302,7.438665,2.946556,7.438665,2.946556,320.000153,320.0,431.78479,74.791656,1140.343018,295.98642,278.78302,0.14762,0.216482,1140.596436,-0.013098,0.148835,0.1,0.0,1.0,2671.229248
93.194351,326.420929,327.61438,7.435606,3.074887,7.435606,3.074887,330.000153,330.0,435.585815,74.821198,1140.250732,296.029114,278.884399,0.150773,0.219477,1140.771729,-0.014031,0.148773,0.1,0.0,1.0,2671.280762
93.176109,332.306122,333.499573,7.430103,3.238123,7.430103,3.238123,330.000153,330.0,441.444183,74.864304,1139.687866,296.087738,279.05368,0.152452,0.219572,1141.045654,-0.014642,0.148712,0.1,0.0,1.0,2671.36084
93.164459,336.124664,337.318115,7.425713,3.318529,7.425713,3.318529,340.000153,340.0,445.242096,74.890778,1139.058228,296.124359,279.171356,0.151732,0.218684,1141.252075,-0.01542,0.148602,0.1,0.0,1.0,2671.415283
93.146286,341.691742,342.885162,7.419438,3.398951,7.419438,3.398951,340.000153,340.0,450.776337,74.927444,1137.890259,296.180725,279.353271,0.149029,0.21873,1141.443481,-0.015803,0.148514,0.1,0.0,1.0,2671.499268
93.13913,345.502991,346.696442,7.414709,3.437069,7.414709,3.437069,340.000153,340.0,454.56778,74.951324,1137.008179,296.223328,279.484711,0.146961,0.220742,1141.255615,-0.016185,0.148389,0.1,0.0,1.0,2671.559814
93.126816,351.37854,352.571991,7.408175,3.48338,7.408175,3.48338,350.000153,350.0,460.407196,74.986244,1135.685913,296.296326,279.697388,0.144646,0.227392,1141.054077,-0.016367,0.148294,0.1,0.0,1.0,2671.657959
93.117844,355.188812,356.382263,7.403876,3.514606,7.403876,3.514606,350.000153,350.0,464.191467,75.007713,1134.926147,296.347687,279.841736,0.144038,0.233515,1140.919678,-0.016588,0.148163,0.1,0.0,1.0,2671.723145
93.100296,360.741455,361.934875,7.398926,3.569471,7.398926,3.569471,360.000153,360.0,469.706085,75.037399,1134.006104,296.42569,280.061035,0.144651,0.243476,1140.597168,-0.016736,0.148078,0.1,0.0,1.0,2671.818604
93.091934,364.541687,365.735107,7.395676,3.615473,7.395676,3.615473,360.000153,360.0,473.485199,75.056671,1133.502563,296.479614,280.217316,0.145837,0.250045,1140.072388,-0.016997,0.147979,0.1,0.0,1.0,2671.883545
93.076736,370.398163,371.591614,7.391313,3.69521,7.391313,3.69521,370.000153,370.0,479.308319,75.084694,1132.837769,296.560852,280.467346,0.148105,0.258367,1139.361328,-0.017217,0.147914,0.1,0.0,1.0,2671.982666
93.066406,374.19696,375.390411,7.388237,3.749436,7.388237,3.749436,370.000153,370.0,483.083771,75.101799,1132.427246,296.611542,280.635101,0.149507,0.262242,1139.013916,-0.017596,0.147826,0.1,0.0,1.0,2672.046387
93.051598,379.889435,381.082886,7.383972,3.824968,7.383972,3.824968,380.000153,380.0,488.744202,75.125969,1131.754883,296.684601,280.894318,0.15095,0.265905,1138.343384,-0.017854,0.147765,0.1,0.0,1.0,2672.142334
93.039055,383.524048,384.717499,7.380916,3.867398,7.380916,3.867398,380.000153,380.0,492.358765,75.140503,1131.276855,296.729858,281.064209,0.151328,0.267293,1137.918335,-0.018214,0.147679,0.1,0.0,1.0,2672.204102
93.029366,389.363708,390.557159,7.376139,3.921774,7.376139,3.921774,390.000153,390.0,498.169983,75.162498,1130.400146,296.801819,281.343597,0.15112,0.268889,1137.044922,-0.018416,0.147618,0.1,0.0,1.0,2672.30542
93.021629,393.151886,394.345306,7.372655,3.949235,7.372655,3.949235,390.000153,390.0,501.936951,75.175903,1129.787598,296.848724,281.528259,0.150634,0.270034,1136.631592,-0.018675,0.147523,0.1,0.0,1.0,2672.373047
93.007591,398.672485,399.865936,7.368051,3.980272,7.368051,3.980272,400.000153,400.0,507.426697,75.194298,1128.879395,296.918304,281.801636,0.149789,0.272369,1135.997314,-0.018806,0.147453,0.1,0.0,1.0,2672.473877
93.000336,402.45105,403.644501,7.364751,3.998478,7.364751,3.998478,400.000153,400.0,511.188568,75.206161,1128.274902,296.96701,281.991455,0.149354,0.274523,1135.323364,-0.018954,0.147361,0.1,0.0,1.0,2672.544189
92.981598,408.272583,409.466003,7.360306,4.024055,7.360306,4.024055,410.000153,410.0,516.984131,75.223328,1127.25061,297.043488,282.28717,0.148555,0.27859,1134.330811,-0.01904,0.147295,0.1,0.0,1.0,2672.647217
92.957634,412.049622,413.243073,7.357283,4.035366,7.357283,4.035366,410.000153,410.0,520.740173,75.233772,1126.390259,297.094452,282.480621,0.147305,0.281945,1133.895996,-0.019162,0.147206,0.1,0.0,1.0,2672.701904
92.925339,417.549683,418.743134,7.352135,4.043841,7.352135,4.043841,420.000153,420.0,526.212219,75.248116,1124.994873,297.171844,282.764618,0.145493,0.288358,1133.013916,-0.019216,0.147146,0.1,0.0,1.0,2672.768799
92.905037,421.315277,422.508728,7.347516,4.048749,7.347516,4.048749,420.000153,420.0,529.960449,75.25737,1123.966553,297.226929,282.960571,0.144748,0.293726,1132.261841,-0.019256,0.147043,0.1,0.0,1.0,2672.808594
92.877441,426.958954,428.152405,7.340631,4.061432,7.340631,4.061432,430.000153,430.0,535.576172,75.270432,1122.379639,297.311676,283.256256,0.144605,0.30256,1131.159302,-0.01928,0.14695,0.1,0.0,1.0,2672.863037
92.857079,430.877686,432.071106,7.335508,4.076321,7.335508,4.076321,430.000153,430.0,539.471375,75.278946,1121.293091,297.370972,283.462921,0.145037,0.308607,1130.559937,-0.01934,0.146813,0.1,0.0,1.0,2672.898193
92.82605,436.356598,437.550049,7.329263,4.105011,7.329263,4.105011,440.000153,440.0,544.918335,75.290115,1119.805054,297.453186,283.754028,0.146295,0.316052,1129.548462,-0.019411,0.14671,0.1,0.0,1.0,2672.94458
92.797516,441.980499,443.17395,7.322441,4.140594,7.322441,4.140594,440.000153,440.0,550.51355,75.300743,1118.302246,297.535431,284.055634,0.1477,0.321753,1128.234375,-0.019548,0.146585,0.1,0.0,1.0,2672.98999
92.780006,446.039368,447.232819,7.317626,4.165997,7.317626,4.165997,450.000153,450.0,554.549744,75.307915,1117.189575,297.593109,284.274719,0.148435,0.324561,1127.375732,-0.01966,0.146494,0.1,0.0,1.0,2673.022705
92.755249,451.49939,452.692841,7.31041,4.195695,7.31041,4.195695,450.000153,450.0,559.976624,75.316933,1115.611206,297.668762,284.571075,0.148911,0.32699,1126.295654,-0.019838,0.146353,0.1,0.0,1.0,2673.068604
92.737175,455.08316,456.276611,7.306011,4.210552,7.306011,4.210552,450.000153,450.0,563.538635,75.32251,1114.537964,297.717712,284.766602,0.148874,0.328071,1125.526978,-0.019935,0.146256,0.1,0.0,1.0,2673.100098
92.713928,460.68045,461.873901,7.298454,4.227028,7.298454,4.227028,460.000153,460.0,569.106934,75.330711,1112.810669,297.793762,285.073608,0.148479,0.329515,1124.006592,-0.02005,0.14612,0.1,0.0,1.0,2673.151367
92.699127,464.406647,465.600067,7.293674,4.233907,7.293674,4.233907,460.000153,460.0,572.81427,75.335861,1111.650513,297.844452,285.278778,0.148092,0.330574,1122.95459,-0.020107,0.146018,0.1,0.0,1.0,2673.187744
92.680336,470.147217,471.340637,7.285787,4.240932,7.285787,4.240932,470.000153,470.0,578.522217,75.343353,1109.878418,297.922882,285.595764,0.147518,0.332599,1121.514648,-0.020161,0.145873,0.1,0.0,1.0,2673.247559
92.667137,473.866882,475.060333,7.281208,4.24461,7.281208,4.24461,470.000153,470.0,582.219849,75.347939,1108.768311,297.973999,285.801727,0.147264,0.334172,1120.592529,-0.020186,0.145765,0.1,0.0,1.0,2673.288574
92.648178,479.434204,480.627655,7.274193,4.251435,7.274193,4.251435,480.000153,480.0,587.759583,75.354462,1107.179688,298.05069,286.111206,0.147226,0.336685,1118.908691,-0.020212,0.145624,0.1,0.0,1.0,2673.352051
92.632706,482.987518,484.180969,7.270154,4.257164,7.270154,4.257164,480.000153,480.0,591.2948,75.358421,1106.224121,298.099457,286.309235,0.147357,0.338224,1117.896606,-0.020232,0.145532,0.1,0.0,1.0,2673.394287
92.61631,488.695984,489.889404,7.263385,4.268464,7.263385,4.268464,490.000153,490.0,596.975647,75.364464,1104.750366,298.177094,286.628265,0.147694,0.340312,1116.266357,-0.020272,0.145403,0.1,0.0,1.0,2673.464844
92.60482,492.397095,493.590546,7.259501,4.276289,7.259501,4.276289,490.000153,490.0,600.656555,75.368195,1103.839233,298.226807,286.83548,0.147897,0.341336,1115.365356,-0.020308,0.145309,0.1,0.0,1.0,2673.512451
92.587997,497.939514,499.132965,7.253444,4.287785,7.253444,4.287785,500.000153,500.0,606.172363,75.373543,1102.513062,298.300293,287.146667,0.148159,0.34236,1113.856445,-0.020363,0.14519,0.1,0.0,1.0,2673.585938
92.57486,501.473724,502.667145,7.249952,4.294327,7.249952,4.294327,500.000153,500.0,609.692871,75.376808,1101.688354,298.346619,287.345612,0.148278,0.342734,1112.762695,-0.020399,0.14511,0.1,0.0,1.0,2673.634033
92.561104,507.151215,508.344666,7.243998,4.302923,7.243998,4.302923,510.000153,510.0,615.350891,75.381866,1100.384644,298.420227,287.665833,0.1483,0.343014,1111.016968,-0.020449,0.144999,0.1,0.0,1.0,2673.713867
92.551559,510.833862,512.027283,7.240456,4.306699,7.240456,4.306699,510.000153,510.0,619.017395,75.385033,1099.564209,298.467499,287.873596,0.148172,0.343104,1110.142578,-0.020477,0.14492,0.1,0.0,1.0,2673.768066
92.537689,516.349426,517.542847,7.234899,4.310317,7.234899,4.310317,520.000122,520.0,624.512146,75.389641,1098.356323,298.537933,288.185181,0.147955,0.343264,1108.710083,-0.020508,0.144809,0.1,0.0,1.0,2673.851807
92.526443,519.86792,521.061401,7.231793,4.311779,7.231793,4.311779,520.000122,520.0,628.019531,75.391068,1097.616089,298.582703,288.384216,0.147836,0.343424,1107.730835,-0.020521,0.144733,0.1,0.0,1.0,2673.906738
92.515892,525.517639,526.711121,7.226575,4.313877,7.226575,4.313877,530.000122,530.0,633.657043,75.393005,1096.479126,298.654266,288.704285,0.147754,0.343747,1105.993408,-0.020532,0.144636,0.1,0.0,1.0,2673.996826
92.507057,529.183777,530.377197,7.223469,4.315201,7.223469,4.315201,530.000122,530.0,637.31073,75.394272,1095.784302,298.700348,288.911804,0.147679,0.343977,1105.208862,-0.020539,0.144567,0.1,0.0,1.0,2674.057617
92.495163,534.675171,535.868591,7.218681,4.317477,7.218681,4.317477,530.000122,530.0,642.787109,75.396194,1094.780273,298.768951,289.222961,0.147675,0.344293,1103.910889,-0.020549,0.144469,0.1,0.0,1.0,2674.150391
92.485107,538.179932,539.373413,7.216053,4.319252,7.216053,4.319252,540.000122,540.0,646.283264,75.397453,1094.177124,298.812347,289.421661,0.147715,0.344434,1103.091675,-0.020555,0.144406,0.1,0.0,1.0,2674.210938
92.473549,543.655579,544.848999,7.211783,4.322485,7.211783,4.322485,540.000122,540.0,651.751831,75.399467,1093.276489,298.879608,289.732574,0.147834,0.344486,1101.596558,-0.020568,0.144321,0.1,0.0,1.0,2674.306885
92.468704,547.457275,548.650757,7.209119,4.324673,7.209119,4.324673,550.000122,550.0,655.546875,75.400909,1092.687012,298.925751,289.948334,0.147856,0.344394,1100.772217,-0.020578,0.144263,0.1,0.0,1.0,2674.375488
92.458672,552.92865,554.122131,7.205059,4.327143,7.205059,4.327143,550.000122,550.0,661.008179,75.403076,1091.86731,298.991486,290.258911,0.147848,0.344118,1099.700928,-0.020594,0.144182,0.1,0.0,1.0,2674.476318
92.452217,556.572632,557.766113,7.202704,4.328313,7.202704,4.328313,560.000122,560.0,664.646851,75.404587,1091.343018,299.034851,290.465851,0.147823,0.343874,1098.972412,-0.020602,0.144127,0.1,0.0,1.0,2674.544434
92.442963,562.027954,563.221375,7.199058,4.329567,7.199058,4.329567,560.000122,560.0,670.101563,75.406952,1090.585083,299.099243,290.776031,0.14782,0.343445,1097.594482,-0.020611,0.144054,0.1,0.0,1.0,2674.647705
92.436401,565.666321,566.859741,7.196815,4.329998,7.196815,4.329998,570.000122,570.0,673.736023,75.408607,1090.110596,299.141754,290.982697,0.147748,0.343138,1096.97998,-0.020615,0.144006,0.1,0.0,1.0,2674.718506
92.427994,571.118958,572.312378,7.19328,4.330019,7.19328,4.330019,570.000122,570.0,679.184814,75.411217,1089.418701,299.204987,291.292542,0.14765,0.342688,1096.032471,-0.020619,0.143936,0.1,0.0,1.0,2674.826172
92.423012,574.748535,575.942017,7.191261,4.329886,7.191261,4.329886,570.000122,570.0,682.81543,75.413055,1088.978149,299.246765,291.498962,0.147627,0.342404,1095.263672,-0.020619,0.143888,0.1,0.0,1.0,2674.898682
92.411476,580.036682,581.230164,7.188229,4.329858,7.188229,4.329858,580.000122,580.0,688.107544,75.415871,1088.375122,299.307159,291.799866,0.147625,0.341975,1094.154053,-0.020619,0.143825,0.1,0.0,1.0,2675.005371
92.408661,583.812805,585.006226,7.186263,4.329908,7.186263,4.329908,580.000122,580.0,691.885925,75.417992,1087.972778,299.349854,292.014679,0.147606,0.341645,1093.505859,-0.020618,0.143784,0.1,0.0,1.0,2675.083252
92.401573,589.250549,590.44397,7.183263,4.329786,7.183263,4.329786,590.000122,590.0,697.324341,75.421219,1087.421143,299.410736,292.323944,0.147564,0.341141,1092.796997,-0.020619,0.143725,0.1,0.0,1.0,2675.19751
92.397499,592.871704,594.065125,7.181562,4.329721,7.181562,4.329721,590.000122,590.0,700.948486,75.423477,1087.070923,299.450958,292.53006,0.147565,0.340785,1092.231323,-0.020618,0.143684,0.1,0.0,1.0,2675.273926
92.387398,598.148071,599.341492,7.179,4.329766,7.179,4.329766,600.000122,600.0,706.231628,75.426949,1086.591431,299.508972,292.830566,0.147589,0.34021,1091.374023,-0.020618,0.143631,0.1,0.0,1.0,2675.386475
