airspeed_indicator_indicated_speed_kt,altimeter_indicated_altitude_ft,altimeter_pressure_alt_ft,attitude_indicator_indicated_pitch_deg,attitude_indicator_indicated_roll_deg,attitude_indicator_internal_pitch_deg,attitude_indicator_internal_roll_deg,encoder_indicated_altitude_ft,encoder_pressure_alt_ft,gps_indicated_altitude_ft,gps_indicated_ground_speed_kt,gps_indicated_vertical_speed,indicated_heading_deg,magnetic_compass_indicated_heading_deg,slip_skid_ball_indicated_slip_skid,turn_indicator_indicated_turn_rate,vertical_speed_indicator_indicated_speed_fpm,flight_aileron,flight_elevator,flight_rudder,flight_flaps,engine_throttle
6.513291,-87.936813,-86.74337,2.975032,1.373297,2.590917,0.092914,-89.999855,-90,2.28651,0,0.008039,297.868011,277.573853,0.012366,-0.051964,-14.965729,0,0,0,0,0
6.556243,-87.947258,-86.753815,2.973317,1.366493,2.591192,0.092741,-89.999855,-90,2.286537,0,0.006967,297.867157,279.861542,0.012414,-0.047013,-13.640539,0,0,0,0,0
6.61552,-87.959557,-86.766113,2.775731,0.733455,2.5834,0.092351,-89.999855,-90,2.286532,3.50E-05,-0.012226,297.865845,283.240936,0.012349,-0.040476,-8.849756,-0.019521,0.051824,4.30E-05,0,1
6.659655,-87.965988,-86.772545,2.637501,0.341531,2.562377,0.091117,-89.999855,-90,2.286459,1.41E-04,-0.033262,297.864899,285.435211,0.012246,-0.036677,-15.30001,-0.010478,0.051668,1.08E-04,0,1
6.759992,-87.973625,-86.780182,2.510297,0.086035,2.510297,0.086035,-89.999855,-90,2.28628,7.41E-04,-0.019696,297.86319,288.601501,0.012032,-0.031757,-14.932146,-0.004879,0.051248,1.56E-04,0,1
6.878445,-87.977654,-86.78421,2.492951,0.07995,2.492951,0.07995,-89.999855,-90,2.286284,0.002338,0.020969,297.861938,290.609863,0.011837,-0.028947,-8.310084,-0.001229,0.050206,2.41E-04,0,1
7.152801,-87.982414,-86.788971,2.495412,0.067568,2.495412,0.067568,-89.999855,-90,2.286547,0.008779,0.080022,297.859344,293.439636,0.014189,-0.02541,-19.178179,-0.001142,0.049859,3.04E-04,0,1
7.405938,-87.984886,-86.791443,2.507041,0.057849,2.507041,0.057849,-89.999855,-90,2.286884,0.017262,0.11804,297.856567,295.189453,0.0165,-0.023543,-18.816896,-9.65E-04,0.049908,4.33E-04,0,1
7.877779,-87.987656,-86.794212,2.529369,0.043001,2.529369,0.043001,-89.999855,-90,2.287599,0.03811,0.17562,297.849731,297.524658,0.020869,-0.021603,-6.21993,-8.26E-04,0.050141,5.72E-04,0,1
8.265028,-87.989075,-86.795631,2.545821,0.032995,2.545821,0.032995,-89.999855,-90,2.288243,0.059604,0.211695,297.842194,298.967133,0.024075,-0.020885,-15.131463,-6.14E-04,0.050587,9.14E-04,0,1
8.495128,-87.9897,-86.796257,2.554432,0.027857,2.554432,0.027857,-89.999855,-90,2.288645,0.074057,0.229381,297.836792,299.692047,0.027508,-0.020729,-17.686621,-6.14E-04,0.050587,9.14E-04,0,1
8.531692,-87.989784,-86.796341,2.555743,0.027081,2.555743,0.027081,-89.999855,-90,2.28871,0.076467,0.232396,297.835876,299.799988,0.027508,-0.020719,-18.016579,-4.71E-04,0.050916,0.001291,0,1
10.246565,-87.991989,-86.798546,2.601383,0.002254,2.601383,0.002254,-89.999855,-90,2.292235,0.222903,0.383597,297.775391,303.371338,0.029416,-0.023726,-16.66976,-3.87E-04,0.051115,0.001607,0,1
10.8093,-87.991974,-86.798531,2.611525,-0.002587,2.611525,-0.002587,-89.999855,-90,2.293599,0.284825,0.430759,297.748016,304.094147,0.028883,-0.025824,-16.602856,-3.20E-05,0.052028,0.004631,0,1
11.686131,-87.99157,-86.798126,2.621926,-0.007735,2.621926,-0.007735,-89.999855,-90,2.295942,0.394898,0.50502,297.705566,304.902893,0.028189,-0.028743,-14.872932,3.70E-05,0.05223,0.006,0,1
12.286981,-87.991051,-86.797607,2.627889,-0.010031,2.627889,-0.010031,-89.999855,-90,2.297719,0.479901,0.55771,297.675842,305.260529,0.027792,-0.030655,-12.341851,1.10E-04,0.052439,0.008122,0,1
13.205105,-87.989929,-86.796486,2.635607,-0.012116,2.635607,-0.012116,-89.999855,-90,2.300719,0.624902,0.638971,297.632019,305.531555,0.027211,-0.033004,-1.239408,1.43E-04,0.052558,0.009608,0,1
13.824984,-87.988945,-86.795502,2.640284,-0.01279,2.640284,-0.01279,-89.999855,-90,2.302948,0.733177,0.693771,297.603455,305.541077,0.026901,-0.034267,11.408574,1.73E-04,0.052712,0.0118,0,1
14.735963,-87.98719,-86.793747,2.646281,-0.012767,2.646281,-0.012767,-89.999855,-90,2.306529,0.907516,0.775936,297.565948,305.321442,0.026567,-0.035187,5.054879,1.83E-04,0.052806,0.013228,0,1
15.364215,-87.985756,-86.792313,2.650231,-0.012231,2.650231,-0.012231,-89.999855,-90,2.309216,1.03817,0.832612,297.543091,305.019318,0.026377,-0.035288,14.760533,1.82E-04,0.052926,0.015103,0,1
16.33687,-87.983192,-86.789749,2.656045,-0.010993,2.656045,-0.010993,-89.999855,-90,2.313732,1.256961,0.920606,297.514313,304.330414,0.026326,-0.034384,14.860836,1.75E-04,0.053005,0.016246,0,1
16.969656,-87.981293,-86.787849,2.659881,-0.009987,2.659881,-0.009987,-89.999855,-90,2.316906,1.409935,0.978822,297.499268,303.750458,0.026468,-0.033302,11.463566,1.57E-04,0.053121,0.017685,0,1
17.894257,-87.978188,-86.784744,2.665336,-0.008353,2.665336,-0.008353,-89.999855,-90,2.321878,1.648268,1.063031,297.483032,302.737152,0.026799,-0.031008,14.315033,1.43E-04,0.053198,0.018437,0,1
18.529032,-87.975838,-86.782394,2.669183,-0.007059,2.669183,-0.007059,-89.999855,-90,2.325526,1.821935,1.121046,297.474854,301.940186,0.027117,-0.029162,13.403493,1.19E-04,0.053307,0.019249,0,1
19.48175,-87.971962,-86.778519,2.674898,-0.004904,2.674898,-0.004904,-89.999855,-90,2.33136,2.097673,1.20817,297.465881,300.61203,0.027672,-0.026207,18.919655,1.01E-04,0.053384,0.019658,0,1
20.090527,-87.969261,-86.775818,2.67866,-0.003327,2.67866,-0.003327,-89.999855,-90,2.335315,2.2832,1.263606,297.46109,299.693176,0.027984,-0.024405,6.041866,7.00E-05,0.053498,0.020107,0,1
21.069628,-87.964569,-86.771126,2.684612,-5.13E-04,2.684612,-5.13E-04,-89.999855,-90,2.342051,2.59657,1.353409,297.453217,298.124939,0.028245,-0.021874,17.908047,4.80E-05,0.053573,0.020346,0,1
21.704391,-87.961288,-86.767838,2.688598,0.001544,2.688598,0.001544,-89.999855,-90,2.346667,2.809439,1.411357,297.446899,297.062653,0.028202,-0.020624,8.040909,7.00E-06,0.053692,0.02074,0,1
22.682419,-87.955864,-86.762421,2.694675,0.005019,2.694675,0.005019,-89.999855,-90,2.354162,3.152005,1.501863,297.434326,295.380981,0.027681,-0.019374,10.103149,-2.20E-05,0.053772,0.021056,0,1
23.315859,-87.952103,-86.758659,2.698768,0.007473,2.698768,0.007473,-89.999855,-90,2.359271,3.383314,1.559175,297.423645,294.275574,0.027085,-0.01906,16.10358,-7.20E-05,0.053893,0.021684,0,1
24.238981,-87.946289,-86.752846,2.704692,0.011222,2.704692,0.011222,-89.999855,-90,2.367068,3.733119,1.644054,297.404785,292.664246,0.025969,-0.019153,18.584402,-1.07E-04,0.053975,0.022218,0,1
24.89732,-87.941895,-86.748451,2.709098,0.014041,2.709098,0.014041,-89.999855,-90,2.37289,3.991816,1.70428,297.388885,291.526642,0.02473,-0.019593,15.546816,-1.60E-04,0.054094,0.023161,0,1
25.844065,-87.935211,-86.741768,2.715435,0.018101,2.715435,0.018101,-89.999855,-90,2.381644,4.376904,1.792207,297.363892,289.928192,0.022959,-0.020464,10.175111,-2.01E-04,0.054182,0.023956,0,1
26.474062,-87.930519,-86.737076,2.720353,0.020806,2.720353,0.020806,-89.999855,-90,2.387754,4.641652,1.887269,297.346222,288.899414,0.021842,-0.021122,6.879301,-2.59E-04,0.054309,0.025206,0,1
27.417067,-87.92305,-86.729599,2.732295,0.030752,2.732295,0.030752,-89.999855,-90,2.397951,5.050446,2.155405,297.320282,287.42807,0.020295,-0.021765,19.019302,-2.97E-04,0.054407,0.026089,0,1
28.305422,-87.915405,-86.721954,2.73911,0.035077,2.73911,0.035077,-89.999855,-90,2.408342,5.449006,2.240083,297.296295,286.133484,0.018484,-0.022319,18.915691,-4.39E-04,0.054646,0.027386,0,1
28.95896,-87.909401,-86.715958,2.743366,0.037695,2.743366,0.037695,-89.999855,-90,2.416242,5.749564,2.305333,297.280334,285.249176,0.01761,-0.022412,11.325198,-4.85E-04,0.054748,0.028244,0,1
29.611731,-87.903061,-86.709618,2.748001,0.040281,2.748001,0.040281,-89.999855,-90,2.424374,6.056309,2.372594,297.280334,284.427765,0.0168,-0.022347,17.17024,-5.39E-04,0.054867,0.029384,0,1
30.550156,-87.893402,-86.699951,2.754919,0.044006,2.754919,0.044006,-89.999855,-90,2.436492,6.508595,2.47067,297.280334,283.36377,0.016072,-0.021995,14.29241,-5.75E-04,0.05496,0.029747,0,1
31.174252,-87.88662,-86.693176,2.759732,0.046732,2.759732,0.046732,-89.999855,-90,2.444839,6.816862,2.53304,297.280334,282.736694,0.015486,-0.021892,7.961175,-6.29E-04,0.055098,0.029748,0,1
32.10936,-87.875977,-86.682533,2.766815,0.051282,2.766815,0.051282,-89.999855,-90,2.457761,7.289064,2.631083,297.280334,281.924835,0.014013,-0.022553,8.900373,-6.68E-04,0.055195,0.029745,0,1
32.705463,-87.868889,-86.675438,2.771437,0.054589,2.771437,0.054589,-89.999855,-90,2.466269,7.596739,2.691275,297.280334,281.488831,0.012664,-0.023725,18.154444,-7.33E-04,0.055336,0.029738,0,1
33.662903,-87.857018,-86.663574,2.778632,0.060646,2.778632,0.060646,-89.999855,-90,2.480367,8.101186,2.789486,297.280334,280.924133,0.008371,-0.027134,14.139515,-7.80E-04,0.055429,0.02973,0,1
34.283176,-87.84903,-86.655586,2.783701,0.065057,2.783701,0.065057,-89.999855,-90,2.489812,8.434477,2.903171,297.280334,280.647644,0.004624,-0.03045,14.659523,-8.66E-04,0.055573,0.029715,0,1
35.184772,-87.836861,-86.64341,2.79717,0.072085,2.79717,0.072085,-89.999855,-90,2.505154,8.928823,3.289347,297.280334,280.368713,-0.001951,-0.036936,9.492606,-9.29E-04,0.055674,0.029703,0,1
35.827812,-87.827652,-86.634209,2.80215,0.07752,2.80215,0.07752,-89.999855,-90,2.516701,9.287774,3.35577,297.280334,280.257141,-0.00917,-0.042769,16.657858,-0.00103,0.055943,0.029683,0,1
36.752674,-87.813728,-86.620285,2.80833,0.085824,2.80833,0.085824,-89.999855,-90,2.533749,9.812945,3.460144,297.280334,280.218842,-0.020454,-0.052853,19.032219,-0.001107,0.056043,0.029669,0,1
37.34201,-87.804428,-86.610985,2.812602,0.091374,2.812602,0.091374,-89.999855,-90,2.544917,10.153439,3.526701,297.280334,280.265991,-0.027675,-0.060284,14.374506,-0.001226,0.056167,0.029646,0,1
38.264221,-87.789314,-86.595871,2.819438,0.100313,2.819438,0.100313,-89.999855,-90,2.56284,10.693903,3.640319,297.280334,280.44342,-0.042281,-0.073343,11.720222,-0.001305,0.056252,0.029633,0,1
39.183426,-87.773529,-86.580086,2.826534,0.109472,2.826534,0.109472,-89.999855,-90,2.581306,11.243233,3.744492,297.280334,280.735504,-0.058793,-0.087955,12.449388,-0.001433,0.056389,0.029608,0,1
39.821125,-87.762207,-86.568764,2.831438,0.115891,2.831438,0.115891,-89.999855,-90,2.594447,11.629748,3.801804,297.280334,280.998016,-0.072803,-0.098889,15.168463,-0.001564,0.056531,0.029585,0,1
40.406723,-87.751526,-86.558083,2.843659,0.123371,2.843659,0.123371,-89.999855,-90,2.606816,11.988878,3.830477,297.280334,281.277466,-0.083258,-0.109437,15.333977,-0.001656,0.056629,0.02957,0,1
41.346497,-87.733627,-86.540176,2.854396,0.135724,2.854396,0.135724,-89.999855,-90,2.629057,12.573484,4.42741,297.280334,281.79184,-0.105884,-0.12726,12.851753,-0.001762,0.056873,0.029555,0,1
42.233971,-87.715675,-86.522232,2.858022,0.144474,2.858022,0.144474,-89.999855,-90,2.650872,13.134019,4.544546,297.280334,282.337158,-0.124907,-0.144791,12.926407,-0.001939,0.057088,0.029532,0,1
42.841022,-87.702843,-86.509392,2.861614,0.150239,2.861614,0.150239,-89.999855,-90,2.666164,13.522465,4.625707,297.280334,282.735657,-0.139527,-0.157009,10.633497,-0.002064,0.05716,0.029512,0,1
43.447311,-87.689621,-86.49617,2.865896,0.155854,2.865896,0.155854,-89.999855,-90,2.681736,13.914124,4.709949,297.280334,283.148102,-0.154322,-0.169297,20.616083,-0.002146,0.057232,0.0295,0,1
44.380772,-87.668549,-86.475105,2.873111,0.16421,2.873111,0.16421,-89.999855,-90,2.706294,14.524029,4.842259,297.280334,283.799347,-0.179142,-0.188198,19.141296,-0.002226,0.057318,0.029488,0,1
45.2617,-87.647758,-86.454315,2.886922,0.17231,2.886922,0.17231,-89.999855,-90,2.731513,15.107539,5.450212,297.280334,284.417816,-0.198973,-0.205813,17.420963,-0.002346,0.057462,0.029469,0,1
45.840309,-87.633446,-86.440002,2.892437,0.177337,2.892437,0.177337,-89.999855,-90,2.749117,15.494356,5.554184,297.280334,284.818024,-0.213662,-0.21715,10.280193,-0.002418,0.057652,0.02946,0,1
46.469284,-87.61731,-86.423866,2.897279,0.181758,2.897279,0.181758,-89.999855,-90,2.768574,15.917761,5.644758,297.280334,285.241852,-0.228136,-0.229174,14.246337,-0.002533,0.057849,0.029446,0,1
47.400364,-87.592438,-86.398994,2.904249,0.187573,2.904249,0.187573,-89.999855,-90,2.797964,16.549904,5.785709,297.280334,285.837463,-0.251486,-0.246212,17.935343,-0.002597,0.057946,0.029439,0,1
48.004414,-87.575737,-86.382294,2.909156,0.190885,2.909156,0.190885,-89.999855,-90,2.817421,16.963367,5.879867,297.280334,286.19751,-0.264903,-0.256687,18.478703,-0.00268,0.058085,0.029428,0,1
48.910656,-87.549904,-86.356461,2.916459,0.19509,2.916459,0.19509,-89.999855,-90,2.847197,17.58848,6.022024,297.280334,286.689514,-0.283986,-0.271408,21.219309,-0.002727,0.058183,0.029423,0,1
49.514542,-87.532158,-86.338715,2.927455,0.203557,2.927455,0.203557,-89.999855,-90,2.868252,18.008419,6.623814,297.280334,286.980682,-0.295814,-0.280308,16.443901,-0.002787,0.058329,0.029417,0,1
50.419075,-87.504166,-86.310722,2.940089,0.209868,2.940089,0.209868,-89.999855,-90,2.90349,18.642979,7.115938,297.280334,287.35498,-0.312802,-0.29276,19.906734,-0.002908,0.058549,0.029414,0,1
51.022388,-87.484543,-86.2911,2.9447,0.211158,2.9447,0.211158,-89.999855,-90,2.927391,19.069044,7.216728,297.280334,287.559326,-0.323039,-0.30023,11.829923,-0.002998,0.058802,0.029411,0,1
51.927586,-87.453865,-86.260422,2.951183,0.212239,2.951183,0.212239,-89.999855,-90,2.96389,19.712563,7.375064,297.280334,287.793274,-0.336777,-0.310052,19.380121,-0.003017,0.058894,0.029411,0,1
52.531109,-87.432671,-86.239227,2.956006,0.212434,2.956006,0.212434,-89.999855,-90,2.988675,20.144455,7.485032,297.280334,287.898804,-0.344779,-0.315649,19.905355,-0.003032,0.059024,0.029413,0,1
53.436451,-87.399864,-86.206421,2.963252,0.21192,2.963252,0.21192,-89.999855,-90,3.026544,20.796499,7.651942,297.280334,287.979034,-0.354938,-0.322586,20.636591,-0.003035,0.05912,0.029414,0,1
54.341778,-87.365944,-86.172501,2.97068,0.210486,2.97068,0.210486,-89.999855,-90,3.065248,21.453459,7.818887,297.280334,287.964325,-0.362814,-0.327758,21.308317,-0.003027,0.059265,0.029419,0,1
54.945301,-87.342743,-86.1493,2.97548,0.20904,2.97548,0.20904,-89.999855,-90,3.091515,21.894091,7.930328,297.280334,287.901794,-0.366772,-0.330229,21.730902,-0.003015,0.059365,0.029423,0,1
55.850498,-87.307121,-86.113678,2.98281,0.206177,2.98281,0.206177,-89.999855,-90,3.131614,22.558926,8.097674,297.280334,287.730164,-0.370773,-0.332496,14.697679,-0.002986,0.05951,0.029431,0,1
56.428764,-87.283882,-86.090439,2.987395,0.203948,2.987395,0.203948,-89.999855,-90,3.157669,22.986065,8.203991,297.279083,287.572845,-0.372006,-0.333061,18.192024,-0.00296,0.059609,0.029436,0,1
57.359364,-87.245712,-86.052269,2.99503,0.199735,2.99503,0.199735,-89.999855,-90,3.200299,23.677002,8.378003,297.195618,287.245117,-0.37237,-0.332575,14.981944,-0.002914,0.059748,0.029446,0,1
57.961811,-87.220406,-86.026962,2.999958,0.196193,2.999958,0.196193,-89.999855,-90,3.228426,24.127623,8.488607,297.003784,286.985779,-0.370945,-0.331174,15.445209,-0.002853,0.059901,0.03362,0,1
58.840939,-87.182892,-85.989449,3.006017,0.18953,3.006017,0.18953,-89.999855,-90,3.269731,24.788136,8.554494,296.755524,286.546417,-0.365207,-0.324126,12.797574,-0.002803,0.059999,0.043211,0,1
59.467987,-87.15564,-85.962196,3.011553,0.182668,3.011553,0.182668,-89.999855,-90,3.299667,25.262308,8.675817,296.621277,286.191803,-0.354573,-0.312736,13.082506,-0.002708,0.06012,0.055624,0,1
60.368092,-87.1157,-85.922256,3.023796,0.167948,3.023796,0.167948,-89.999855,-90,3.344365,25.948484,9.279684,296.529419,285.628906,-0.328604,-0.282221,18.317421,-0.00261,0.060231,0.062337,0,1
60.96521,-87.088402,-85.894958,3.033925,0.159445,3.033925,0.159445,-89.999855,-90,3.375734,26.408064,10.093973,296.539429,285.224548,-0.30185,-0.253087,14.082359,-0.002399,0.060476,0.06693,0,1
61.854378,-87.045837,-85.852394,3.0491,0.146807,3.0491,0.146807,-89.999855,-90,3.427418,27.10046,10.419187,296.647614,284.584595,-0.247822,-0.200164,16.389942,-0.002278,0.060679,0.066429,0,1
62.443573,-87.016289,-85.822845,3.055206,0.140387,3.055206,0.140387,-89.999855,-90,3.462335,27.563982,10.520914,296.761902,284.142181,-0.204938,-0.162665,13.872478,-0.002097,0.060982,0.06102,0,1
63.322342,-86.970451,-85.777008,3.066895,0.138403,3.066895,0.138403,-89.999855,-90,3.516034,28.261978,11.31926,296.942657,283.466766,-0.136997,-0.111935,19.310692,-0.002006,0.061104,0.055305,0,1
63.905338,-86.938751,-85.745308,3.074053,0.13745,3.074053,0.13745,-89.999855,-90,3.55386,28.729015,11.39409,297.041962,283.015289,-0.094107,-0.08576,19.925758,-0.001977,0.061338,0.046268,0,1
64.779602,-86.889488,-85.696045,3.079135,0.13748,3.079135,0.13748,-89.999855,-90,3.611229,29.431984,11.544152,297.112274,282.346649,-0.040413,-0.063744,20.725317,-0.001964,0.061481,0.041302,0,1
65.363724,-86.855659,-85.662209,3.081767,0.14034,3.081767,0.14034,-89.999855,-90,3.649912,29.902182,11.654019,297.088165,281.911835,-0.015737,-0.062436,21.186054,-0.001964,0.061583,0,0,1
66.246895,-86.803627,-85.610184,3.083121,0.14465,3.083121,0.14465,-89.999855,-90,3.708614,30.609766,11.8146,296.828156,281.282745,-0.002898,-0.096332,21.797379,-0.002005,0.061635,0.001205,0,1
66.840485,-86.768166,-85.574722,3.082619,0.13904,3.082619,0.13904,-89.999855,-90,3.748204,31.083025,11.927682,296.524841,280.880859,-0.011315,-0.13635,22.162609,-0.002066,0.061662,0.014206,0,1
67.735733,-86.713928,-85.520477,3.087033,0.120011,3.087033,0.120011,-89.999855,-90,3.809064,31.795286,13.292178,295.99115,280.305084,-0.044642,-0.20058,22.695246,-0.001986,0.061652,0.029372,0,1
68.333611,-86.676651,-85.483208,3.093333,0.103995,3.093333,0.103995,-89.999855,-90,3.853738,32.271744,13.468368,295.64859,279.938965,-0.071921,-0.235547,23.413326,-0.001714,0.061741,0.056056,0,1
69.228775,-86.61853,-85.425087,3.087204,0.051456,3.087204,0.051456,-89.999855,-90,3.923545,32.988834,14.702563,295.290894,279.415985,-0.110958,-0.256917,23.483553,-0.001486,0.061867,0.073184,0,1
69.825172,-86.577957,-85.384514,3.05144,-0.045415,3.05144,-0.045415,-89.999855,-90,3.974344,33.468388,15.859182,295.203003,279.085632,-0.129583,-0.246882,19.563309,-7.35E-04,0.061744,0.091069,0,1
70.723534,-86.513435,-85.319992,2.970733,-0.237239,2.970733,-0.237239,-89.999855,-90,4.05657,34.189884,16.496479,295.340363,278.62262,-0.136569,-0.192399,19.205235,6.49E-04,0.061029,0.095464,0,1
71.319107,-86.468147,-85.274704,2.924453,-0.349017,2.924453,-0.349017,-89.999855,-90,4.111037,34.672337,16.095297,295.588165,278.340576,-0.124222,-0.135857,19.456553,0.003389,0.059415,0.088596,0,1
72.193031,-86.398064,-85.20462,2.907968,-0.425184,2.907968,-0.425184,-89.999855,-90,4.189833,35.398506,15.541204,296.07373,277.967194,-0.083755,-0.04252,20.10354,0.004986,0.058489,0.076205,0,1
72.763306,-86.350502,-85.157059,2.914469,-0.435387,2.914469,-0.435387,-89.999855,-90,4.241752,35.885548,15.590277,296.390289,277.756531,-0.048195,0.011128,20.37188,0.006074,0.058159,0.051927,0,1
73.611946,-86.277847,-85.084404,2.889534,-0.407978,2.889534,-0.407978,-89.999855,-90,4.324905,36.617386,17.901907,296.693695,277.5047,0.006716,0.054956,21.033478,0.00622,0.058289,0.036099,0,1
74.182175,-86.227585,-85.034142,2.806728,-0.354912,2.806728,-0.354912,-89.999855,-90,4.386164,37.105984,18.50956,296.72998,277.382019,0.03728,0.055027,17.443361,0.005828,0.057791,0.020929,0,1
75.049919,-86.149269,-84.955826,2.684711,-0.299243,2.684711,-0.299243,-79.999855,-80,4.475787,37.839916,17.281929,296.509583,277.267212,0.066755,0.011598,21.549707,0.00507,0.056135,0.019115,0,1
75.635353,-86.096092,-84.902649,2.642747,-0.344838,2.642747,-0.344838,-79.999855,-80,4.533153,38.329979,17.366405,296.215973,277.235229,0.07246,-0.03836,21.762213,0.004275,0.053694,0.030135,0,1
76.515526,-86.014542,-84.821098,2.655891,-0.615496,2.655891,-0.615496,-79.999855,-80,4.632568,39.066383,23.851948,295.70105,277.247345,0.062805,-0.119267,25.396629,0.004926,0.052855,0.044815,0,1
77.096931,-85.955513,-84.76207,2.712157,-0.921357,2.712157,-0.921357,-79.999855,-80,4.728385,39.558212,33.985981,295.395325,277.290039,0.048882,-0.162826,19.408428,0.008793,0.053118,0.070561,0,1
77.950432,-85.847244,-84.653793,2.843377,-1.461715,2.843377,-1.461715,-79.999855,-80,4.954082,40.297096,57.034927,295.141388,277.396393,0.026205,-0.189043,25.581692,0.013162,0.054243,0.085847,0,1
78.499725,-85.751747,-84.558304,2.961951,-1.78944,2.961951,-1.78944,-79.999855,-80,5.177266,40.790176,76.603531,295.138794,277.490601,0.016783,-0.17726,32.482979,0.020882,0.056868,0.098544,0,1
79.281738,-85.554092,-84.360649,3.160682,-2.05782,3.160682,-2.05782,-79.999855,-80,5.644748,41.529823,110.005905,295.355865,277.660278,0.016393,-0.122429,46.979073,0.025563,0.059239,0.098674,0,1
79.768074,-85.374893,-84.181442,3.313384,-2.044573,3.313384,-2.044573,-79.999855,-80,6.052638,42.022423,134.051926,295.582794,277.789307,0.026544,-0.073647,59.159153,0.029397,0.063214,0.08782,0,1
80.445396,-85.017601,-83.82415,3.518341,-1.728527,3.518341,-1.728527,-79.999855,-80,6.818113,42.759506,170.888153,295.885651,278.001526,0.0527,-0.009676,80.712173,0.029208,0.066268,0.076474,0,1
80.868767,-84.712112,-83.518661,3.641486,-1.384576,3.641486,-1.384576,-79.999855,-80,7.428501,43.249081,194.283051,295.987976,278.151978,0.071811,0.01457,96.764938,0.024693,0.070367,0.061331,0,1
81.479958,-84.143517,-82.950066,3.767623,-0.846181,3.767623,-0.846181,-79.999855,-80,8.484232,43.979855,226.53183,295.916962,278.383423,0.094339,0.011557,122.400398,0.01978,0.07283,0.056215,0,1
81.877426,-83.688118,-82.494667,3.839126,-0.559164,3.839126,-0.559164,-79.999855,-80,9.273344,44.464302,245.945679,295.733398,278.536346,0.10011,-0.013021,140.00412,0.012088,0.075352,0.059766,0,1
82.460075,-82.889755,-81.696312,3.938324,-0.372232,3.938324,-0.372232,-79.999855,-80,10.572249,45.186508,272.403778,295.363861,278.753815,0.09394,-0.064678,166.465881,0.007988,0.076783,0.068944,0,1
82.838615,-82.281815,-81.088371,4.013638,-0.402257,4.013638,-0.402257,-79.999855,-80,11.509062,45.664856,288.987335,295.134216,278.885193,0.08246,-0.09508,183.864944,0.005318,0.078766,0.087421,0,1
83.387207,-81.259377,-80.065926,4.126448,-0.608184,4.126448,-0.608184,-79.999855,-80,13.016353,46.377403,313.036591,294.95636,279.053589,0.062384,-0.111725,209.412033,0.005747,0.080273,0.098903,0,1
83.736183,-80.50592,-79.312477,4.211547,-0.762315,4.211547,-0.762315,-79.999855,-80,14.087295,46.848873,329.270142,294.982269,279.143616,0.053783,-0.098934,226.047272,0.008688,0.082529,0.107796,0,1
84.227867,-79.269661,-78.076218,4.347718,-0.862792,4.347718,-0.862792,-79.999855,-80,15.8058,47.550148,358.088776,295.21344,279.243103,0.053563,-0.049375,250.69899,0.01089,0.084231,0.1065,0,1
84.528412,-78.37336,-77.179916,4.463378,-0.795512,4.463378,-0.795512,-79.999855,-80,17.036922,48.013294,380.184784,295.436462,279.285736,0.063089,-0.007077,267.337769,0.012326,0.086954,0.094942,0,1
84.940025,-76.91507,-75.721626,4.636344,-0.486667,4.636344,-0.486667,-79.999855,-80,19.025354,48.700653,413.262024,295.723572,279.314941,0.087178,0.044836,293.210632,0.011364,0.089268,0.083791,0,1
85.197075,-75.864449,-74.671005,4.734537,-0.19694,4.734537,-0.19694,-79.999855,-80,20.436081,49.153622,432.03656,295.819366,279.31134,0.104068,0.061605,310.994019,0.006952,0.092727,0.069435,0,1
85.577202,-74.171997,-72.978554,4.802016,0.206548,4.802016,0.206548,-69.999855,-70,22.65711,49.824818,454.945007,295.763367,279.271027,0.122227,0.051535,337.697998,0.002813,0.094691,0.064645,0,1
85.832352,-72.969315,-71.775871,4.829333,0.384685,4.829333,0.384685,-69.999855,-70,24.196072,50.266743,467.664978,295.615631,279.220428,0.124864,0.026537,355.048676,-0.002951,0.09604,0.067445,0,1
86.215691,-71.061691,-69.868248,4.882271,0.421206,4.882271,0.421206,-69.999855,-70,26.578756,50.921459,484.730042,295.339874,279.107819,0.115029,-0.019153,379.849915,-0.005495,0.096587,0.074832,0,1
86.468628,-69.725647,-68.532204,4.933586,0.313987,4.933586,0.313987,-69.999855,-70,28.214201,51.35257,496.188995,295.191498,279.007507,0.102647,-0.042672,395.445831,-0.006017,0.097645,0.08862,0,1
86.837204,-67.636101,-66.442657,5.015999,0.051881,5.015999,0.051881,-69.999855,-70,30.742159,51.991177,514.741089,295.131744,278.819,0.083864,-0.049762,417.261261,-0.004486,0.098672,0.096039,0,1
87.072052,-66.181129,-64.987686,5.081366,-0.109165,5.081366,-0.109165,-69.999855,-70,32.480911,52.411469,528.160217,295.215149,278.669189,0.077272,-0.03421,431.614471,-7.41E-04,0.10032,0.099027,0,1
87.400764,-63.913406,-62.719959,5.182547,-0.196626,5.182547,-0.196626,-59.999859,-60,35.17643,53.033451,549.613831,295.470306,278.412506,0.079942,0.009558,452.378479,0.00156,0.101627,0.094856,0,1
87.603256,-62.344589,-61.151146,5.256825,-0.131595,5.256825,-0.131595,-59.999859,-60,37.034298,53.442272,564.685486,295.665894,278.223419,0.089684,0.041384,465.985168,0.002809,0.103651,0.082098,0,1
87.889587,-59.904583,-58.71114,5.351326,0.119348,5.351326,0.119348,-59.999859,-60,39.918018,54.04641,588.102478,295.866547,277.918701,0.109933,0.071344,486.371216,0.00188,0.105136,0.072319,0,1
88.074768,-58.219059,-57.025616,5.410644,0.322995,5.410644,0.322995,-59.999859,-60,41.904831,54.442989,603.346008,295.896606,277.704407,0.121196,0.073108,500.057648,-0.001705,0.107027,0.062286,0,1
88.352409,-55.601696,-54.408253,5.481169,0.541689,5.481169,0.541689,-59.999859,-60,44.977692,55.028587,624.818176,295.776886,277.369507,0.128401,0.047802,520.732971,-0.004614,0.108213,0.060783,0,1
88.538544,-53.797775,-52.604332,5.528375,0.582861,5.528375,0.582861,-49.999859,-50,47.083637,55.412899,638.162537,295.627289,277.138275,0.124291,0.020089,534.529297,-0.007738,0.109623,0.066769,0,1
88.816711,-51.005215,-49.811771,5.596359,0.455504,5.596359,0.455504,-49.999859,-50,50.324089,55.980465,657.298096,295.41748,276.780487,0.108076,-0.017482,555.059265,-0.008327,0.110568,0.074249,0,1
88.998611,-49.087055,-47.893612,5.649253,0.287598,5.649253,0.287598,-49.999859,-50,52.536774,56.353024,669.874084,295.345276,276.5354,0.095278,-0.030234,568.555542,-0.006507,0.111927,0.08474,0,1
89.259827,-46.12714,-44.933697,5.73142,0.032176,5.73142,0.032176,-49.999859,-50,55.935684,56.903156,689.217285,295.397736,276.160461,0.080834,-0.021678,588.469055,-0.004109,0.112985,0.08835,0,1
89.421837,-44.099422,-42.905979,5.796503,-0.077029,5.796503,-0.077029,-39.999859,-40,58.256153,57.264046,702.672729,295.527161,275.907959,0.078712,-6.50E-04,601.554321,-4.60E-04,0.114628,0.085727,0,1
89.643715,-40.976299,-39.782852,5.891099,-0.066331,5.891099,-0.066331,-39.999859,-40,61.82357,57.796333,723.774353,295.773346,275.530731,0.086977,0.038361,621.017517,0.0011,0.11593,0.079256,0,1
89.779358,-38.839417,-37.645969,5.956124,0.04249,5.956124,0.04249,-39.999859,-40,64.260918,58.145016,738.145752,295.912354,275.283447,0.09738,0.059007,633.96521,9.48E-04,0.117822,0.066946,0,1
89.973892,-35.550945,-34.357498,6.033307,0.278063,6.033307,0.278063,-39.999859,-40,68.006615,58.6586,759.256165,295.989136,274.923462,0.113124,0.066635,653.442993,-6.07E-04,0.119122,0.059996,0,1
90.102478,-33.303009,-32.109562,6.080515,0.416911,6.080515,0.416911,-29.999857,-30,70.560318,58.994705,772.359192,295.94104,274.692505,0.118388,0.055077,666.466248,-0.003972,0.120666,0.056157,0,1
90.297737,-29.848763,-28.655317,6.137896,0.488742,6.137896,0.488742,-29.999857,-30,74.46933,59.489613,790.326965,295.766663,274.360962,0.115385,0.021259,685.945007,-0.005956,0.12161,0.058562,0,1
90.429077,-27.492468,-26.299023,6.177661,0.433104,6.177661,0.433104,-29.999857,-30,77.122772,59.813541,801.24231,295.635132,274.149933,0.106533,-0.00276,698.790161,-0.006982,0.122758,0.067281,0,1
90.624359,-23.881176,-22.687731,6.234797,0.228668,6.234797,0.228668,-19.999857,-20,81.169426,60.290676,816.829956,295.521698,273.848236,0.088832,-0.023267,717.670959,-0.006187,0.123553,0.073857,0,1
90.750114,-21.4244,-20.230957,6.279576,0.069238,6.279576,0.069238,-19.999857,-20,83.909889,60.603008,827.093872,295.533936,273.657288,0.079359,-0.021768,729.934875,-0.003267,0.124696,0.079529,0,1
90.925873,-17.66818,-16.474735,6.348993,-0.086709,6.348993,-0.086709,-19.999857,-20,88.085876,61.062847,842.910645,295.679749,273.387726,0.073924,0.001829,747.821228,-9.89E-04,0.125592,0.078917,0,1
91.031898,-15.117731,-13.924287,6.401947,-0.101961,6.401947,-0.101961,-19.999857,-20,90.914383,61.36356,853.861938,295.824158,273.220917,0.077696,0.024663,759.438721,0.001239,0.12698,0.071626,0,1
91.176521,-11.223496,-10.030052,6.471677,0.020873,6.471677,0.020873,-9.999858,-10,95.226936,61.805687,870.619385,296.007629,272.992981,0.090886,0.052047,776.509583,0.001457,0.128039,0.064406,0,1
91.267387,-8.581865,-7.388421,6.515326,0.156702,6.515326,0.156702,-9.999858,-10,98.147903,62.094418,881.516235,296.064056,272.857239,0.100186,0.058588,787.711792,-2.98E-04,0.129434,0.055232,0,1
91.403389,-4.551949,-3.358504,6.563308,0.334933,6.563308,0.334933,1.42E-04,0,102.595428,62.518532,896.701294,296.015137,272.678772,0.108605,0.045621,804.288879,-0.002239,0.130307,0.052411,0,1
91.496353,-1.821318,-0.627874,6.592589,0.38902,6.592589,0.38902,1.42E-04,0,105.600197,62.79541,905.701355,295.914001,272.57608,0.107326,0.026064,815.166626,-0.004785,0.131266,0.054857,0,1
91.634277,2.511472,3.704916,6.630251,0.324086,6.630251,0.324086,1.42E-04,0,110.160675,63.202221,917.866455,295.745148,272.444275,0.096221,-0.004974,831.116943,-0.005557,0.131852,0.059914,0,1
91.699417,5.462644,6.656088,6.658415,0.206099,6.658415,0.206099,10.000142,10,113.232971,63.46793,925.163208,295.670837,272.369812,0.085656,-0.018381,841.437439,-0.00463,0.132605,0.068356,0,1
91.794029,9.948492,11.141936,6.701407,-5.21E-04,6.701407,-5.21E-04,10.000142,10,117.885773,63.858456,935.583618,295.68103,272.276367,0.071711,-0.017308,856.34845,-0.002944,0.133168,0.072072,0,1
91.851814,12.976295,14.16974,6.735481,-0.10465,6.735481,-0.10465,10.000142,10,121.016335,64.113487,942.526794,295.768005,272.22583,0.067997,-0.003415,865.881042,7.00E-06,0.134028,0.071562,0,1
91.926933,17.570969,18.764414,6.785155,-0.130747,6.785155,-0.130747,20.000143,20,125.756378,64.488022,953.193298,295.957733,272.168182,0.072166,0.026525,879.584473,0.001495,0.13471,0.067213,0,1
91.969872,20.668213,21.861656,6.819125,-0.065227,6.819125,-0.065227,20.000143,20,128.946075,64.732323,960.371765,296.075684,272.142395,0.079842,0.044131,888.360168,0.001868,0.135703,0.057727,0,1
92.029823,25.363731,26.557177,6.85645,0.105114,6.85645,0.105114,30.000143,30,133.774994,65.090645,970.696533,296.156311,272.123108,0.09282,0.053334,901.057739,9.32E-04,0.136383,0.051829,0,1
92.070915,28.526232,29.719675,6.876239,0.213174,6.876239,0.213174,30.000143,30,137.021378,65.324173,976.809082,296.130981,272.122803,0.09778,0.046108,909.237549,-0.001502,0.137129,0.047798,0,1
92.138382,33.315807,34.509251,6.895291,0.275313,6.895291,0.275313,30.000143,30,141.926224,65.666695,984.590271,296.002991,272.139038,0.096452,0.020596,921.063232,-0.003045,0.137525,0.049065,0,1
92.187401,36.53653,37.729973,6.906953,0.235036,6.906953,0.235036,40.000141,40,145.215759,65.890038,988.883484,295.851471,272.15918,0.089603,0.001258,928.557983,-0.003933,0.137906,0.055464,0,1
92.264641,41.408562,42.602005,6.924773,0.072864,6.924773,0.072864,40.000141,40,150.175262,66.21788,994.658752,295.851471,272.199982,0.074993,-0.016555,939.341187,-0.003358,0.138139,0.060677,0,1
92.315727,44.680553,45.874001,6.941033,-0.058106,6.941033,-0.058106,40.000141,40,153.497314,66.431786,998.450195,295.851471,272.232635,0.06708,-0.016725,946.110962,-0.001041,0.138495,0.062956,0,1
92.386635,49.621601,50.815044,6.970133,-0.193723,6.970133,-0.193723,50.000141,50,158.505081,66.745735,1004.577759,295.851471,272.288239,0.061892,-0.00106,955.650208,8.30E-04,0.138821,0.063046,0,1
92.427956,52.936588,54.130035,6.993789,-0.21979,6.993789,-0.21979,50.000141,50,161.861343,66.950432,1009.077026,295.851471,272.329346,0.063384,0.015145,961.640076,0.002767,0.139403,0.063145,0,1
92.480614,57.93964,59.133083,7.025862,-0.149489,7.025862,-0.149489,60.000141,60,166.925049,67.250496,1016.213684,295.851471,272.397064,0.070894,0.039179,970.17688,0.00314,0.139876,0.063171,0,1
92.510933,61.295219,62.488663,7.046398,-0.050974,7.046398,-0.050974,60.000141,60,170.320663,67.445862,1020.981567,295.851471,272.446228,0.077346,0.050736,975.633667,0.002136,0.140517,0.06315,0,1
92.553017,66.358681,67.552124,7.06882,0.115897,7.06882,0.115897,70.000145,70,175.443329,67.731934,1027.741089,295.851471,272.525604,0.086049,0.057835,983.550842,7.28E-04,0.140928,0.063109,0,1
92.58065,69.754059,70.947502,7.082075,0.215119,7.082075,0.215119,70.000145,70,178.87619,67.918053,1031.778931,295.851471,272.581726,0.089753,0.056199,988.674805,-0.001656,0.141376,0.063037,0,1
92.623352,74.875626,76.069069,7.097549,0.3014,7.097549,0.3014,70.000145,70,184.049316,68.190498,1037.162598,295.851471,272.669159,0.091478,0.047402,996.129761,-0.003073,0.141641,0.062997,0,1
92.652954,78.308105,79.501549,7.107913,0.317203,7.107913,0.317203,80.000145,80,187.51207,68.367767,1040.329712,295.851471,272.728546,0.090418,0.040252,1000.931396,-0.004306,0.141951,0.062967,0,1
92.69841,83.48217,84.675621,7.12208,0.286193,7.12208,0.286193,80.000145,80,192.725113,68.627312,1044.685059,295.851471,272.817322,0.087011,0.03171,1007.848511,-0.004531,0.142158,0.062968,0,1
92.728653,86.947388,88.140831,7.132707,0.245574,7.132707,0.245574,90.000145,90,196.212158,68.796211,1047.427734,295.851471,272.875366,0.084618,0.029038,1012.255127,-0.004088,0.142442,0.062994,0,1
92.772453,92.16732,93.360771,7.148432,0.186351,7.148432,0.186351,90.000145,90,201.459793,69.043495,1051.49231,295.851471,272.959442,0.082185,0.030108,1018.548462,-0.003508,0.142654,0.06302,0,1
92.799896,95.661232,96.854675,7.160381,0.159064,7.160381,0.159064,100.000145,100,204.969467,69.204369,1054.224609,295.851471,273.013031,0.081784,0.033399,1022.538513,-0.002662,0.142969,0.063055,0,1
92.837875,100.922012,102.115463,7.17705,0.150645,7.17705,0.150645,100.000145,100,210.251297,69.439774,1058.377563,295.851471,273.089203,0.082925,0.040018,1028.240234,-0.002272,0.143208,0.063071,0,1
92.861145,104.442047,105.63549,7.188694,0.164008,7.188694,0.164008,100.000145,100,213.783997,69.592812,1061.140747,295.851471,273.136993,0.084459,0.044124,1031.871826,-0.002152,0.143541,0.063077,0,1
92.89373,109.740761,110.934204,7.203323,0.201614,7.203323,0.201614,110.000145,110,219.100235,69.816589,1065.185913,295.851471,273.204102,0.087064,0.048158,1037.098022,-0.002343,0.143774,0.063071,0,1
92.914459,113.285355,114.478798,7.212911,0.230466,7.212911,0.230466,110.000145,110,222.655289,69.961983,1067.744629,295.851471,273.245605,0.088492,0.049069,1040.450195,-0.00288,0.144066,0.063052,0,1
92.944855,118.619781,119.813225,7.224681,0.263855,7.224681,0.263855,120.000145,120,228.003448,70.174484,1071.346436,295.851471,273.302795,0.089715,0.048075,1045.296021,-0.003292,0.144258,0.06304,0,1
92.96489,122.187325,123.380768,7.232554,0.276686,7.232554,0.276686,120.000145,120,231.578476,70.3125,1073.568115,295.851471,273.337341,0.089844,0.0465,1048.409058,-0.003769,0.144494,0.063026,0,1
92.994621,127.554703,128.748154,7.242836,0.278717,7.242836,0.278717,130.000137,130,236.954483,70.514183,1076.692261,295.851471,273.383423,0.089266,0.043963,1052.901855,-0.003953,0.144651,0.063023,0,1
93.01416,131.143158,132.336609,7.250139,0.271964,7.250139,0.271964,130.000137,130,240.54686,70.645142,1078.656494,295.851471,273.410248,0.088634,0.042784,1055.778198,-0.003982,0.144857,0.063025,0,1
93.042694,136.540314,137.733765,7.260215,0.257019,7.260215,0.257019,140.000137,140,245.94754,70.836456,1081.501953,295.851471,273.444489,0.087757,0.042312,1059.914429,-0.003885,0.145003,0.063031,0,1
93.061035,140.147614,141.341064,7.267541,0.247821,7.267541,0.247821,140.000137,140,249.55574,70.960648,1083.351074,295.851471,273.463409,0.087426,0.042848,1062.555298,-0.003672,0.145204,0.063042,0,1
93.087227,145.571701,146.765152,7.277581,0.241227,7.277581,0.241227,150.000137,150,254.979584,71.142006,1086.085571,295.851471,273.486176,0.087425,0.044514,1066.349854,-0.00354,0.145351,0.063046,0,1
93.103821,149.194992,150.388428,7.284704,0.242174,7.284704,0.242174,150.000137,150,258.602966,71.259674,1087.87439,295.851471,273.497833,0.087718,0.045815,1068.707764,-0.003446,0.145552,0.063052,0,1
93.126953,154.64418,155.837631,7.294065,0.250573,7.294065,0.250573,150.000137,150,264.049164,71.431404,1090.499146,295.851471,273.510529,0.0884,0.047476,1072.235596,-0.00346,0.145694,0.063052,0,1
93.1418,158.284775,159.478226,7.300484,0.258899,7.300484,0.258899,160.000137,160,267.687073,71.542763,1092.186157,295.851471,273.516083,0.088869,0.048173,1074.491211,-0.00358,0.145881,0.063049,0,1
93.163223,163.756943,164.950394,7.308712,0.270964,7.308712,0.270964,160.000137,160,273.154358,71.705208,1094.614868,295.851471,273.520569,0.08941,0.048499,1077.743164,-0.003699,0.14601,0.063046,0,1
93.177124,167.412323,168.605774,7.314331,0.277384,7.314331,0.277384,170.000137,170,276.805725,71.810486,1096.151245,295.851471,273.521301,0.089594,0.048346,1079.829102,-0.003871,0.146174,0.063042,0,1
93.197464,172.905838,174.099289,7.321649,0.28229,7.321649,0.28229,170.000137,170,282.292236,71.963989,1098.350342,295.851471,273.519501,0.089617,0.047844,1082.840942,-0.003963,0.146287,0.06304,0,1
93.210625,176.574875,177.768326,7.326763,0.282914,7.326763,0.282914,180.000137,180,285.955811,72.063438,1099.744995,295.851471,273.516663,0.089512,0.04753,1084.773193,-0.004033,0.146433,0.063039,0,1
93.229713,182.088013,183.281464,7.333614,0.281079,7.333614,0.281079,180.000137,180,291.459778,72.208374,1101.758667,295.851471,273.510529,0.089298,0.047317,1087.561523,-0.004042,0.146535,0.06304,0,1
93.241989,185.769562,186.963013,7.338482,0.279248,7.338482,0.279248,190.000137,190,295.134552,72.302231,1103.052246,295.851471,273.505463,0.089187,0.047406,1089.348877,-0.004015,0.146672,0.063042,0,1
93.259666,191.300674,192.49411,7.345037,0.277529,7.345037,0.277529,190.000137,190,300.654724,72.438942,1104.940308,295.851471,273.49704,0.089135,0.047846,1091.927124,-0.003989,0.14677,0.063045,0,1
93.270966,194.993698,196.187149,7.349669,0.277616,7.349669,0.277616,190.000137,190,304.339966,72.527412,1106.162109,295.851349,273.491211,0.089188,0.04826,1093.5802,-0.003965,0.146901,0.063046,0,1
93.287186,200.541336,201.734787,7.355814,0.279872,7.355814,0.279872,200.000137,200,309.875427,72.656219,1107.946533,295.864319,273.482697,0.089369,0.048896,1095.966675,-0.003966,0.146993,0.063046,0,1
93.297523,204.24498,205.438416,7.360097,0.282532,7.360097,0.282532,200.000137,200,313.570587,72.739517,1109.095825,295.89447,273.477509,0.089602,0.049214,1097.498901,-0.003998,0.147116,0.062398,0,1
93.312485,209.806931,211.000381,7.365588,0.287256,7.365588,0.287256,210.000137,210,319.120392,72.860718,1110.758789,295.93454,273.471008,0.090191,0.048781,1099.670654,-0.004036,0.147202,0.06089,0,1
93.322548,213.520569,214.71402,7.369104,0.288651,7.369104,0.288651,210.000137,210,322.824738,72.939056,1111.80603,295.954895,273.467743,0.090467,0.047451,1101.11145,-0.004104,0.147312,0.058887,0,1
93.338303,219.097885,220.291321,7.37296,0.282334,7.37296,0.282334,220.000137,220,328.387604,73.052979,1113.253418,295.971863,273.464752,0.09018,0.043353,1103.186035,-0.004124,0.147382,0.057869,0,1
93.349495,222.820435,224.013885,7.375182,0.268625,7.375182,0.268625,220.000137,220,332.099945,73.126595,1114.110962,295.976563,273.46405,0.089201,0.039722,1104.512207,-0.004033,0.147459,0.057021,0,1
93.367424,228.410355,229.60379,7.377876,0.233366,7.377876,0.233366,230.000137,230,337.673553,73.233643,1115.270752,295.980896,273.464966,0.086767,0.034227,1106.413574,-0.003838,0.147504,0.056786,0,1
93.379875,232.140747,233.334198,7.379958,0.201804,7.379958,0.201804,230.000137,230,341.392365,73.302818,1115.991089,295.986816,273.466797,0.084801,0.031346,1107.620605,-0.003334,0.147558,0.056569,0,1
93.398666,237.741577,238.935028,7.383502,0.153585,7.383502,0.153585,240.000137,240,346.975128,73.403397,1117.0802,296.005035,273.471375,0.082035,0.028997,1109.339355,-0.002883,0.147599,0.056273,0,1
93.410957,241.47876,242.672211,7.386507,0.124458,7.386507,0.124458,240.000137,240,350.700043,73.468361,1117.849365,296.023315,273.475616,0.08068,0.028641,1110.426514,-0.002194,0.14767,0.055362,0,1
93.428787,247.089279,248.282715,7.391039,0.094525,7.391039,0.094525,250.000137,250,356.29245,73.562752,1119.082764,296.053528,273.483917,0.079519,0.028849,1111.97937,-0.001778,0.14773,0.054448,0,1
93.43988,250.832733,252.026184,7.394318,0.07857,7.394318,0.07857,250.000137,250,360.0242,73.623672,1119.94519,296.082703,273.490753,0.07325,0.031173,1112.971191,-4.50E-04,0.147821,0.1,0,1
93.446388,256.451416,257.644867,7.40563,0.082734,7.40563,0.082734,260.000153,260,365.627563,73.712013,1121.451904,296.303925,273.503571,0.067905,0.063577,1114.347778,-3.74E-04,0.147886,0.1,0,1
93.442413,260.200195,261.393616,7.421177,0.170998,7.421177,0.170998,260.000153,260,369.368408,73.768776,1123.122681,296.539063,273.515137,0.074692,0.097793,1115.23645,-3.94E-04,0.148113,0.1,0,1
93.411079,265.830444,267.023865,7.444808,0.467637,7.444808,0.467637,270.000153,270,374.993103,73.850471,1126.823608,296.913177,273.540314,0.096174,0.149218,1116.683594,-8.14E-04,0.148424,0.1,0,1
93.384468,269.590057,270.783508,7.456209,0.756507,7.456209,0.756507,270.000153,270,378.754059,73.902473,1129.647339,297.123352,273.564148,0.113725,0.174861,1117.779419,-0.002227,0.148896,0.1,0,1
93.34259,275.239227,276.432678,7.459142,1.244411,7.459142,1.244411,270.000153,270,384.412231,73.976677,1133.302856,297.330414,273.612701,0.137543,0.192831,1119.59668,-0.003602,0.149124,0.1,0,1
93.317963,279.012451,280.205902,7.456295,1.561815,7.456295,1.561815,280.000153,280,388.192871,74.023636,1134.88562,297.395325,273.654114,0.148404,0.191735,1120.932739,-0.005926,0.149183,0.1,0,1
93.289566,284.680176,285.873627,7.449921,1.94847,7.449921,1.94847,280.000153,280,393.870758,74.09053,1135.994995,297.418945,273.729462,0.154942,0.177115,1122.934204,-0.007437,0.149126,0.1,0,1
93.276085,288.466705,289.660156,7.445135,2.133598,7.445135,2.133598,290.000153,290,397.657562,74.132935,1135.993408,297.418365,273.78775,0.153337,0.164618,1124.418823,-0.009278,0.148998,0.1,0,1
93.262703,294.153076,295.346527,7.438703,2.298683,7.438703,2.298683,290.000153,290,403.335907,74.19355,1135.253784,297.447815,273.885803,0.145425,0.150689,1126.532715,-0.01016,0.148903,0.1,0,1
93.256248,297.94693,299.140381,7.434181,2.356906,7.434181,2.356906,300.000153,300,407.118835,74.232132,1134.509033,297.51001,273.957489,0.139042,0.148204,1127.80835,-0.010946,0.148774,0.1,0,1
93.246872,303.637421,304.830872,7.428888,2.410054,7.428888,2.410054,300.000153,300,412.788452,74.287415,1133.408447,297.680359,274.073975,0.131652,0.156222,1129.326904,-0.011223,0.148684,0.1,0,1
93.238876,307.433502,308.626953,7.426095,2.449892,7.426095,2.449892,310.000153,310,416.565521,74.322609,1132.878906,297.839081,274.157715,0.129565,0.168049,1130.273071,-0.011476,0.148578,0.1,0,1
93.223236,313.126984,314.320435,7.423936,2.544906,7.423936,2.544906,310.000153,310,422.22879,74.37291,1132.529053,298.118103,274.293152,0.131165,0.190643,1131.390747,-0.011666,0.148522,0.1,0,1
93.210106,316.921967,318.115417,7.422883,2.638104,7.422883,2.638104,320.000153,320,426.003906,74.404778,1132.578003,298.312561,274.390533,0.134692,0.205751,1131.964111,-0.012119,0.148479,0.1,0,1
93.191063,322.611023,323.804443,7.421108,2.81158,7.421108,2.81158,320.000153,320,431.66748,74.450066,1132.849365,298.589966,274.548096,0.141619,0.224069,1132.490967,-0.012562,0.148458,0.1,0,1
93.172585,326.405457,327.598877,7.419247,2.93911,7.419247,2.93911,330.000153,330,435.44397,74.478592,1133.016235,298.756409,274.661072,0.145983,0.232121,1132.887939,-0.013388,0.148422,0.1,0,1
93.151512,332.096497,333.289948,7.4156,3.120224,7.4156,3.120224,330.000153,330,441.109222,74.518951,1133.021973,298.976746,274.842346,0.150516,0.237982,1133.359131,-0.013996,0.148385,0.1,0,1
93.139183,335.890076,337.083527,7.412418,3.225205,7.412418,3.225205,340.000153,340,444.88562,74.544304,1132.792847,299.109772,274.970825,0.151729,0.23895,1133.605591,-0.014858,0.148312,0.1,0,1
93.123428,341.578308,342.771729,7.407373,3.345329,7.407373,3.345329,340.000153,340,450.547974,74.580139,1132.109619,299.30423,275.174164,0.151075,0.238729,1133.817871,-0.015358,0.148248,0.1,0,1
93.114624,345.370392,346.563843,7.403419,3.403098,7.403419,3.403098,340.000153,340,454.320618,74.602646,1131.479614,299.439789,275.316284,0.149527,0.239106,1133.949829,-0.01593,0.148147,0.1,0,1
93.102905,351.056183,352.249634,7.397765,3.463177,7.397765,3.463177,350.000153,350,459.975311,74.634468,1130.412109,299.663208,275.538422,0.14677,0.242219,1134.018433,-0.016205,0.148068,0.1,0,1
93.095459,354.844727,356.038177,7.393752,3.494622,7.393752,3.494622,350.000153,350,463.742126,74.654449,1129.704346,299.828003,275.692047,0.145295,0.246357,1133.974854,-0.016491,0.147955,0.1,0,1
93.083778,360.522919,361.71637,7.388677,3.540797,7.388677,3.540797,360.000153,360,469.388123,74.682648,1128.758179,300.096161,275.930359,0.144325,0.255053,1133.720337,-0.016641,0.147875,0.1,0,1
93.075516,364.306885,365.500336,7.385356,3.57684,7.385356,3.57684,360.000153,360,473.14975,74.700287,1128.242676,300.284485,276.094238,0.144598,0.261732,1133.533447,-0.016861,0.147774,0.1,0,1
93.062317,369.978943,371.172394,7.381296,3.641165,7.381296,3.641165,370.000153,370,478.789307,74.725067,1127.623779,300.378937,276.347198,0.146089,0.271506,1133.148926,-0.017033,0.147707,0.1,0,1
93.053123,373.757813,374.951263,7.378569,3.690321,7.378569,3.690321,370.000153,370,482.547485,74.740479,1127.286987,300.378937,276.520355,0.147444,0.277127,1132.84021,-0.017339,0.147626,0.1,0,1
93.039375,379.422577,380.615997,7.374924,3.766366,7.374924,3.766366,380.000153,380,488.182678,74.761993,1126.808105,300.378937,276.786438,0.149391,0.283516,1132.326294,-0.017573,0.147571,0.1,0,1
93.033676,383.194275,384.387695,7.37226,3.815526,7.37226,3.815526,380.000153,380,491.938141,74.775291,1126.466309,300.378937,276.967621,0.150327,0.286436,1131.823364,-0.017935,0.147498,0.1,0,1
93.018066,388.852966,390.046417,7.368428,3.879712,7.368428,3.879712,390.000153,390,497.569,74.79377,1125.879395,300.378937,277.244385,0.150962,0.289321,1131.323242,-0.018169,0.147445,0.1,0,1
93.01059,392.623138,393.816589,7.365548,3.915352,7.365548,3.915352,390.000153,390,501.321167,74.805138,1125.430786,300.378937,277.431671,0.150892,0.290748,1130.965088,-0.018475,0.147369,0.1,0,1
93.000298,398.274963,399.468414,7.361454,3.956906,7.361454,3.956906,400.000153,400,506.946472,74.820854,1124.693726,300.378937,277.715942,0.15031,0.292924,1130.397217,-0.018645,0.147311,0.1,0,1
92.996964,402.037964,403.231415,7.358468,3.978923,7.358468,3.978923,400.000153,400,510.69458,74.830482,1124.183228,300.378937,277.907257,0.149806,0.294739,1129.861328,-0.018842,0.147229,0.1,0,1
92.978638,407.682251,408.875702,7.354441,4.006474,7.354441,4.006474,410.000153,410,516.313538,74.843719,1123.41394,300.378937,278.196106,0.14908,0.298206,1129.261353,-0.018947,0.147169,0.1,0,1
92.954506,411.44339,412.636841,7.351793,4.020776,7.351793,4.020776,410.000153,410,520.057068,74.851784,1122.682373,300.378937,278.389587,0.147934,0.301145,1128.874634,-0.019078,0.147089,0.1,0,1
92.919678,417.080841,418.274292,7.347496,4.031312,7.347496,4.031312,420.000153,420,525.667053,74.862823,1121.335327,300.378937,278.680756,0.145827,0.307187,1128.231934,-0.019147,0.147036,0.1,0,1
92.899643,420.834717,422.028137,7.343274,4.034903,7.343274,4.034903,420.000153,420,529.403137,74.86953,1120.328369,300.378937,278.875305,0.14475,0.312438,1127.682617,-0.019197,0.14695,0.1,0,1
92.863167,426.461517,427.654968,7.336262,4.043454,7.336262,4.043454,430.000153,430,535.00061,74.878662,1118.700562,300.378937,279.167755,0.1441,0.32163,1126.87439,-0.019214,0.146865,0.1,0,1
92.840919,430.209717,431.403168,7.331089,4.054602,7.331089,4.054602,430.000153,430,538.727722,74.884155,1117.584229,300.378937,279.36319,0.144359,0.328041,1126.312134,-0.019255,0.146725,0.1,0,1
92.807808,435.825684,437.019135,7.324195,4.081075,7.324195,4.081075,440.000153,440,544.31134,74.891548,1115.930542,300.378937,279.657288,0.145523,0.33697,1125.357422,-0.019308,0.146622,0.1,0,1
92.788673,439.563995,440.757446,7.319196,4.104067,7.319196,4.104067,440.000153,440,548.029236,74.895927,1114.843506,300.378937,279.854034,0.146549,0.341944,1124.579834,-0.019434,0.146484,0.1,0,1
92.754272,445.165802,446.359222,7.312068,4.141326,7.312068,4.141326,440.000153,440,553.599182,74.901718,1113.176758,300.378937,280.150238,0.147935,0.347529,1123.410522,-0.019543,0.146384,0.1,0,1
92.7342,448.896515,450.089966,7.306743,4.165104,7.306743,4.165104,450.000153,450,557.3078,74.905083,1112.022095,300.378937,280.34845,0.148539,0.350078,1122.622803,-0.019721,0.146241,0.1,0,1
92.705688,454.48526,455.678711,7.299171,4.194229,7.299171,4.194229,450.000153,450,562.863281,74.909447,1110.203247,300.378937,280.646698,0.148847,0.352645,1121.34729,-0.019834,0.146135,0.1,0,1
92.687759,458.206055,459.399506,7.293565,4.208578,7.293565,4.208578,460.000153,460,566.561768,74.911942,1108.944702,300.378937,280.846069,0.148687,0.353917,1120.439697,-0.019973,0.145983,0.1,0,1
92.662354,463.779419,464.97287,7.285691,4.222296,7.285691,4.222296,460.000153,460,572.101563,74.915115,1107.013672,300.378937,281.145844,0.148115,0.355794,1118.998901,-0.020041,0.145871,0.1,0,1
92.646263,467.489655,468.683105,7.279971,4.227781,7.279971,4.227781,470.000153,470,575.789368,74.916885,1105.72583,300.378937,281.34613,0.147671,0.357264,1117.988892,-0.020106,0.145714,0.1,0,1
92.623108,473.046814,474.240265,7.272198,4.233293,7.272198,4.233293,470.000153,470,581.313049,74.919075,1103.828369,300.378937,281.647125,0.147149,0.359947,1116.407104,-0.020132,0.145599,0.1,0,1
92.6082,476.746063,477.939514,7.266712,4.236924,7.266712,4.236924,480.000153,480,584.990417,74.92025,1102.611206,300.378937,281.848175,0.146982,0.361976,1115.313599,-0.020159,0.145444,0.1,0,1
92.586411,482.285461,483.478882,7.259445,4.244176,7.259445,4.244176,480.000153,480,590.498901,74.921608,1100.863281,300.378937,282.150452,0.147045,0.365119,1113.562012,-0.020176,0.145334,0.1,0,1
92.56546,487.816467,489.009918,7.252037,4.254278,7.252037,4.254278,490.000153,490,595.998962,74.922531,1099.218994,300.378937,282.453613,0.147346,0.367981,1111.868774,-0.02021,0.145189,0.1,0,1
92.551964,491.498383,492.691833,7.247668,4.262055,7.247668,4.262055,490.000153,490,599.661194,74.922928,1098.172119,300.378937,282.656219,0.147603,0.369585,1110.721313,-0.020241,0.145088,0.1,0,1
92.534851,497.009796,498.203247,7.240783,4.274212,7.240783,4.274212,500.000153,500,605.148132,74.92321,1096.650024,300.378937,282.960876,0.147986,0.371427,1108.798828,-0.020296,0.144953,0.1,0,1
92.520157,500.677216,501.870667,7.236665,4.281765,7.236665,4.281765,500.000153,500,608.801941,74.923218,1095.662842,300.378937,283.16452,0.148167,0.372299,1107.463501,-0.020334,0.144859,0.1,0,1
92.501457,506.178802,507.372253,7.230096,4.290888,7.230096,4.290888,510.000153,510,614.27655,74.922981,1094.216431,300.378937,283.470642,0.148163,0.37323,1105.932495,-0.020389,0.144733,0.1,0,1
92.490196,509.840118,511.033539,7.226156,4.295119,7.226156,4.295119,510.000153,510,617.922241,74.922684,1093.271484,300.378937,283.67514,0.148082,0.373734,1104.815552,-0.02042,0.144644,0.1,0,1
92.470398,515.172852,516.366272,7.220076,4.299222,7.220076,4.299222,510.000153,510,623.233398,74.922073,1091.92749,300.378937,283.973877,0.147909,0.374447,1103.226074,-0.020453,0.144523,0.1,0,1
92.466225,518.972961,520.166382,7.21623,4.300951,7.21623,4.300951,520.000122,520,627.023132,74.921532,1091,300.378937,284.187653,0.147789,0.375015,1101.876709,-0.020468,0.144438,0.1,0,1
92.448555,524.446655,525.640076,7.21033,4.302523,7.21033,4.302523,520.000122,520,632.474854,74.920616,1089.722046,300.378906,284.495911,0.14757,0.375942,1100.456909,-0.020481,0.144325,0.1,0,1
92.438972,528.089722,529.283203,7.206849,4.303411,7.206849,4.303411,530.000122,530,636.105835,74.919937,1088.90625,300.378876,284.701721,0.147511,0.376629,1099.42041,-0.020486,0.144244,0.1,0,1
92.425819,533.392944,534.586365,7.201592,4.305295,7.201592,4.305295,530.000122,530,641.39624,74.918869,1087.771484,300.378876,285.002258,0.147537,0.377624,1097.755737,-0.020492,0.144137,0.1,0,1
92.416992,537.02478,538.218262,7.198461,4.307059,7.198461,4.307059,540.000122,540,645.020874,74.918091,1087.036499,300.476318,285.208618,0.147606,0.378248,1096.638428,-0.020498,0.144063,0.1,0,1
92.402931,542.623779,543.8172,7.193324,4.310041,7.193324,4.310041,540.000122,540,650.604187,74.91684,1085.963379,300.82959,285.5271,0.147656,0.379046,1095.315674,-0.02051,0.143969,0.1,0,1
92.394936,546.252258,547.445679,7.190368,4.311848,7.190368,4.311848,550.000122,550,654.2229,74.916,1085.295532,301.058502,285.733917,0.147678,0.379463,1094.489136,-0.02052,0.143898,0.1,0,1
92.38546,551.683167,552.876648,7.185821,4.314404,7.185821,4.314404,550.000122,550,659.646912,74.914734,1084.331421,301.401367,286.044403,0.147748,0.37993,1092.940674,-0.020533,0.143807,0.1,0,1
92.377762,555.300964,556.494385,7.183131,4.315757,7.183131,4.315757,550.000122,550,663.260254,74.913895,1083.719849,301.6297,286.251526,0.147751,0.380156,1091.996826,-0.020541,0.143745,0.1,0,1
92.364357,560.725891,561.919373,7.17886,4.316987,7.17886,4.316987,560.000122,560,668.676575,74.912651,1082.839966,301.972015,286.562408,0.147669,0.380415,1090.844116,-0.020551,0.143663,0.1,0,1
92.357704,564.340332,565.533813,7.176323,4.317149,7.176323,4.317149,560.000122,560,672.285034,74.911842,1082.278564,302.200409,286.769745,0.147589,0.380587,1090.140747,-0.020556,0.143604,0.1,0,1
92.350243,569.751831,570.945251,7.172377,4.316953,7.172377,4.316953,570.000122,570,677.694397,74.910683,1081.467651,302.543427,287.080811,0.147535,0.380864,1088.804932,-0.020558,0.143526,0.1,0,1
92.343559,573.355286,574.548706,7.170051,4.316809,7.170051,4.316809,570.000122,570,681.29834,74.90995,1080.954712,302.772308,287.288177,0.147514,0.381056,1087.91394,-0.020557,0.143472,0.1,0,1
92.331711,578.760315,579.953796,7.166387,4.316486,7.166387,4.316486,580.000122,580,686.701233,74.908928,1080.226685,303.115784,287.599243,0.147447,0.381338,1086.898804,-0.020556,0.143401,0.1,0,1
92.326111,582.362793,583.556274,7.164232,4.31613,7.164232,4.31613,580.000122,580,690.301208,74.908302,1079.769165,303.344971,287.80658,0.147401,0.381532,1086.337036,-0.020555,0.143351,0.1,0,1
92.31794,587.761536,588.955017,7.160902,4.31567,7.160902,4.31567,590.000122,590,695.698364,74.907463,1079.118408,303.688904,288.117523,0.147371,0.38181,1085.447144,-0.020553,0.143285,0.1,0,1
92.312645,591.357605,592.551086,7.158957,4.315492,7.158957,4.315492,590.000122,590,699.294739,74.906975,1078.710449,303.918182,288.324738,0.147367,0.381974,1084.840088,-0.020551,0.143239,0.1,0,1
92.304619,596.744263,597.937683,7.155911,4.315451,7.155911,4.315451,600.000122,600,704.686768,74.904907,1078.127808,304.26181,288.635437,0.1474,0.382154,1083.771973,-0.02055,0.143179,0.1,0,1
92.299774,600.335327,601.528748,7.154101,4.315363,7.154101,4.315363,600.000122,600,708.279907,74.902885,1077.763306,304.490753,288.842499,0.147384,0.382232,1083.234375,-0.02055,0.143138,0.1,0,1
92.29277,605.717896,606.911316,7.151277,4.314967,7.151277,4.314967,610.000122,610,713.667358,74.90007,1077.241089,304.834015,289.152893,0.147354,0.382307,1082.422974,-0.020549,0.143082,0.1,0,1
92.290634,609.302551,610.495972,7.149622,4.314548,7.149622,4.314548,610.000122,610,717.257568,74.898346,1076.911011,305.062805,289.35968,0.14734,0.382341,1081.815674,-0.020548,0.143043,0.1,0,1
92.281616,614.677002,615.870422,7.147027,4.313769,7.147027,4.313769,610.000122,610,722.64093,74.895988,1076.440308,305.405945,289.669647,0.147302,0.382375,1081.001099,-0.020545,0.142992,0.1,0,1
92.27739,618.258667,619.452087,7.145491,4.313128,7.145491,4.313128,620.000122,620,726.228516,74.894577,1076.146606,305.634735,289.87616,0.147264,0.382397,1080.533569,-0.020543,0.142957,0.1,0,1
92.271477,623.627869,624.82135,7.143091,4.311988,7.143091,4.311988,620.000122,620,731.608215,74.892708,1075.728882,305.977997,290.185669,0.147214,0.382438,1079.841919,-0.020539,0.14291,0.1,0,1
92.267677,627.205322,628.398743,7.141517,4.311195,7.141517,4.311195,630.000122,630,735.193481,74.891617,1075.46167,306.206909,290.391846,0.147187,0.382472,1079.392334,-0.020533,0.142862,0.1,0,1
92.264313,632.563965,633.757446,7.139547,4.310163,7.139547,4.310163,630.000122,630,740.569824,74.890244,1075.088989,306.550323,290.700928,0.147203,0.382524,1078.496948,-0.020529,0.14283,0.1,0,1
92.258232,636.138428,637.331848,7.138144,4.309537,7.138144,4.309537,640.000122,640,744.153076,74.889496,1074.865845,306.779175,290.906799,0.147173,0.382544,1078.16687,-0.020525,0.142791,0.1,0,1
92.253304,641.497192,642.690613,7.136242,4.308479,7.136242,4.308479,640.000122,640,749.52655,74.888634,1074.54895,307.122498,291.215393,0.147139,0.382571,1077.656982,-0.020522,0.142763,0.1,0,1
92.25013,645.067871,646.261353,7.134933,4.307764,7.134933,4.307764,640.000122,640,753.108093,74.888229,1074.350708,307.122498,291.42099,0.147122,0.382585,1077.315796,-0.020517,0.142725,0.1,0,1
92.24791,650.419006,651.612427,7.133237,4.30676,7.133237,4.30676,650.000122,650,758.479065,74.887886,1074.071533,307.122498,291.729218,0.147128,0.382599,1076.674438,-0.020513,0.142699,0.1,0,1
92.242401,653.986877,655.180298,7.132057,4.306156,7.132057,4.306156,650.000122,650,762.059021,74.887833,1073.902588,307.122498,291.93454,0.147107,0.382594,1076.395874,-0.020508,0.142665,0.1,0,1
92.238266,659.336304,660.529724,7.130486,4.305142,7.130486,4.305142,660.000122,660,767.427917,74.888016,1073.666382,307.122498,292.242401,0.147077,0.38258,1075.973145,-0.020506,0.142641,0.1,0,1
92.235619,662.901062,664.094482,7.1294,4.304427,7.1294,4.304427,660.000122,660,771.006592,74.888321,1073.521118,307.122498,292.447571,0.147059,0.382568,1075.694092,-0.020501,0.14261,0.1,0,1
92.234123,668.244934,669.438354,7.12798,4.303357,7.12798,4.303357,670.000122,670,776.373657,74.889038,1073.319214,307.122498,292.755157,0.147045,0.382552,1075.214111,-0.020497,0.142588,0.1,0,1
92.229134,671.806152,672.999573,7.126996,4.302708,7.126996,4.302708,670.000122,670,779.951172,74.889702,1073.195679,307.122498,292.960144,0.147035,0.382535,1074.918213,-0.020492,0.14256,0.1,0,1
92.225723,677.147949,678.34137,7.125685,4.301661,7.125685,4.301661,680.000122,680,785.316711,74.890961,1073.029297,307.122498,293.267548,0.147002,0.38251,1074.598022,-0.020489,0.14254,0.1,0,1
92.223549,680.707886,681.901367,7.124782,4.300929,7.124782,4.300929,680.000122,680,788.893311,74.891983,1072.928955,307.122498,293.472473,0.146983,0.382496,1074.384766,-0.020484,0.142514,0.1,0,1
92.222542,686.043762,687.237244,7.123611,4.299895,7.123611,4.299895,690.000122,690,794.257568,74.893784,1072.790405,307.122498,293.779785,0.146976,0.382479,1073.940063,-0.020481,0.142496,0.1,0,1
92.217903,689.598572,690.792053,7.122798,4.299355,7.122798,4.299355,690.000122,690,797.833435,74.895164,1072.706665,307.122498,293.98468,0.146988,0.382457,1073.608887,-0.020476,0.142472,0.1,0,1
92.215096,694.934937,696.128418,7.1217,4.298402,7.1217,4.298402,690.000122,690,803.196655,74.897514,1072.602661,307.122498,294.292023,0.146947,0.382422,1073.45813,-0.020473,0.142456,0.1,0,1
92.213387,698.491394,699.684814,7.120954,4.297693,7.120954,4.297693,700.000122,700,806.771912,74.899261,1072.540894,307.122498,294.496948,0.146925,0.382405,1073.337036,-0.020469,0.142434,0.1,0,1
92.213196,703.823181,705.016602,7.120003,4.296667,7.120003,4.296667,700.000122,700,812.134399,74.902145,1072.46106,307.122498,294.804382,0.146912,0.38239,1073.067871,-0.020465,0.142419,0.1,0,1
92.211494,707.375366,708.568848,7.119348,4.296078,7.119348,4.296078,710.000122,710,815.709167,74.904251,1072.415649,307.122498,295.00943,0.146921,0.382379,1072.82019,-0.02046,0.1424,0.1,0,1
92.206734,712.706421,713.899902,7.118468,4.295264,7.118468,4.295264,710.000122,710,821.071106,74.907684,1072.364624,307.122498,295.317078,0.146892,0.382355,1072.711792,-0.020458,0.142387,0.1,0,1
92.20533,716.259521,717.452942,7.117863,4.294686,7.117863,4.294686,720.000122,720,824.64563,74.910149,1072.337646,307.122498,295.522278,0.146878,0.38234,1072.623291,-0.020454,0.142369,0.1,0,1
