airspeed_indicator_indicated_speed_kt,altimeter_indicated_altitude_ft,altimeter_pressure_alt_ft,attitude_indicator_indicated_pitch_deg,attitude_indicator_indicated_roll_deg,attitude_indicator_internal_pitch_deg,attitude_indicator_internal_roll_deg,encoder_indicated_altitude_ft,encoder_pressure_alt_ft,gps_indicated_altitude_ft,gps_indicated_ground_speed_kt,gps_indicated_vertical_speed,indicated_heading_deg,magnetic_compass_indicated_heading_deg,slip_skid_ball_indicated_slip_skid,turn_indicator_indicated_turn_rate,vertical_speed_indicator_indicated_speed_fpm,flight_aileron,flight_elevator,flight_rudder,flight_flaps,engine_throttle,engine_rpm
6.529435,-87.982193,-86.78875,2.969018,1.35301,2.590976,0.092868,-89.999855,-90.0,2.286517,0.0,0.007771,297.867157,278.147186,0.012365,-0.045786,-15.499331,-0.0,0.0,0.0,0.0,0.0,600.214539
6.590174,-87.992294,-86.798851,2.974634,1.370638,2.591248,0.092685,-89.999855,-90.0,2.286545,0.0,0.008073,297.866302,280.430237,0.012394,-0.041426,-14.008402,-0.0,0.0,0.0,0.0,0.0,600.248901
6.69136,-88.004189,-86.810745,2.771299,0.718586,2.583316,0.091973,-89.999855,-90.0,2.286548,3.7E-5,-0.010585,297.86496,283.794708,0.012309,-0.035681,-19.553192,-0.019581,0.051825,4.3E-5,0.0,1.0,672.788452
6.763435,-88.010406,-86.816963,2.634459,0.331664,2.562046,0.090288,-89.999855,-90.0,2.286481,1.45E-4,-0.031084,297.863983,285.974121,0.012227,-0.032353,-13.435772,-0.010266,0.051666,1.1E-4,0.0,1.0,784.607788
6.905815,-88.017799,-86.824356,2.509555,0.084423,2.509555,0.084423,-89.999855,-90.0,2.286313,7.5E-4,-0.017719,297.862274,289.111359,0.012107,-0.028057,-11.893961,-0.004738,0.051241,1.59E-4,0.0,1.0,1004.76123
7.052381,-88.021698,-86.828247,2.49179,0.077773,2.49179,0.077773,-89.999855,-90.0,2.286324,0.002354,0.022978,297.860962,291.096313,0.011932,-0.025616,-17.824892,-0.001206,0.050191,2.44E-4,0.0,1.0,1165.381104
7.368907,-88.026306,-86.832863,2.493106,0.064444,2.493106,0.064444,-89.999855,-90.0,2.286596,0.008816,0.083204,297.858521,293.885712,0.011605,-0.022548,-15.560846,-0.001111,0.049836,3.1E-4,0.0,1.0,1401.045898
7.650354,-88.028694,-86.835243,2.50363,0.054054,2.50363,0.054054,-89.999855,-90.0,2.286938,0.017319,0.121859,297.855957,295.605591,0.010566,-0.02093,-14.71138,-9.21E-4,0.049862,4.32E-4,0.0,1.0,1544.538818
8.178421,-88.031433,-86.83799,2.524703,0.037693,2.524703,0.037693,-89.999855,-90.0,2.287685,0.038975,0.176759,297.849792,297.954895,0.011382,-0.019185,-15.526243,-7.72E-4,0.050073,5.6E-4,0.0,1.0,1729.871094
8.596271,-88.032784,-86.83934,2.539735,0.026897,2.539735,0.026897,-89.999855,-90.0,2.288342,0.060768,0.216619,297.843384,299.357483,0.010296,-0.018525,-9.010486,-5.38E-4,0.050494,8.68E-4,0.0,1.0,1831.858154
9.060623,-88.033806,-86.840363,2.553993,0.016664,2.553993,0.016664,-89.999855,-90.0,2.289129,0.089442,0.257283,297.834717,300.622772,0.008756,-0.018281,-14.789244,-3.84E-4,0.050795,0.001189,0.0,1.0,1917.183594
9.060623,-88.033806,-86.840363,2.553993,0.016664,2.553993,0.016664,-89.999855,-90.0,2.289129,0.089442,0.257283,297.834717,300.622772,0.008756,-0.018281,-14.789244,-3.84E-4,0.050795,0.001189,0.0,1.0,1917.183594
10.670638,-88.035492,-86.842049,2.589401,-0.008121,2.589401,-0.008121,-89.999855,-90.0,2.292361,0.223145,0.386545,297.792969,303.559265,0.016343,-0.019898,-10.175784,-2.38E-4,0.05108,0.001622,0.0,1.0,2089.390137
11.260802,-88.035362,-86.841919,2.598869,-0.014166,2.598869,-0.014166,-89.999855,-90.0,2.293739,0.285085,0.435985,297.773315,304.245636,0.018767,-0.021151,-9.282411,1.16E-4,0.051788,0.003709,0.0,1.0,2125.321045
12.178926,-88.034729,-86.841286,2.60909,-0.021534,2.60909,-0.021534,-89.999855,-90.0,2.296118,0.395173,0.512557,297.743866,305.001007,0.021594,-0.022736,-1.340619,2.02E-4,0.051977,0.004692,0.0,1.0,2164.988525
12.807347,-88.034042,-86.840591,2.614974,-0.025512,2.614974,-0.025512,-89.999855,-90.0,2.297924,0.480179,0.566452,297.724396,305.324402,0.023186,-0.023617,9.54395,3.08E-4,0.052182,0.006165,0.0,1.0,2184.000977
13.766919,-88.032608,-86.839165,2.622608,-0.030366,2.622608,-0.030366,-89.999855,-90.0,2.300972,0.625174,0.648383,297.69812,305.546875,0.025117,-0.024267,16.812719,3.64E-4,0.052299,0.007138,0.0,1.0,2204.309814
14.414488,-88.03141,-86.837967,2.627278,-0.032895,2.627278,-0.032895,-89.999855,-90.0,2.303235,0.733437,0.704422,297.683044,305.526306,0.026307,-0.024243,10.140985,4.34E-4,0.052452,0.008452,0.0,1.0,2214.623291
15.394438,-88.029236,-86.835793,2.633622,-0.035911,2.633622,-0.035911,-89.999855,-90.0,2.306982,0.913026,0.789469,297.666626,305.255432,0.027864,-0.023203,7.314823,4.7E-4,0.052546,0.009206,0.0,1.0,2227.098145
16.024355,-88.027618,-86.834175,2.63761,-0.03757,2.63761,-0.03757,-89.999855,-90.0,2.309602,1.038422,0.845441,297.660217,304.940247,0.028908,-0.021969,16.450556,5.13E-4,0.052672,0.010027,0.0,1.0,2233.582764
17.015234,-88.024727,-86.831284,2.643626,-0.039985,2.643626,-0.039985,-89.999855,-90.0,2.314058,1.251079,0.932162,297.65744,304.242004,0.030544,-0.019106,17.769781,5.37E-4,0.052752,0.010347,0.0,1.0,2241.967529
17.705873,-88.022469,-86.829025,2.647885,-0.041571,2.647885,-0.041571,-89.999855,-90.0,2.31741,1.410316,0.993225,297.660431,303.622314,0.031715,-0.016591,16.623272,5.71E-4,0.052873,0.010486,0.0,1.0,2246.800293
18.702944,-88.018852,-86.825409,2.653908,-0.043772,2.653908,-0.043772,-89.999855,-90.0,2.322609,1.655895,1.081153,297.670898,302.557983,0.033578,-0.012443,8.708819,5.94E-4,0.052958,0.010336,0.0,1.0,2252.689453
19.368698,-88.016205,-86.822762,2.658019,-0.045171,2.658019,-0.045171,-89.999855,-90.0,2.32632,1.83007,1.140106,297.681305,301.749054,0.03483,-0.009478,9.237864,6.25E-4,0.053078,0.009813,0.0,1.0,2256.071533
20.368483,-88.011871,-86.818428,2.664098,-0.047135,2.664098,-0.047135,-89.999855,-90.0,2.332254,2.106634,1.228435,297.699799,300.410278,0.036686,-0.005111,17.923592,6.45E-4,0.05316,0.009293,0.0,1.0,2260.532715
21.00771,-88.008881,-86.815437,2.668087,-0.048302,2.668087,-0.048302,-89.999855,-90.0,2.336276,2.292732,1.284909,297.712738,299.489258,0.03782,-0.002475,19.376373,6.73E-4,0.053282,0.008368,0.0,1.0,2263.083496
22.008171,-88.003845,-86.810402,2.674275,-0.049935,2.674275,-0.049935,-89.999855,-90.0,2.342933,2.598359,1.373272,297.732422,297.968506,0.039287,0.001065,19.032579,6.9E-4,0.053362,0.007721,0.0,1.0,2266.724609
22.674858,-88.000244,-86.806801,2.678543,-0.050935,2.678543,-0.050935,-89.999855,-90.0,2.347617,2.811613,1.431488,297.744781,296.914917,0.040033,0.003024,12.717153,7.13E-4,0.053486,0.006737,0.0,1.0,2268.966309
23.674644,-87.994492,-86.801048,2.684914,-0.052244,2.684914,-0.052244,-89.999855,-90.0,2.35501,3.14536,1.520219,297.76062,295.298676,0.040775,0.005193,15.582471,7.28E-4,0.053571,0.006119,0.0,1.0,2272.121094
24.3407,-87.990417,-86.796974,2.689312,-0.053078,2.689312,-0.053078,-89.999855,-90.0,2.360185,3.376881,1.579105,297.769501,294.210693,0.041029,0.006205,9.695279,7.46E-4,0.053698,0.005327,0.0,1.0,2274.116943
25.366587,-87.983765,-86.790321,2.696076,-0.054273,2.696076,-0.054273,-89.999855,-90.0,2.368548,3.747552,1.669645,297.780243,292.540161,0.041097,0.00712,17.130123,7.58E-4,0.053786,0.004883,0.0,1.0,2277.069336
26.031313,-87.979202,-86.785759,2.700661,-0.055095,2.700661,-0.055095,-89.999855,-90.0,2.374223,3.996677,1.728531,297.78595,291.473511,0.040987,0.007459,14.487206,7.75E-4,0.053922,0.004346,0.0,1.0,2278.921631
27.027107,-87.972008,-86.778564,2.70752,-0.056392,2.70752,-0.056392,-89.999855,-90.0,2.383103,4.382815,1.819574,297.793549,289.91806,0.040764,0.007756,11.716863,7.87E-4,0.054013,0.00406,0.0,1.0,2281.631836
27.662806,-87.967186,-86.773743,2.712382,-0.057351,2.712382,-0.057351,-89.999855,-90.0,2.389031,4.63714,1.907802,297.798615,288.962067,0.040668,0.007964,9.469304,8.06E-4,0.05415,0.00368,0.0,1.0,2283.330078
28.655228,-87.959206,-86.765755,2.724827,-0.05304,2.724827,-0.05304,-89.999855,-90.0,2.399308,5.046797,2.176675,297.807739,287.540527,0.041025,0.008583,10.673056,8.19E-4,0.054248,0.003427,0.0,1.0,2285.949219
29.315786,-87.953522,-86.760078,2.730495,-0.053642,2.730495,-0.053642,-89.999855,-90.0,2.406684,5.327548,2.239413,297.815247,286.651886,0.040764,0.009097,13.653992,7.58E-4,0.054497,0.002971,0.0,1.0,2287.675049
30.332638,-87.944214,-86.750763,2.737453,-0.055667,2.737453,-0.055667,-89.999855,-90.0,2.418455,5.771994,2.335848,297.829895,285.387756,0.041123,0.010254,7.479063,7.66E-4,0.05461,0.002596,0.0,1.0,2290.312012
30.662046,-87.937828,-86.744385,2.742269,-0.057206,2.742269,-0.057206,-89.999855,-90.0,2.42636,6.067619,2.400127,297.841766,284.642914,0.041715,0.01128,14.5788,7.95E-4,0.054749,0.001863,0.0,1.0,2292.010986
30.662046,-87.92807,-86.734619,2.749431,-0.059454,2.749431,-0.059454,-89.999855,-90.0,2.438275,6.508772,2.494988,297.86142,283.671143,0.042974,0.012967,11.697919,8.17E-4,0.054845,0.00127,0.0,1.0,2294.476807
30.662046,-87.920776,-86.727333,2.754784,-0.061096,2.754784,-0.061096,-89.999855,-90.0,2.447066,6.830973,2.561679,297.877075,283.064331,0.043957,0.014276,8.379097,8.49E-4,0.054989,2.87E-4,0.0,1.0,2296.231689
30.662046,-87.910439,-86.716995,2.761956,-0.063129,2.761956,-0.063129,-89.999855,-90.0,2.459397,7.278358,2.653224,297.898956,282.360291,0.045436,0.015933,7.917768,8.73E-4,0.055096,-4.96E-4,0.0,1.0,2298.611572
30.662046,-87.902237,-86.708794,2.76758,-0.064653,2.76758,-0.064653,-89.999855,-90.0,2.469119,7.627427,2.722896,297.915771,281.918152,0.046343,0.017064,10.489372,9.02E-4,0.055239,-0.00159,0.0,1.0,2300.427979
30.662046,-87.890778,-86.697334,2.774953,-0.066034,2.774953,-0.066034,-89.999855,-90.0,2.482588,8.10654,2.809885,297.936707,281.45578,0.047599,0.018121,15.904784,9.24E-4,0.055352,-0.002431,0.0,1.0,2302.858887
30.662046,-87.882301,-86.68885,2.780667,-0.06585,2.780667,-0.06585,-89.999855,-90.0,2.492494,8.455058,2.926853,297.948364,281.218353,0.048256,0.018271,17.829998,9.43E-4,0.055499,-0.003478,0.0,1.0,2304.571045
30.662046,-87.869904,-86.67646,2.794186,-0.06385,2.794186,-0.06385,-89.999855,-90.0,2.507954,8.951522,3.303851,297.955322,281.01358,0.047915,0.016986,15.015401,9.41E-4,0.055613,-0.00406,0.0,1.0,2306.945557
30.662046,-87.860931,-86.667488,2.798994,-0.061616,2.798994,-0.061616,-89.999855,-90.0,2.519078,9.297552,3.365082,297.952637,280.956696,0.046519,0.015046,19.604088,9.12E-4,0.055884,-0.004408,0.0,1.0,2308.563232
30.662046,-87.847229,-86.653786,2.805028,-0.057538,2.805028,-0.057538,-89.999855,-90.0,2.535685,9.810092,3.462589,297.937714,280.990173,0.042663,0.010855,9.553027,8.8E-4,0.05598,-0.004274,0.0,1.0,2310.912598
30.662046,-87.837456,-86.644012,2.809544,-0.054483,2.809544,-0.054483,-89.999855,-90.0,2.547355,10.166824,3.532998,297.920929,281.088898,0.039159,0.007303,18.852898,8.22E-4,0.056101,-0.003528,0.0,1.0,2312.519287
30.662046,-87.82177,-86.628326,2.816757,-0.049911,2.816757,-0.049911,-89.999855,-90.0,2.565806,10.724932,3.643937,297.889008,281.352966,0.033216,0.001582,19.205042,7.78E-4,0.056191,-0.002689,0.0,1.0,2314.991455
30.662046,-87.810783,-86.61734,2.821893,-0.047074,2.821893,-0.047074,-89.999855,-90.0,2.578593,11.107461,3.716121,297.865784,281.602112,0.029299,-0.002049,9.668827,7.13E-4,0.056335,-0.001093,0.0,1.0,2316.659668
30.662046,-87.794449,-86.601006,2.828693,-0.043707,2.828693,-0.043707,-89.999855,-90.0,2.597404,11.66574,3.760671,297.836426,282.050323,0.024454,-0.005961,10.574803,6.72E-4,0.056438,6.9E-5,0.0,1.0,2319.060547
30.662046,-87.783241,-86.589798,2.835885,-0.040303,2.835885,-0.040303,-89.999855,-90.0,2.610192,12.042661,4.260432,297.821594,282.401306,0.022439,-0.00748,14.466736,6.24E-4,0.056574,0.001537,0.0,1.0,2320.6604
30.662046,-87.766731,-86.573288,2.846668,-0.033342,2.846668,-0.033342,-89.999855,-90.0,2.630728,12.582894,4.396091,297.809814,282.959778,0.020988,-0.007866,17.273487,5.76E-4,0.056718,0.002278,0.0,1.0,2322.927002
30.662046,-87.753998,-86.560547,2.852575,-0.033796,2.852575,-0.033796,-89.999855,-90.0,2.646168,12.984669,4.486732,297.807953,283.409363,0.021348,-0.007185,15.501025,4.76E-4,0.056933,0.002867,0.0,1.0,2325.105225
30.662046,-87.734856,-86.541412,2.859929,-0.033754,2.859929,-0.033754,-89.999855,-90.0,2.668928,13.569768,4.607987,297.813721,284.103058,0.023824,-0.005011,18.17075,4.83E-4,0.057051,0.00296,0.0,1.0,2329.470947
30.662046,-87.721603,-86.528152,2.864814,-0.033234,2.864814,-0.033234,-89.999855,-90.0,2.684435,13.964006,4.68811,297.820953,284.589111,0.02623,-0.003213,16.687122,4.82E-4,0.057199,0.002672,0.0,1.0,2332.894775
30.662046,-87.700485,-86.507042,2.872067,-0.031581,2.872067,-0.031581,-89.999855,-90.0,2.708857,14.578145,4.809031,297.832031,285.363556,0.029972,-8.25E-4,14.656381,4.75E-4,0.057296,0.00231,0.0,1.0,2338.657471
30.662046,-87.686935,-86.493492,2.881943,-0.030044,2.881943,-0.030044,-89.999855,-90.0,2.72507,14.963697,5.334048,297.836212,285.854095,0.031951,3.9E-5,16.242369,4.51E-4,0.057441,0.001756,0.0,1.0,2342.430176
30.662046,-87.664093,-86.47065,2.890787,-0.024942,2.890787,-0.024942,-89.999855,-90.0,2.75293,15.589858,5.488163,297.833893,286.646576,0.03331,-1.17E-4,10.32583,4.29E-4,0.057639,0.001547,0.0,1.0,2348.683105
30.662046,-87.649254,-86.455803,2.895236,-0.021747,2.895236,-0.021747,-89.999855,-90.0,2.770674,15.982691,5.59026,297.825684,287.135529,0.032688,-0.001281,19.390093,3.56E-4,0.057816,0.001663,0.0,1.0,2352.644775
30.662046,-87.624458,-86.431015,2.901801,-0.01637,2.901801,-0.01637,-89.999855,-90.0,2.799756,16.620275,5.720459,297.801727,287.905792,0.029611,-0.00459,11.698989,3.11E-4,0.057905,0.002074,0.0,1.0,2359.094482
49.522343,-87.607826,-86.414383,2.906397,-0.012632,2.906397,-0.012632,-89.999855,-90.0,2.818985,17.037476,5.807984,297.779968,288.389069,0.026322,-0.007439,12.294094,2.34E-4,0.058036,0.003272,0.0,1.0,2363.3125
50.561478,-87.582138,-86.388687,2.913262,-0.007249,2.913262,-0.007249,-89.999855,-90.0,2.848374,17.668488,5.939054,297.742859,289.081116,0.020291,-0.011858,15.870096,1.8E-4,0.058128,0.004359,0.0,1.0,2369.674316
51.170334,-87.564537,-86.371094,2.918264,-0.00383,2.918264,-0.00383,-89.999855,-90.0,2.868366,18.092558,6.063526,297.717316,289.515869,0.016083,-0.014561,20.496983,1.04E-4,0.058265,0.006215,0.0,1.0,2373.933105
52.082031,-87.537125,-86.343681,2.935775,0.010753,2.935775,0.010753,-89.999855,-90.0,2.902176,18.733601,6.981385,297.683533,290.121033,0.010647,-0.017163,21.144442,5.5E-5,0.058365,0.007492,0.0,1.0,2380.340088
52.689842,-87.517906,-86.324463,2.940692,0.01356,2.940692,0.01356,-89.999855,-90.0,2.925604,19.164173,7.066465,297.665405,290.489502,0.007587,-0.01815,11.388458,-1.54E-4,0.058715,0.009181,0.0,1.0,2384.62207
53.601952,-87.487839,-86.294395,2.946364,0.01652,2.946364,0.01652,-89.999855,-90.0,2.961299,19.814722,7.204603,297.648163,290.984802,0.00514,-0.017906,15.766988,-1.94E-4,0.058814,0.010088,0.0,1.0,2391.060547
54.210182,-87.467064,-86.273621,2.950728,0.018205,2.950728,0.018205,-89.999855,-90.0,2.985494,20.251478,7.303282,297.642792,291.274506,0.00497,-0.01682,16.248442,-2.36E-4,0.058927,0.01095,0.0,1.0,2395.363037
55.122761,-87.434914,-86.24147,2.957393,0.020394,2.957393,0.020394,-89.999855,-90.0,3.022404,20.911077,7.451602,297.641754,291.645691,0.006643,-0.014322,16.964495,-2.6E-4,0.059015,0.011218,0.0,1.0,2401.832275
55.731266,-87.412888,-86.219444,2.961963,0.021963,2.961963,0.021963,-89.999855,-90.0,3.047425,21.353722,7.550952,297.64328,291.849915,0.008602,-0.012536,17.403013,-2.91E-4,0.059148,0.01127,0.0,1.0,2406.155273
56.644154,-87.379013,-86.185562,2.968409,0.024699,2.968409,0.024699,-89.999855,-90.0,3.085575,22.021942,7.699708,297.643921,292.090729,0.011877,-0.010463,18.01576,-3.14E-4,0.059239,0.011194,0.0,1.0,2412.655029
57.252754,-87.355904,-86.16246,2.972765,0.026896,2.972765,0.026896,-89.999855,-90.0,3.111422,22.470196,7.798823,297.640656,292.207642,0.013713,-0.009847,18.400446,-3.53E-4,0.059368,0.011162,0.0,1.0,2416.998535
58.165749,-87.320518,-86.127075,2.97897,0.03077,2.97897,0.03077,-89.999855,-90.0,3.150813,23.146622,7.950359,297.626953,292.318542,0.015143,-0.010419,20.397196,-3.84E-4,0.059455,0.011325,0.0,1.0,2423.529053
58.748226,-87.297485,-86.104034,2.982702,0.034077,2.982702,0.034077,-89.999855,-90.0,3.176297,23.581261,7.979635,297.611786,292.349731,0.014963,-0.011731,21.90205,-4.4E-4,0.059579,0.01201,0.0,1.0,2427.710205
59.684925,-87.259743,-86.066299,2.988611,0.039444,2.988611,0.039444,-89.999855,-90.0,3.217506,24.284388,8.088397,297.57843,292.33728,0.012776,-0.014979,15.263676,-4.87E-4,0.059654,0.012769,0.0,1.0,2434.44751
60.291851,-87.234886,-86.041435,2.99314,0.042595,2.99314,0.042595,-89.999855,-90.0,3.244654,24.742983,8.189857,297.552094,292.289551,0.010325,-0.017558,15.030985,-5.63E-4,0.059772,0.014436,0.0,1.0,2438.83374
61.201523,-87.197014,-86.003571,3.001716,0.046234,3.001716,0.046234,-89.999855,-90.0,3.286201,25.43446,8.580622,297.511169,292.16272,0.005713,-0.02117,21.328234,-6.08E-4,0.059863,0.015753,0.0,1.0,2445.51123
61.806389,-87.171219,-85.977768,3.008936,0.047878,3.008936,0.047878,-89.999855,-90.0,3.315702,25.897758,8.897293,297.484955,292.043579,0.002753,-0.023106,14.731709,-6.6E-4,0.060034,0.017799,0.0,1.0,2450.010986
62.712826,-87.131439,-85.937996,3.022022,0.051445,3.022022,0.051445,-89.999855,-90.0,3.3618,26.596054,9.930244,297.452423,291.817291,-0.001059,-0.024547,19.744902,-6.84E-4,0.060179,0.01911,0.0,1.0,2456.806396
63.315529,-87.103874,-85.910431,3.028639,0.053833,3.028639,0.053833,-89.999855,-90.0,3.395094,27.063736,10.030197,297.435944,291.637482,-0.002808,-0.024575,18.2306,-7.35E-4,0.06044,0.020737,0.0,1.0,2461.356689
64.218758,-87.060867,-85.867416,3.034129,0.057012,3.034129,0.057012,-89.999855,-90.0,3.445639,27.768372,10.180494,297.420258,291.329559,-0.003788,-0.023206,13.434204,-7.69E-4,0.060573,0.021561,0.0,1.0,2468.202393
64.820053,-87.031235,-85.837784,3.038248,0.06087,3.038248,0.06087,-89.999855,-90.0,3.479775,28.240131,10.290831,297.410095,291.102142,-0.00402,-0.022622,20.029156,-8.14E-4,0.060683,0.0,0.0,1.0,2472.776123
65.721573,-86.985527,-85.792084,3.043631,0.06729,3.043631,0.06729,-89.999855,-90.0,3.531667,28.95068,10.453956,297.321411,290.733337,-0.007389,-0.033802,13.951977,-8.7E-4,0.060765,5.08E-4,0.0,1.0,2479.648438
66.322899,-86.954285,-85.760841,3.049203,0.070929,3.049203,0.070929,-89.999855,-90.0,3.567148,29.426266,10.90009,297.214142,290.471954,-0.012901,-0.047775,14.357985,-9.61E-4,0.060873,0.004942,0.0,1.0,2484.23877
67.22435,-86.905968,-85.712524,3.056164,0.070341,3.056164,0.070341,-89.999855,-90.0,3.623259,30.142403,11.302311,297.017609,290.060608,-0.026885,-0.07161,15.159602,-0.001013,0.060984,0.010306,0.0,1.0,2491.139404
67.823448,-86.872772,-85.679329,3.059949,0.067209,3.059949,0.067209,-89.999855,-90.0,3.661152,30.621597,11.422227,296.884888,289.775665,-0.03792,-0.085672,15.638287,-0.001005,0.061123,0.020132,0.0,1.0,2495.746582
68.719551,-86.821655,-85.628204,3.063144,0.051917,3.063144,0.051917,-89.999855,-90.0,3.719485,31.34288,12.155188,296.731689,289.33609,-0.05373,-0.096957,16.333359,-9.6E-4,0.061199,0.026768,0.0,1.0,2502.659912
69.316917,-86.78643,-85.592987,3.048316,-0.005445,3.048316,-0.005445,-89.999855,-90.0,3.762411,31.825317,14.032642,296.676208,289.037567,-0.062186,-0.097282,17.060612,-7.42E-4,0.061263,0.034428,0.0,1.0,2507.272217
70.214714,-86.730278,-85.536827,2.980015,-0.17172,2.980015,-0.17172,-89.999855,-90.0,3.836007,32.551239,15.085223,296.683716,288.587921,-0.066785,-0.085267,18.928774,7.8E-5,0.060966,0.037202,0.0,1.0,2514.205322
70.81591,-86.690353,-85.49691,2.915942,-0.313004,2.915942,-0.313004,-89.999855,-90.0,3.88644,33.036697,15.070016,296.74527,288.291931,-0.062809,-0.070094,24.023418,0.002453,0.0596,0.036827,0.0,1.0,2518.844971
71.714233,-86.627548,-85.434105,2.847057,-0.49313,2.847057,-0.49313,-89.999855,-90.0,3.960895,33.767124,14.738707,296.886688,287.863312,-0.047251,-0.042003,18.45228,0.004471,0.058319,0.033749,0.0,1.0,2525.825439
72.308472,-86.584312,-85.390869,2.817909,-0.586903,2.817909,-0.586903,-89.999855,-90.0,4.010016,34.255466,14.701794,296.983734,287.593048,-0.032587,-0.024833,23.011139,0.007045,0.056941,0.026679,0.0,1.0,2530.47876
73.194344,-86.517952,-85.324509,2.78607,-0.706116,2.78607,-0.706116,-89.999855,-90.0,4.083978,34.989887,14.953785,297.071259,287.218445,-0.009149,-0.011294,20.343424,0.008384,0.056358,0.021826,0.0,1.0,2537.443359
73.783623,-86.472778,-85.279335,2.756164,-0.797915,2.756164,-0.797915,-89.999855,-90.0,4.134486,35.480679,15.301373,297.067932,286.992554,0.004579,-0.013552,19.278128,0.010087,0.055721,0.01745,0.0,1.0,2542.076904
74.668747,-86.403488,-85.210045,2.694339,-0.970914,2.694339,-0.970914,-89.999855,-90.0,4.212263,36.218525,15.795173,296.9552,286.693634,0.01946,-0.034218,19.875257,0.011399,0.055123,0.017616,0.0,1.0,2549.025146
75.260857,-86.356209,-85.162766,2.64157,-1.114686,2.64157,-1.114686,-89.999855,-90.0,4.265527,36.711506,16.142159,296.817749,286.522552,0.024466,-0.056628,20.300272,0.01387,0.053887,0.023253,0.0,1.0,2553.664551
76.148499,-86.283119,-85.089676,2.607458,-1.362964,2.607458,-1.362964,-89.999855,-90.0,4.352604,37.452583,18.91111,296.56604,286.309448,0.024585,-0.093661,21.299202,0.015924,0.052831,0.030125,0.0,1.0,2560.642578
76.735268,-86.23159,-85.038147,2.650731,-1.574362,2.650731,-1.574362,-89.999855,-90.0,4.425615,37.948284,25.541725,296.396332,286.196014,0.021467,-0.116454,24.946123,0.019471,0.052149,0.042711,0.0,1.0,2565.300293
77.597572,-86.141304,-84.947861,2.78463,-1.898012,2.78463,-1.898012,-79.999855,-80.0,4.600605,38.695339,45.780384,296.199219,286.065979,0.01533,-0.137169,21.106722,0.022491,0.053015,0.051196,0.0,1.0,2572.271973
78.154495,-86.062912,-84.869469,2.899979,-2.08364,2.899979,-2.08364,-79.999855,-80.0,4.78503,39.193958,64.712364,296.121948,286.003693,0.012643,-0.139978,26.876238,0.027114,0.055693,0.061052,0.0,1.0,2576.891113
78.956345,-85.897789,-84.704346,3.0741,-2.246847,3.0741,-2.246847,-79.999855,-80.0,5.190999,39.942127,97.204285,296.094147,285.942383,0.012807,-0.12723,39.962132,0.029766,0.058,0.064916,0.0,1.0,2583.738281
79.465508,-85.744385,-84.550941,3.203515,-2.261888,3.203515,-2.261888,-79.999855,-80.0,5.554314,40.440666,120.063774,296.115692,285.920227,0.016741,-0.111513,51.296745,0.032098,0.061482,0.066306,0.0,1.0,2588.224121
80.18821,-85.432274,-84.238831,3.388307,-2.135315,3.388307,-2.135315,-79.999855,-80.0,6.244264,41.18729,154.777664,296.159302,285.909943,0.027337,-0.085969,71.532555,0.032313,0.06407,0.065228,0.0,1.0,2594.252197
80.643074,-85.161072,-83.967621,3.51353,-1.972217,3.51353,-1.972217,-79.999855,-80.0,6.799266,41.683735,177.304642,296.166962,285.914825,0.036001,-0.07282,86.68177,0.030505,0.067766,0.063048,0.0,1.0,2597.49292
81.291588,-84.650047,-83.456604,3.665268,-1.676143,3.665268,-1.676143,-79.999855,-80.0,7.768625,42.425591,209.061829,296.114136,285.932892,0.048353,-0.064527,111.071716,0.028175,0.070271,0.062665,0.0,1.0,2601.552979
81.705566,-84.236458,-83.043015,3.757742,-1.477599,3.757742,-1.477599,-79.999855,-80.0,8.500703,42.917854,229.353409,296.033691,285.947937,0.054106,-0.066726,127.99614,0.023945,0.073305,0.065306,0.0,1.0,2603.880127
82.302299,-83.503738,-82.310295,3.879297,-1.246635,3.879297,-1.246635,-79.999855,-80.0,9.722773,43.652168,258.26239,295.875031,285.967834,0.057893,-0.076769,153.901611,0.021109,0.075155,0.069328,0.0,1.0,2606.980225
82.685036,-82.939362,-81.745918,3.966691,-1.140245,3.966691,-1.140245,-79.999855,-80.0,10.615726,44.138683,276.781494,295.768219,285.975525,0.057533,-0.083649,171.340637,0.017809,0.077586,0.077261,0.0,1.0,2608.856445
83.236298,-81.979492,-80.786049,4.091166,-1.05217,4.091166,-1.05217,-79.999855,-80.0,12.069735,44.863422,303.794495,295.659088,285.973022,0.054898,-0.085932,197.42569,0.016289,0.079334,0.082602,0.0,1.0,2611.4646
83.586891,-81.264595,-80.071144,4.179439,-1.009835,4.179439,-1.009835,-79.999855,-80.0,13.112405,45.342937,321.103882,295.635742,285.959534,0.05402,-0.079752,214.695862,0.015031,0.081823,0.088059,0.0,1.0,2613.094482
84.08786,-80.081093,-78.88765,4.302055,-0.927381,4.302055,-0.927381,-79.999855,-80.0,14.788808,46.056202,349.331696,295.678406,285.918823,0.056201,-0.05904,240.378082,0.014426,0.083589,0.089226,0.0,1.0,2615.406982
84.403099,-79.217537,-78.024094,4.399104,-0.835733,4.399104,-0.835733,-79.999855,-80.0,15.989045,46.527378,370.334045,295.74176,285.877228,0.060918,-0.040763,257.566376,0.013248,0.086041,0.087093,0.0,1.0,2616.872314
84.844955,-77.806656,-76.613213,4.557152,-0.637929,4.557152,-0.637929,-79.999855,-80.0,17.92738,47.227032,403.630707,295.839691,285.792145,0.071855,-0.015223,283.951172,0.011939,0.087982,0.083925,0.0,1.0,2618.966309
85.120476,-76.786591,-75.593147,4.66634,-0.474793,4.66634,-0.474793,-79.999855,-80.0,19.307158,47.688404,423.14566,295.881927,285.719574,0.080182,-0.003375,302.009735,0.009113,0.091143,0.079028,0.0,1.0,2620.297363
85.517052,-75.137573,-73.94413,4.76722,-0.235483,4.76722,-0.235483,-69.999855,-70.0,21.487118,48.372456,447.102692,295.882996,285.585602,0.091248,0.002255,329.196533,0.006783,0.093327,0.076917,0.0,1.0,2622.206299
85.775833,-73.961914,-72.768471,4.810161,-0.101891,4.810161,-0.101891,-69.999855,-70.0,23.001831,48.823025,461.033264,295.845001,285.479279,0.09562,-0.001055,346.919922,0.003364,0.095344,0.076863,0.0,1.0,2623.429688
86.157372,-72.090996,-70.897552,4.868739,0.013717,4.868739,0.013717,-69.999855,-70.0,25.356655,49.490582,480.058014,295.759979,285.294617,0.097101,-0.011442,372.425751,0.001456,0.096203,0.078763,0.0,1.0,2625.204834
86.406235,-70.776276,-69.582832,4.922543,0.038988,4.922543,0.038988,-69.999855,-70.0,26.978331,49.930061,492.542419,295.707733,285.15506,0.095322,-0.017783,388.604309,-1.96E-4,0.097375,0.083014,0.0,1.0,2626.353516
86.768356,-68.709373,-67.515923,5.010241,0.017797,5.010241,0.017797,-69.999855,-70.0,29.491356,50.58083,512.334534,295.676239,284.922211,0.091072,-0.019852,411.678375,-5.57E-4,0.098451,0.085626,0.0,1.0,2628.027832
87.000839,-67.269615,-66.076164,5.074757,-0.006854,5.074757,-0.006854,-69.999855,-70.0,31.22328,51.008965,526.406189,295.696167,284.75235,0.089312,-0.014811,426.530975,-2.54E-4,0.100205,0.087201,0.0,1.0,2629.112305
87.33429,-65.019554,-63.826107,5.165124,-0.013691,5.165124,-0.013691,-59.999859,-60.0,33.911133,51.642414,548.091248,295.778473,284.478424,0.090168,5.96E-4,448.227692,9.8E-5,0.101495,0.086205,0.0,1.0,2630.691162
87.546249,-63.459637,-62.266193,5.230277,0.016425,5.230277,0.016425,-59.999859,-60.0,35.763134,52.058784,562.604553,295.850769,284.285034,0.093457,0.012967,462.455688,1.96E-4,0.103302,0.082089,0.0,1.0,2631.711426
87.850815,-61.030834,-59.837387,5.318744,0.112882,5.318744,0.112882,-59.999859,-60.0,38.633022,52.674274,584.699341,295.940796,283.9823,0.100923,0.027218,483.563171,-2.35E-4,0.104606,0.078474,0.0,1.0,2633.194092
88.046394,-59.3522,-58.158756,5.380215,0.194223,5.380215,0.194223,-59.999859,-60.0,40.607407,53.07848,599.375671,295.971313,283.773926,0.105715,0.031181,497.55423,-0.001613,0.106375,0.073973,0.0,1.0,2634.153076
88.332108,-56.744083,-55.550636,5.461355,0.295838,5.461355,0.295838,-59.999859,-60.0,43.659969,53.675545,620.836975,295.9599,283.454132,0.11027,0.026951,518.57019,-0.002775,0.107604,0.072447,0.0,1.0,2635.552002
88.518402,-54.946255,-53.752811,5.516962,0.33188,5.516962,0.33188,-49.999859,-50.0,45.753582,54.067432,634.804565,295.923492,283.237396,0.110273,0.019354,532.498718,-0.004226,0.109227,0.073018,0.0,1.0,2636.462402
88.791748,-52.161831,-50.968388,5.593697,0.317971,5.593697,0.317971,-49.999859,-50.0,48.980953,54.646069,655.423462,295.861237,282.908691,0.106234,0.006903,553.23999,-0.004741,0.110339,0.074838,0.0,1.0,2637.799316
88.968849,-50.247715,-49.054272,5.650492,0.273879,5.650492,0.273879,-49.999859,-50.0,51.189125,55.025734,668.988586,295.835571,282.688324,0.10208,0.001499,566.950439,-0.004542,0.111874,0.077951,0.0,1.0,2638.672607
89.224709,-47.290848,-46.097404,5.732445,0.190412,5.732445,0.190412,-49.999859,-50.0,54.586655,55.586094,689.397888,295.847321,282.358215,0.096309,0.002002,587.328674,-0.003913,0.11301,0.079234,0.0,1.0,2639.955322
89.38726,-45.262943,-44.0695,5.792816,0.14624,5.792816,0.14624,-39.999859,-40.0,56.908218,55.953568,703.070374,295.889252,282.140045,0.094491,0.007889,600.798096,-0.00272,0.114649,0.078647,0.0,1.0,2640.790283
89.618355,-42.136631,-40.943188,5.876775,0.131764,5.876775,0.131764,-39.999859,-40.0,60.476768,56.495529,723.694458,295.979645,281.818665,0.095581,0.0209,620.861877,-0.002089,0.115856,0.07655,0.0,1.0,2642.009521
89.764122,-39.998512,-38.805069,5.935924,0.156988,5.935924,0.156988,-39.999859,-40.0,62.912693,56.850628,737.36377,296.039154,281.610077,0.098361,0.029011,633.972412,-0.001882,0.117536,0.072031,0.0,1.0,2642.799072
89.973274,-36.703659,-35.510216,6.013354,0.228872,6.013354,0.228872,-39.999859,-40.0,66.651802,57.373886,757.528198,296.0914,281.308319,0.103522,0.034422,653.958313,-0.002243,0.118718,0.069055,0.0,1.0,2643.947754
90.108192,-34.451683,-33.25824,6.065605,0.277998,6.065605,0.277998,-29.999857,-30.0,69.199364,57.716465,770.486816,296.093842,281.115601,0.105732,0.032487,667.173035,-0.00327,0.120267,0.066443,0.0,1.0,2644.692139
90.306076,-30.991753,-29.798309,6.133053,0.314428,6.133053,0.314428,-29.999857,-30.0,73.100288,58.220993,789.104431,296.055939,280.840485,0.105703,0.022704,686.806519,-0.003971,0.121312,0.066321,0.0,1.0,2645.781494
90.435356,-28.63307,-27.439627,6.179651,0.305071,6.179651,0.305071,-29.999857,-30.0,75.751091,58.551182,800.889404,296.018738,280.666718,0.103112,0.014496,699.606201,-0.004492,0.122661,0.068216,0.0,1.0,2646.492188
90.624527,-25.01391,-23.820467,6.243012,0.24355,6.243012,0.24355,-19.999857,-20.0,79.799728,59.037334,817.903381,295.980927,280.421082,0.096938,0.005696,718.765991,-0.004358,0.123593,0.070076,0.0,1.0,2647.537354
90.746635,-22.550362,-21.356918,6.288898,0.18755,6.288898,0.18755,-19.999857,-20.0,82.545097,59.355412,828.900757,295.98175,280.2677,0.092934,0.0044,731.27179,-0.003479,0.12486,0.071967,0.0,1.0,2648.220215
90.921738,-18.78116,-17.587717,6.353226,0.120357,6.353226,0.120357,-19.999857,-20.0,86.731697,59.823528,845.179504,296.028076,280.054108,0.089226,0.010122,749.611328,-0.002679,0.125778,0.071925,0.0,1.0,2649.222168
91.032074,-16.221952,-15.028508,6.399693,0.101019,6.399693,0.101019,-19.999857,-20.0,89.567497,60.12962,855.912048,296.079926,279.92337,0.089192,0.017236,761.443237,-0.001719,0.127065,0.069609,0.0,1.0,2649.873535
91.189056,-12.310591,-11.117146,6.461965,0.123023,6.461965,0.123023,-9.999858,-10.0,93.888275,60.579746,871.828186,296.156342,279.745819,0.092205,0.027281,779.013855,-0.001443,0.127994,0.067017,0.0,1.0,2650.822266
91.288994,-9.656452,-8.463008,6.504337,0.160519,6.504337,0.160519,-9.999858,-10.0,96.812248,60.873829,882.148804,296.190338,279.640228,0.094975,0.030873,790.513367,-0.001757,0.129239,0.063196,0.0,1.0,2651.425537
91.434479,-5.608001,-4.414557,6.557711,0.219489,6.557711,0.219489,-9.999858,-10.0,101.261742,61.306004,897.019836,296.197174,279.501129,0.098086,0.028669,807.381287,-0.002293,0.130087,0.061496,0.0,1.0,2652.285889
91.529724,-2.867135,-1.673691,6.593296,0.242493,6.593296,0.242493,1.42E-4,0.0,104.268051,61.588211,906.365173,296.17572,279.420898,0.098075,0.022976,818.238831,-0.003136,0.131154,0.061154,0.0,1.0,2652.836426
91.670387,1.432312,2.625757,6.639488,0.230122,6.639488,0.230122,1.42E-4,0.0,108.834473,62.002804,919.62738,296.128143,279.318268,0.09478,0.01222,834.314758,-0.003464,0.131866,0.062227,0.0,1.0,2653.635742
91.762955,4.397691,5.591136,6.672123,0.194088,6.672123,0.194088,1.42E-4,0.0,111.914436,62.273487,928.009155,296.10321,279.260956,0.091093,0.006517,844.82782,-0.003287,0.13279,0.064606,0.0,1.0,2654.154297
91.897911,8.90718,10.100624,6.717646,0.121489,6.717646,0.121489,10.000142,10.0,116.586113,62.671074,940.211487,296.101318,279.190521,0.08544,0.004297,860.095337,-0.002773,0.133442,0.065852,0.0,1.0,2654.913818
91.984009,11.952037,13.145481,6.751236,0.078553,6.751236,0.078553,10.000142,10.0,119.733955,62.930561,948.200134,296.126953,279.153442,0.083132,0.00735,869.881531,-0.001736,0.134353,0.065947,0.0,1.0,2655.407471
92.106483,16.578251,17.771696,6.798078,0.052724,6.798078,0.052724,20.000143,20.0,124.50576,63.311485,960.12085,296.191223,279.112122,0.082795,0.016128,884.225647,-0.001122,0.135025,0.064665,0.0,1.0,2656.127197
92.220924,21.270964,22.464409,6.846242,0.076177,6.846242,0.076177,20.000143,20.0,129.336578,63.682476,971.88562,296.255371,279.087341,0.085659,0.024435,898.044373,-7.53E-4,0.135962,0.061452,0.0,1.0,2656.820557
92.293968,24.435413,25.628857,6.873566,0.110321,6.873566,0.110321,20.000143,20.0,132.589569,63.924309,979.495361,296.279053,279.079529,0.088247,0.026566,906.997131,-9.04E-4,0.136623,0.05918,0.0,1.0,2657.268311
92.400764,29.234568,30.428011,6.913947,0.159159,6.913947,0.159159,30.000143,30.0,137.515198,64.278915,990.38269,296.276764,279.07959,0.09046,0.023398,920.066223,-0.001576,0.137471,0.05706,0.0,1.0,2657.920654
92.471207,32.468018,33.661461,6.936258,0.172705,6.936258,0.172705,30.000143,30.0,140.828491,64.509964,997.199463,296.253967,279.086517,0.090115,0.017818,928.544617,-0.002079,0.138031,0.056885,0.0,1.0,2658.344971
92.576164,37.36726,38.560703,6.970669,0.153624,6.970669,0.153624,40.000141,40.0,145.839371,64.848679,1006.809875,296.210449,279.105286,0.086642,0.008327,940.899536,-0.002467,0.138725,0.058315,0.0,1.0,2658.969238
92.619843,40.664879,41.858322,6.994009,0.117182,6.994009,0.117182,40.000141,40.0,149.205948,65.069351,1012.841675,296.19104,279.122253,0.08302,0.003884,948.883301,-0.002195,0.139413,0.06049,0.0,1.0,2659.366455
92.678566,45.655155,46.848598,7.025065,0.048212,7.025065,0.048212,50.000141,50.0,154.291809,65.392815,1021.109924,296.198792,279.152802,0.077557,0.003621,960.396301,-0.001674,0.13988,0.061461,0.0,1.0,2659.912598
92.715576,49.009247,50.20269,7.047531,0.008958,7.047531,0.008958,50.000141,50.0,157.704483,65.603516,1026.28064,296.230377,279.175903,0.075466,0.007753,967.728149,-6.89E-4,0.140501,0.061073,0.0,1.0,2660.250732
92.76664,54.084404,55.277847,7.078045,-0.011874,7.078045,-0.011874,50.000141,50.0,162.855347,65.912224,1033.771362,296.299896,279.213928,0.075495,0.017357,978.525146,-1.28E-4,0.140951,0.059494,0.0,1.0,2660.726563
92.79808,57.49329,58.686737,7.098821,-2.9E-5,7.098821,-2.9E-5,60.000141,60.0,166.30957,66.113182,1038.570801,296.346039,279.241272,0.077296,0.023377,985.404602,1.7E-4,0.141561,0.056018,0.0,1.0,2661.025391
92.842934,62.641663,63.835106,7.123612,0.043315,7.123612,0.043315,60.000141,60.0,171.520248,66.407417,1045.376587,296.386078,279.284668,0.0809,0.027127,995.198059,0.0,0.141976,0.053711,0.0,1.0,2661.450195
92.872215,66.097893,67.291336,7.138742,0.071976,7.138742,0.071976,70.000145,70.0,175.01207,66.598846,1049.514526,296.387329,279.314636,0.082305,0.025293,1001.505371,-6.19E-4,0.142472,0.051709,0.0,1.0,2661.720947
92.887161,71.314568,72.508011,7.155875,0.085146,7.155875,0.085146,70.000145,70.0,180.274368,66.879059,1055.093262,296.357574,279.359894,0.081671,0.017337,1010.515198,-0.001028,0.142775,0.051646,0.0,1.0,2662.114258
92.887161,74.812592,76.006035,7.166942,0.067487,7.166942,0.067487,70.000145,70.0,183.797119,67.061363,1058.392456,296.329498,279.389496,0.079189,0.010923,1016.21936,-0.001216,0.143118,0.053134,0.0,1.0,2662.37085
92.887161,80.086472,81.279915,7.182034,0.006761,7.182034,0.006761,80.000145,80.0,189.100998,67.328255,1062.954102,296.303619,279.431671,0.073753,0.00445,1024.245239,-9.64E-4,0.143339,0.054538,0.0,1.0,2662.749756
92.887161,83.618568,84.812012,7.193726,-0.04302,7.193726,-0.04302,80.000145,80.0,192.649216,67.501907,1065.86377,296.307434,279.457794,0.070408,0.00383,1029.242554,-9.7E-5,0.143641,0.055832,0.0,1.0,2662.999023
92.887161,88.943657,90.1371,7.211535,-0.099567,7.211535,-0.099567,90.000145,90.0,197.989822,67.756081,1070.251099,296.346771,279.4935,0.067491,0.00866,1036.474854,6.15E-4,0.143875,0.055641,0.0,1.0,2663.367188
92.887161,92.509628,93.703072,7.225038,-0.115739,7.225038,-0.115739,90.000145,90.0,201.562469,67.921387,1073.237061,296.386841,279.514923,0.067578,0.014046,1041.047119,0.001422,0.144231,0.053674,0.0,1.0,2663.607178
92.887161,97.880127,99.07357,7.242849,-0.100627,7.242849,-0.100627,100.000145,100.0,206.940323,68.16317,1077.749878,296.440643,279.543579,0.07003,0.020829,1047.510254,0.001653,0.144501,0.051671,0.0,1.0,2663.95752
92.887161,101.473289,102.666733,7.254221,-0.07534,7.254221,-0.07534,100.000145,100.0,210.537888,68.320297,1080.667725,296.460358,279.560394,0.072029,0.022509,1051.535889,0.001438,0.144857,0.048981,0.0,1.0,2664.18457
92.887161,106.885056,108.078499,7.266721,-0.040841,7.266721,-0.040841,110.000145,110.0,215.95195,68.549995,1084.744873,296.454895,279.581818,0.0738,0.019119,1057.391113,0.001076,0.145084,0.047995,0.0,1.0,2664.51709
92.887161,110.505768,111.699211,7.274156,-0.033587,7.274156,-0.033587,110.000145,110.0,219.572021,68.699219,1087.175781,296.432831,279.593323,0.073174,0.013947,1061.107544,5.83E-4,0.145334,0.048268,0.0,1.0,2664.735107
92.887161,115.953964,117.147408,7.283354,-0.059218,7.283354,-0.059218,120.000145,120.0,225.016571,68.917381,1090.472656,296.393982,279.605682,0.06972,0.005599,1066.359863,4.8E-4,0.145483,0.049371,0.0,1.0,2665.059814
92.887161,119.598473,120.791916,7.290336,-0.095356,7.290336,-0.095356,120.000145,120.0,228.655029,69.059128,1092.513672,296.377441,279.610413,0.066542,0.001867,1069.742798,8.46E-4,0.145667,0.051314,0.0,1.0,2665.275146
92.887161,125.081207,126.274651,7.301683,-0.155543,7.301683,-0.155543,120.000145,120.0,234.125412,69.266365,1095.555176,296.38324,279.611969,0.062254,0.001693,1074.547729,0.001362,0.145807,0.052141,0.0,1.0,2665.59668
92.887161,128.746475,129.939911,7.311122,-0.186274,7.311122,-0.186274,130.000137,130.0,237.780884,69.400986,1097.65979,296.407104,279.609467,0.060878,0.004924,1077.582642,0.002222,0.146034,0.051851,0.0,1.0,2665.809082
92.887161,134.258942,135.452393,7.325122,-0.197754,7.325122,-0.197754,130.000137,130.0,243.277664,69.597672,1100.972046,296.456757,279.600983,0.061427,0.011972,1081.91333,0.002661,0.146222,0.050658,0.0,1.0,2666.121826
92.887161,137.93869,139.132126,7.334891,-0.184249,7.334891,-0.184249,140.000137,140.0,246.951462,69.725334,1103.231079,296.486755,279.59256,0.063106,0.015968,1084.416504,0.002825,0.146502,0.048175,0.0,1.0,2666.325439
92.887161,143.477631,144.671066,7.346171,-0.146324,7.346171,-0.146324,140.000137,140.0,252.476257,69.91169,1106.540527,296.506104,279.576233,0.066026,0.017487,1088.389282,0.002632,0.146698,0.046675,0.0,1.0,2666.623779
92.887161,147.182022,148.375458,7.352675,-0.123408,7.352675,-0.123408,150.000137,150.0,256.168274,70.03257,1108.571533,296.49884,279.56308,0.066985,0.015146,1091.077271,0.00209,0.146923,0.045708,0.0,1.0,2666.818848
92.887161,152.751678,153.945129,7.359653,-0.115172,7.359653,-0.115172,150.000137,150.0,261.718353,70.208977,1111.304321,296.466583,279.540009,0.066134,0.008225,1094.929443,0.001763,0.147053,0.046071,0.0,1.0,2667.107666
92.887161,156.47319,157.666641,7.364285,-0.130238,7.364285,-0.130238,160.000137,160.0,265.425537,70.323395,1112.925659,296.441833,279.522278,0.064057,0.003311,1097.386597,0.001645,0.147193,0.047684,0.0,1.0,2667.299316
92.887161,162.065048,163.258499,7.37149,-0.17607,7.37149,-0.17607,160.000137,160.0,270.996124,70.490395,1115.224487,296.422119,279.492279,0.059941,-8.11E-4,1100.793579,0.001861,0.147286,0.048921,0.0,1.0,2667.586182
92.887161,165.490753,166.684189,7.37725,-0.207693,7.37725,-0.207693,160.000137,160.0,274.406006,70.589775,1116.63562,296.425995,279.472046,0.057712,-5.66E-4,1102.890869,0.002515,0.14743,0.049907,0.0,1.0,2667.76123
92.887161,171.418121,172.611557,7.388333,-0.242759,7.388333,-0.242759,170.000137,170.0,280.306274,70.756737,1119.217773,296.45929,279.434326,0.056301,0.004352,1106.294189,0.002967,0.147545,0.049713,0.0,1.0,2668.060303
92.887161,175.169678,176.363113,7.396567,-0.246003,7.396567,-0.246003,170.000137,170.0,284.040009,70.859146,1120.96936,296.489227,279.40918,0.056996,0.008795,1108.384521,0.003468,0.147767,0.048048,0.0,1.0,2668.246338
93.621002,180.803833,181.997269,7.406855,-0.221579,7.406855,-0.221579,180.000137,180.0,289.651794,71.0084,1123.647949,296.524414,279.370483,0.059636,0.013624,1111.222534,0.003514,0.147931,0.046552,0.0,1.0,2668.519043
93.635254,184.569778,185.763229,7.413053,-0.196039,7.413053,-0.196039,180.000137,180.0,293.400269,71.105026,1125.36377,296.532928,279.344421,0.061392,0.014245,1113.234497,0.003165,0.148137,0.044792,0.0,1.0,2668.697021
93.657082,190.228775,191.422226,7.419366,-0.166625,7.419366,-0.166625,190.000137,190.0,299.033325,71.245743,1127.715698,296.518616,279.305267,0.062678,0.010621,1116.145142,0.002801,0.148261,0.044367,0.0,1.0,2668.959229
93.672043,194.005707,195.199158,7.422933,-0.162037,7.422933,-0.162037,190.000137,190.0,302.794769,71.336807,1129.08606,296.496765,279.279205,0.062011,0.00629,1117.906982,0.00238,0.148387,0.045082,0.0,1.0,2669.13208
93.6987,199.678787,200.872238,7.427505,-0.18445,7.427505,-0.18445,200.000137,200.0,308.445038,71.469421,1130.926758,296.464905,279.240204,0.059148,2.33E-4,1120.396729,0.002315,0.148459,0.046175,0.0,1.0,2669.390869
93.711609,203.471603,204.665039,7.431379,-0.212375,7.431379,-0.212375,200.000137,200.0,312.216827,71.555244,1132.085571,296.454193,279.214294,0.056805,-0.001872,1122.272949,0.002635,0.14855,0.047768,0.0,1.0,2669.563477
93.735161,209.168732,210.362167,7.438423,-0.253653,7.438423,-0.253653,210.000137,210.0,317.881805,71.680199,1133.871704,296.463837,279.175873,0.054071,-5.57E-4,1124.91687,0.003034,0.148628,0.048303,0.0,1.0,2669.822021
93.752563,212.970612,214.164047,7.444526,-0.270606,7.444526,-0.270606,210.000137,210.0,321.663574,71.761024,1135.157104,296.485016,279.150879,0.053593,0.002722,1126.507202,0.003624,0.148768,0.047821,0.0,1.0,2669.992676
93.768517,218.519287,219.712723,7.453207,-0.267936,7.453207,-0.267936,220.000137,220.0,327.186707,71.875359,1137.165405,296.522034,279.115906,0.054914,0.008388,1128.595459,0.003866,0.148891,0.046762,0.0,1.0,2670.237549
93.779144,222.490936,223.684372,7.459397,-0.249836,7.459397,-0.249836,220.000137,220.0,331.137817,71.954483,1138.632202,296.542572,279.092407,0.056599,0.011285,1130.221069,0.003828,0.149064,0.044911,0.0,1.0,2670.40918
93.795448,228.220474,229.413925,7.465732,-0.21522,7.465732,-0.21522,230.000137,230.0,336.836304,72.064758,1140.659058,296.549194,279.061188,0.059019,0.011453,1132.598145,0.003569,0.149188,0.043884,0.0,1.0,2670.651123
93.806351,232.043884,233.23732,7.469004,-0.197667,7.469004,-0.197667,230.000137,230.0,340.640625,72.135918,1141.858765,296.537842,279.042145,0.059613,0.008965,1134.05249,0.003075,0.149315,0.043553,0.0,1.0,2670.810059
93.823532,237.784927,238.978363,7.472237,-0.195715,7.472237,-0.195715,240.000137,240.0,346.354065,72.239227,1143.419312,296.507935,279.016113,0.058556,0.003221,1136.109009,0.002824,0.14938,0.044121,0.0,1.0,2671.046631
93.835732,241.617371,242.810806,7.474521,-0.210722,7.474521,-0.210722,240.000137,240.0,350.167053,72.305885,1144.328247,296.488831,279.000305,0.056784,-2.87E-4,1137.466187,0.002796,0.149445,0.045616,0.0,1.0,2671.204346
93.854652,247.376358,248.569809,7.478724,-0.247783,7.478724,-0.247783,250.000137,250.0,355.89209,72.402641,1145.643188,296.477997,278.978821,0.053691,-0.002338,1139.608887,0.00301,0.14949,0.046571,0.0,1.0,2671.441162
93.866676,251.219528,252.412979,7.482769,-0.271966,7.482769,-0.271966,250.000137,250.0,359.712463,72.465042,1146.563843,296.485931,278.965973,0.052307,-0.001127,1140.948608,0.00354,0.149574,0.047113,0.0,1.0,2671.598877
93.883759,256.987366,258.180817,7.491107,-0.314988,7.491107,-0.314988,260.000153,260.0,365.449158,72.555527,1148.083374,296.576111,278.949158,0.039799,0.014285,1142.712769,0.001295,0.149655,0.1,0.0,1.0,2671.83252
93.880142,260.834839,262.02829,7.505189,-0.322961,7.505189,-0.322961,260.000153,260.0,369.278229,72.613708,1149.401001,296.785492,278.940338,0.039231,0.047607,1143.783569,0.0015,0.149822,0.1,0.0,1.0,2671.980469
93.855545,266.618469,267.81192,7.537899,-0.149233,7.537899,-0.149233,270.000153,270.0,375.033142,72.697479,1152.77002,297.221222,278.93399,0.057664,0.113735,1145.693115,0.001538,0.150104,0.1,0.0,1.0,2672.172119
93.827324,270.477783,271.671234,7.559829,0.107101,7.559829,0.107101,270.000153,270.0,378.881042,72.750748,1155.948608,297.510437,278.936615,0.078732,0.154818,1146.891602,7.11E-4,0.150758,0.1,0.0,1.0,2672.269775
93.768768,276.273193,277.466614,7.57304,0.637921,7.57304,0.637921,280.000153,280.0,384.673584,72.826431,1160.763306,297.837067,278.953796,0.113871,0.195002,1148.677612,-5.1E-4,0.151197,0.1,0.0,1.0,2672.368896
93.726883,280.146027,281.339478,7.572417,1.032393,7.572417,1.032393,280.000153,280.0,388.54718,72.874008,1163.179199,297.956116,278.974884,0.134011,0.203811,1150.107544,-0.003038,0.151461,0.1,0.0,1.0,2672.4104
93.678749,285.973755,287.167206,7.563245,1.56608,7.563245,1.56608,290.000153,290.0,394.36911,72.941147,1165.187012,298.000214,279.020477,0.15307,0.193399,1152.739014,-0.004916,0.151448,0.1,0.0,1.0,2672.455811
93.654694,289.86618,291.059601,7.555759,1.846433,7.555759,1.846433,290.000153,290.0,398.253693,72.983261,1165.415161,297.973877,279.059113,0.157088,0.177143,1154.506714,-0.007458,0.151265,0.1,0.0,1.0,2672.484863
93.631744,295.707184,296.900635,7.546889,2.114147,7.546889,2.114147,300.000153,300.0,404.079102,73.042839,1164.586914,297.925751,279.126984,0.152342,0.151451,1156.751465,-0.008793,0.151115,0.1,0.0,1.0,2672.538086
93.619057,299.605286,300.798737,7.540868,2.207216,7.540868,2.207216,300.000153,300.0,407.959351,73.080383,1163.55603,297.927246,279.177582,0.14489,0.140041,1158.161255,-0.010067,0.150938,0.1,0.0,1.0,2672.582764
93.600815,305.462646,306.656097,7.53295,2.263865,7.53295,2.263865,300.000153,300.0,413.772552,73.133713,1161.760254,298.020325,279.260132,0.132997,0.137502,1160.373291,-0.010511,0.150817,0.1,0.0,1.0,2672.664063
93.590866,309.368378,310.561829,7.5281,2.284529,7.5281,2.284529,310.000153,310.0,417.643127,73.167389,1160.661011,298.147278,279.31955,0.127372,0.145832,1161.596802,-0.01078,0.150659,0.1,0.0,1.0,2672.724365
93.574722,315.220337,316.413757,7.523767,2.341774,7.523767,2.341774,310.000153,310.0,423.443115,73.215157,1159.484985,298.413513,279.416138,0.124881,0.169049,1162.760498,-0.010879,0.150562,0.1,0.0,1.0,2672.817139
93.556732,318.956879,320.15033,7.521856,2.412027,7.521856,2.412027,320.000153,320.0,427.146362,73.243935,1159.112549,298.610199,279.483307,0.127203,0.18689,1163.263428,-0.011151,0.150475,0.1,0.0,1.0,2672.873779
93.525848,324.970154,326.163605,7.519425,2.583278,7.519425,2.583278,320.000153,320.0,433.102325,73.287331,1158.960205,298.92807,279.601929,0.134795,0.213424,1164.062622,-0.011486,0.150437,0.1,0.0,1.0,2672.957031
93.505051,328.870758,330.064209,7.517149,2.723513,7.517149,2.723513,330.000153,330.0,436.965576,73.313553,1158.988525,299.11673,279.686523,0.140864,0.226306,1164.490967,-0.012301,0.150388,0.1,0.0,1.0,2673.004639
93.477303,334.716583,335.910034,7.512582,2.942591,7.512582,2.942591,330.000153,330.0,442.760376,73.35006,1158.878174,299.359558,279.825287,0.148765,0.237205,1164.782227,-0.012969,0.150343,0.1,0.0,1.0,2673.069092
93.458313,338.609283,339.802734,7.508512,3.079294,7.508512,3.079294,340.000153,340.0,446.622833,73.372574,1158.563477,299.496674,279.92569,0.152066,0.239533,1164.732788,-0.014012,0.150252,0.1,0.0,1.0,2673.110107
93.430267,344.451172,345.644592,7.502081,3.243623,7.502081,3.243623,340.000153,340.0,452.413544,73.403732,1157.661255,299.681274,280.087494,0.153482,0.238561,1164.853516,-0.014663,0.15017,0.1,0.0,1.0,2673.173096
93.416664,348.346313,349.539764,7.496991,3.324156,7.496991,3.324156,350.000153,350.0,456.270996,73.422867,1156.798218,299.802887,280.202423,0.152374,0.23722,1164.960938,-0.015446,0.150042,0.1,0.0,1.0,2673.218506
93.402039,354.18103,355.374451,7.489566,3.40324,7.489566,3.40324,350.000153,350.0,462.051086,73.44928,1155.247437,300.00235,280.384552,0.149038,0.237305,1164.716309,-0.015829,0.14994,0.1,0.0,1.0,2673.29248
93.387611,358.068481,359.261902,7.484133,3.438293,7.484133,3.438293,360.000153,360.0,465.900024,73.465454,1154.156982,300.153534,280.512115,0.14664,0.239871,1164.507324,-0.016206,0.149791,0.1,0.0,1.0,2673.345947
93.371361,363.893555,365.087006,7.477027,3.480633,7.477027,3.480633,360.000153,360.0,471.666718,73.487656,1152.602051,300.409912,280.712494,0.14412,0.247653,1163.994507,-0.016373,0.149683,0.1,0.0,1.0,2673.43042
93.360481,367.776642,368.970093,7.4722,3.511872,7.4722,3.511872,370.000153,370.0,475.507141,73.501137,1151.695679,300.596924,280.85202,0.14357,0.254786,1163.724731,-0.016574,0.149541,0.1,0.0,1.0,2673.48877
93.346024,373.593384,374.786835,7.466251,3.571599,7.466251,3.571599,370.000153,370.0,481.262543,73.519417,1150.545532,300.890625,281.070282,0.144485,0.266474,1163.041992,-0.016723,0.149444,0.1,0.0,1.0,2673.57666
93.333397,377.463196,378.656616,7.46233,3.621508,7.46233,3.621508,380.000153,380.0,485.096588,73.530334,1149.908447,301.088196,281.221802,0.14593,0.273782,1162.303833,-0.017008,0.149325,0.1,0.0,1.0,2673.634521
93.310791,383.26474,384.458191,7.457299,3.70532,7.457299,3.70532,380.000153,380.0,490.843903,73.544853,1149.057983,301.378113,281.457916,0.148545,0.282589,1161.307251,-0.017245,0.149247,0.1,0.0,1.0,2673.720215
93.298332,387.133301,388.326752,7.453657,3.763244,7.453657,3.763244,390.000153,390.0,494.673187,73.553314,1148.508789,301.564545,281.621002,0.150086,0.286714,1160.844727,-0.017644,0.149146,0.1,0.0,1.0,2673.777344
93.280968,392.927795,394.121246,7.448538,3.842745,7.448538,3.842745,390.000153,390.0,500.413452,73.564262,1147.610107,301.834686,281.873627,0.151568,0.290538,1159.913086,-0.01792,0.149073,0.1,0.0,1.0,2673.863281
93.271126,396.623932,397.817383,7.444908,3.886534,7.444908,3.886534,400.000153,400.0,504.0784,73.570213,1146.975952,302.003662,282.039612,0.151879,0.291995,1159.165039,-0.018299,0.148971,0.1,0.0,1.0,2673.918945
93.256027,402.567017,403.760437,7.439401,3.941217,7.439401,3.941217,400.000153,400.0,509.969666,73.578148,1145.858887,302.275879,282.313293,0.151495,0.293815,1158.100708,-0.018507,0.148898,0.1,0.0,1.0,2674.011719
93.240608,406.422272,407.615723,7.435396,3.968117,7.435396,3.968117,410.000153,410.0,513.787903,73.582283,1145.084229,302.455963,282.49472,0.150831,0.295241,1157.592285,-0.018768,0.148788,0.1,0.0,1.0,2674.073242
93.194267,412.192993,413.386444,7.43019,3.992417,7.43019,3.992417,410.000153,410.0,519.509155,73.587097,1143.389893,302.738373,282.771912,0.148361,0.298763,1156.414307,-0.018896,0.148708,0.1,0.0,1.0,2674.137207
93.161842,415.876343,417.069794,7.425906,3.997651,7.425906,3.997651,420.000153,420.0,523.159546,73.589371,1142.10022,302.931458,282.951843,0.146337,0.302556,1155.665405,-0.019012,0.148604,0.1,0.0,1.0,2674.162109
93.115456,421.638794,422.832245,7.417488,3.99917,7.417488,3.99917,420.000153,420.0,528.864441,73.591766,1139.875,303.256439,283.237671,0.144026,0.311217,1154.632446,-0.019036,0.148518,0.1,0.0,1.0,2674.185303
93.086807,425.63327,426.826721,7.410204,4.003037,7.410204,4.003037,430.000153,430.0,532.819397,73.592636,1138.222778,303.496033,283.439178,0.143355,0.318726,1153.717529,-0.019044,0.14835,0.1,0.0,1.0,2674.193604
93.041695,431.377441,432.570862,7.400542,4.021271,7.400542,4.021271,430.000153,430.0,538.504272,73.592804,1135.817017,303.852234,283.733765,0.143829,0.330205,1152.312378,-0.019062,0.148204,0.1,0.0,1.0,2674.197754
93.010849,435.041748,436.235199,7.394022,4.041883,7.394022,4.041883,430.000153,430.0,542.130066,73.59227,1134.316406,304.081207,283.924835,0.144897,0.337054,1151.341064,-0.019149,0.148011,0.1,0.0,1.0,2674.196777
92.966576,440.771667,441.965118,7.384645,4.084344,7.384645,4.084344,440.000153,440.0,547.795654,73.590454,1131.99292,304.434082,284.228394,0.146982,0.345843,1149.89624,-0.019247,0.14788,0.1,0.0,1.0,2674.192139
92.939751,444.743073,445.936523,7.3773,4.117243,7.3773,4.117243,440.000153,440.0,551.723267,73.588516,1130.358154,304.672546,284.442322,0.148245,0.350234,1148.727295,-0.019449,0.147693,0.1,0.0,1.0,2674.187744
92.899429,450.451355,451.644806,7.367299,4.161357,7.367299,4.161357,450.000153,450.0,557.368774,73.584831,1127.892578,305.006378,284.754639,0.149496,0.354249,1146.899048,-0.019606,0.147546,0.1,0.0,1.0,2674.181396
92.872581,454.091095,455.284515,7.360279,4.184805,7.360279,4.184805,450.000153,450.0,560.969055,73.581963,1126.258911,305.215485,284.956543,0.149787,0.355768,1145.631836,-0.019816,0.147346,0.1,0.0,1.0,2674.178711
92.834846,459.778961,460.972412,7.349965,4.210415,7.349965,4.210415,460.000153,460.0,566.593567,73.576729,1123.617065,305.541168,285.275818,0.14949,0.357411,1143.637207,-0.019928,0.147206,0.1,0.0,1.0,2674.178223
92.812263,463.723694,464.917145,7.342019,4.220945,7.342019,4.220945,460.000153,460.0,570.491699,73.572624,1121.752319,305.769196,285.499603,0.148924,0.358569,1142.300537,-0.02005,0.146999,0.1,0.0,1.0,2674.181641
92.78299,469.391357,470.584808,7.331413,4.228493,7.331413,4.228493,470.000153,470.0,576.093506,73.566093,1119.061035,306.10379,285.824341,0.147939,0.360862,1140.175415,-0.0201,0.14684,0.1,0.0,1.0,2674.191162
92.761063,473.003326,474.196777,7.324181,4.231233,7.324181,4.231233,470.000153,470.0,579.665466,73.561577,1117.376343,306.321899,286.033203,0.147445,0.36279,1138.659668,-0.020136,0.146628,0.1,0.0,1.0,2674.199951
92.731407,478.645599,479.83905,7.31407,4.236012,7.31407,4.236012,480.000153,480.0,585.245728,73.554016,1114.831909,306.669037,286.36203,0.147108,0.366362,1136.239136,-0.020149,0.146484,0.1,0.0,1.0,2674.217773
92.711021,482.557007,483.750427,7.30675,4.241248,7.30675,4.241248,480.000153,480.0,589.113647,73.548439,1113.150879,306.912659,286.591644,0.14716,0.368974,1134.591064,-0.020171,0.146281,0.1,0.0,1.0,2674.233154
92.682327,488.182526,489.375977,7.297456,4.252121,7.297456,4.252121,490.000153,490.0,594.673401,73.539986,1110.849854,307.264496,286.92392,0.14747,0.372499,1132.394653,-0.020196,0.146135,0.1,0.0,1.0,2674.259521
92.667007,491.922119,493.11557,7.290993,4.261296,7.290993,4.261296,490.000153,490.0,598.373718,73.534088,1109.386108,307.49826,287.146362,0.147827,0.374472,1130.706543,-0.020248,0.145949,0.1,0.0,1.0,2674.278809
92.640755,497.519348,498.712799,7.28247,4.276095,7.28247,4.276095,500.000153,500.0,603.9151,73.524895,1107.264771,307.846283,287.48111,0.148365,0.376693,1128.126343,-0.020292,0.14582,0.1,0.0,1.0,2674.311279
92.629173,501.244141,502.437592,7.276443,4.285445,7.276443,4.285445,500.000153,500.0,607.603638,73.518555,1105.895752,308.076416,287.704865,0.148617,0.37769,1126.445068,-0.020362,0.145649,0.1,0.0,1.0,2674.335205
92.597031,506.82605,508.019501,7.268207,4.296572,7.268207,4.296572,510.000153,510.0,613.127869,73.508766,1103.879761,308.41983,288.040985,0.148665,0.378679,1124.212891,-0.020407,0.145529,0.1,0.0,1.0,2674.375244
92.581947,510.539429,511.73288,7.262344,4.301789,7.262344,4.301789,510.000153,510.0,616.805176,73.502083,1102.558472,308.648407,288.265198,0.148564,0.379156,1122.657715,-0.02046,0.145364,0.1,0.0,1.0,2674.404785
92.561195,515.942322,517.135742,7.254748,4.306352,7.254748,4.306352,520.000122,520.0,622.160095,73.489937,1100.668945,308.982513,288.592102,0.14831,0.379835,1120.256592,-0.020485,0.145247,0.1,0.0,1.0,2674.450928
92.547249,519.640869,520.83429,7.249306,4.307927,7.249306,4.307927,520.000122,520.0,625.826843,73.4813,1099.421143,309.212616,288.816071,0.14811,0.38037,1118.653931,-0.020506,0.145095,0.1,0.0,1.0,2674.485352
92.529076,525.337585,526.531006,7.241677,4.30883,7.241677,4.30883,520.000122,520.0,631.47168,73.467941,1097.571411,309.569458,289.160736,0.147796,0.381399,1116.469238,-0.020514,0.144986,0.1,0.0,1.0,2674.542725
92.513893,529.025696,530.219116,7.236481,4.309224,7.236481,4.309224,530.000122,530.0,635.128296,73.459274,1096.416382,309.802185,289.38385,0.147683,0.382175,1115.015137,-0.020518,0.144834,0.1,0.0,1.0,2674.582275
92.496155,534.39386,535.58728,7.22997,4.31051,7.22997,4.31051,530.000122,530.0,640.453979,73.44664,1094.813599,310.14267,289.708374,0.14765,0.383356,1112.843018,-0.02052,0.14473,0.1,0.0,1.0,2674.642822
92.485954,538.220825,539.414307,7.225136,4.312083,7.225136,4.312083,540.000122,540.0,644.253479,73.437637,1093.736572,310.386078,289.939484,0.147719,0.384139,1111.255005,-0.020526,0.144599,0.1,0.0,1.0,2674.687988
92.466393,543.729126,544.922546,7.218902,4.315015,7.218902,4.315015,540.000122,540.0,649.718323,73.424728,1092.254883,310.736206,290.27124,0.147792,0.385089,1109.363647,-0.020534,0.144503,0.1,0.0,1.0,2674.756836
92.455742,547.396912,548.590332,7.214601,4.317013,7.214601,4.317013,550.000122,550.0,653.357544,73.416168,1091.313965,310.969208,290.491608,0.147836,0.38558,1108.161133,-0.020548,0.144378,0.1,0.0,1.0,2674.804688
92.439995,552.886719,554.080139,7.208954,4.319807,7.208954,4.319807,550.000122,550.0,658.810547,73.403419,1089.954224,311.317993,290.820892,0.147913,0.386112,1106.16272,-0.020557,0.144292,0.1,0.0,1.0,2674.878662
92.432274,556.539246,557.732727,7.204982,4.321305,7.204982,4.321305,560.000122,560.0,662.442261,73.394997,1089.086914,311.550018,291.03952,0.147941,0.386338,1104.75293,-0.020571,0.144179,0.1,0.0,1.0,2674.929688
92.415184,562.01532,563.208801,7.199652,4.322567,7.199652,4.322567,560.000122,560.0,667.884399,73.382492,1087.830811,311.897736,291.366058,0.147879,0.386568,1102.985229,-0.020578,0.1441,0.1,0.0,1.0,2675.009277
92.406281,565.663452,566.856934,7.195918,4.322552,7.195918,4.322552,570.000122,570.0,671.509094,73.374252,1087.027954,312.129608,291.582764,0.147776,0.386701,1101.94104,-0.020584,0.143993,0.1,0.0,1.0,2675.064697
92.395432,571.122559,572.315979,7.191003,4.32183,7.191003,4.32183,570.000122,570.0,676.941223,73.362053,1085.863525,312.477966,291.906372,0.147684,0.386938,1100.058594,-0.020584,0.143918,0.1,0.0,1.0,2675.14917
92.38501,574.606445,575.799866,7.1877,4.321183,7.1877,4.321183,570.000122,570.0,680.408813,73.354378,1085.15564,312.700745,292.112213,0.147629,0.387104,1098.933838,-0.02058,0.14382,0.1,0.0,1.0,2675.20459
92.37188,580.206665,581.400085,7.182965,4.31999,7.182965,4.31999,580.000122,580.0,685.982361,73.342224,1084.069458,313.05957,292.441864,0.147539,0.387405,1097.333862,-0.020577,0.143754,0.1,0.0,1.0,2675.297119
92.364464,583.83844,585.03186,7.179749,4.319064,7.179749,4.319064,580.000122,580.0,689.594788,73.334473,1083.4021,313.292572,292.654755,0.147467,0.387617,1096.496216,-0.020571,0.143659,0.1,0.0,1.0,2675.359131
92.355927,589.276001,590.469421,7.17563,4.317928,7.17563,4.317928,590.000122,590.0,695.009277,73.323074,1082.447388,313.642365,292.972839,0.147446,0.38794,1095.009888,-0.020567,0.143595,0.1,0.0,1.0,2675.453369
92.34848,592.895203,594.088623,7.172773,4.317475,7.172773,4.317475,590.000122,590.0,698.616394,73.315628,1081.848389,313.875458,293.184052,0.147474,0.388116,1093.949219,-0.020562,0.143513,0.1,0.0,1.0,2675.517334
92.335411,598.321838,599.51532,7.168974,4.317007,7.168974,4.317007,600.000122,600.0,704.023438,73.304695,1080.997192,314.224762,293.499756,0.147494,0.388304,1092.630127,-0.020559,0.143455,0.1,0.0,1.0,2675.615723
92.329132,601.939209,603.13269,7.166291,4.316505,7.166291,4.316505,600.000122,600.0,707.625854,73.297569,1080.460938,314.457458,293.709534,0.147458,0.388381,1091.936646,-0.020557,0.143379,0.1,0.0,1.0,2675.683105
92.322289,607.357178,608.550659,7.162774,4.315543,7.162774,4.315543,610.000122,610.0,713.026123,73.28714,1079.685181,314.806366,294.023285,0.147432,0.38846,1090.720825,-0.020555,0.143326,0.1,0.0,1.0,2675.785645
92.316124,610.963013,612.156433,7.160342,4.314866,7.160342,4.314866,610.000122,610.0,716.624207,73.280357,1079.19165,315.038788,294.231873,0.147436,0.388479,1089.784302,-0.02055,0.143255,0.1,0.0,1.0,2675.854736
92.307556,616.369019,617.562439,7.157104,4.313623,7.157104,4.313623,620.000122,620.0,722.018311,73.27047,1078.488892,315.38736,294.544037,0.14741,0.388484,1088.563721,-0.020547,0.143207,0.1,0.0,1.0,2675.960449
92.299438,619.974426,621.167847,7.154834,4.312537,7.154834,4.312537,620.000122,620.0,725.612549,73.264053,1078.048462,315.61972,294.75174,0.147332,0.388483,1088.030884,-0.020541,0.143142,0.1,0.0,1.0,2676.032715
92.294327,625.375061,626.568481,7.151864,4.310611,7.151864,4.310611,620.000122,620.0,731.00116,73.25473,1077.416626,315.968536,295.062805,0.147257,0.388516,1087.033936,-0.020536,0.143097,0.1,0.0,1.0,2676.142334
92.289139,628.970825,630.164307,7.149814,4.309397,7.149814,4.309397,630.000122,630.0,734.591858,73.248703,1077.018555,316.201141,295.269928,0.14724,0.388545,1086.292969,-0.020527,0.143037,0.1,0.0,1.0,2676.216309
