airspeed_indicator_indicated_speed_kt,altimeter_indicated_altitude_ft,altimeter_pressure_alt_ft,attitude_indicator_indicated_pitch_deg,attitude_indicator_indicated_roll_deg,attitude_indicator_internal_pitch_deg,attitude_indicator_internal_roll_deg,encoder_indicated_altitude_ft,encoder_pressure_alt_ft,gps_indicated_altitude_ft,gps_indicated_ground_speed_kt,gps_indicated_vertical_speed,indicated_heading_deg,magnetic_compass_indicated_heading_deg,slip_skid_ball_indicated_slip_skid,turn_indicator_indicated_turn_rate,vertical_speed_indicator_indicated_speed_fpm,flight_aileron,flight_elevator,flight_rudder,flight_flaps,engine_throttle,engine_rpm
6.719235,-87.97345,-86.780006,2.974497,1.365563,2.592831,0.093345,-89.999855,-90.0,2.286627,0.0,0.006331,297.86319,288.684662,0.012476,-0.028304,-18.862326,-0.0,0.0,0.0,0.0,0.0,600.330017
6.762249,-87.977295,-86.783852,2.972779,1.358504,2.59332,0.093642,-89.999855,-90.0,2.286648,0.0,0.006364,297.862396,290.604462,0.012456,-0.025703,-13.158348,-0.0,0.0,0.0,0.0,0.0,600.344604
6.839941,-87.982315,-86.788872,2.763912,0.691469,2.584586,0.093717,-89.999855,-90.0,2.286639,4.1E-5,-0.012963,297.861023,293.573975,0.012284,-0.021948,-12.655552,-0.019407,0.051866,4.0E-5,0.0,1.0,680.560486
6.889503,-87.984726,-86.791283,2.633457,0.325778,2.563498,0.092582,-89.999855,-90.0,2.286565,1.47E-4,-0.033764,297.860107,295.233826,0.012135,-0.019997,-11.862162,-0.009878,0.051692,1.08E-4,0.0,1.0,790.004639
7.0041,-87.987877,-86.794426,2.510171,0.087273,2.510171,0.087273,-89.999855,-90.0,2.286385,8.12E-4,-0.016715,297.858337,297.663727,0.011866,-0.017343,-14.904379,-0.004654,0.05127,1.54E-4,0.0,1.0,1017.836731
7.124233,-87.989464,-86.796021,2.4945,0.081365,2.4945,0.081365,-89.999855,-90.0,2.286396,0.002417,0.022308,297.857086,299.015656,0.011539,-0.015974,-9.570472,-0.001247,0.050203,2.43E-4,0.0,1.0,1171.880981
7.212226,-87.99025,-86.796806,2.492683,0.077244,2.492683,0.077244,-89.999855,-90.0,2.286459,0.004089,0.045689,297.856293,299.723846,0.011353,-0.015289,-14.042216,-0.001247,0.050203,2.43E-4,0.0,1.0,1258.616089
7.22713,-87.990364,-86.796921,2.492748,0.076566,2.492748,0.076566,-89.999855,-90.0,2.286473,0.004409,0.049172,297.85614,299.829163,0.011139,-0.015195,-14.578199,-0.001162,0.04989,3.05E-4,0.0,1.0,1271.827759
8.170261,-87.99379,-86.800346,2.534327,0.043748,2.534327,0.043748,-89.999855,-90.0,2.287797,0.040233,0.179907,297.843597,303.28656,0.007441,-0.012988,-18.164751,-0.001094,0.049855,3.53E-4,0.0,1.0,1738.536499
8.547335,-87.994278,-86.800835,2.550452,0.034263,2.550452,0.034263,-89.999855,-90.0,2.28843,0.061388,0.212968,297.835571,303.950378,0.006711,-0.013204,-7.402028,-6.25E-4,0.050687,9.8E-4,0.0,1.0,1835.331909
9.219978,-87.99472,-86.801277,2.572961,0.020832,2.572961,0.020832,-89.999855,-90.0,2.289658,0.107446,0.274534,297.816986,304.721161,0.004088,-0.01444,-10.687256,-4.89E-4,0.051009,0.001381,0.0,1.0,1956.72522
9.737551,-87.994812,-86.801369,2.586952,0.013014,2.586952,0.013014,-89.999855,-90.0,2.290695,0.149753,0.319954,297.79895,305.066956,0.007778,-0.015965,-11.253591,-2.98E-4,0.051459,0.00231,0.0,1.0,2021.871094
10.538686,-87.994644,-86.801201,2.603697,0.004071,2.603697,0.004071,-89.999855,-90.0,2.292469,0.226817,0.388286,297.766418,305.300293,0.01258,-0.018866,-10.209507,-1.86E-4,0.051739,0.003212,0.0,1.0,2093.003418
11.07792,-87.994354,-86.800911,2.612753,-2.68E-4,2.612753,-2.68E-4,-89.999855,-90.0,2.293786,0.286501,0.434377,297.741394,305.291748,0.015152,-0.021138,-8.081119,-5.8E-5,0.052074,0.004839,0.0,1.0,2127.02417
11.978154,-87.993591,-86.800148,2.624405,-0.005197,2.624405,-0.005197,-89.999855,-90.0,2.296221,0.40015,0.512691,297.69696,305.03363,0.017915,-0.024942,6.119459,4.0E-6,0.052255,0.00609,0.0,1.0,2167.343018
12.578348,-87.992889,-86.799446,2.630782,-0.007279,2.630782,-0.007279,-89.999855,-90.0,2.298019,0.485654,0.564811,297.665497,304.714264,0.019292,-0.027496,11.444039,7.4E-5,0.052488,0.008311,0.0,1.0,2186.053467
13.469785,-87.991592,-86.798149,2.638446,-0.009008,2.638446,-0.009008,-89.999855,-90.0,2.300958,0.627025,0.642053,297.61972,304.050873,0.020721,-0.030708,17.469858,1.04E-4,0.052616,0.009885,0.0,1.0,2205.509277
14.11446,-87.990456,-86.797012,2.643299,-0.009459,2.643299,-0.009459,-89.999855,-90.0,2.303294,0.740054,0.701073,297.587433,303.445129,0.021439,-0.032645,10.725321,1.29E-4,0.052769,0.012173,0.0,1.0,2215.575439
15.023086,-87.988556,-86.795113,2.649283,-0.009068,2.649283,-0.009068,-89.999855,-90.0,2.3069,0.91495,0.781128,297.546143,302.432281,0.02225,-0.034369,5.259472,1.35E-4,0.052866,0.013788,0.0,1.0,2227.002197
15.650225,-87.987045,-86.793602,2.653237,-0.008367,2.653237,-0.008367,-89.999855,-90.0,2.309604,1.045949,0.837703,297.520691,301.639221,0.022683,-0.034949,15.18049,1.3E-4,0.052986,0.015852,0.0,1.0,2233.413574
16.568666,-87.984535,-86.791092,2.658764,-0.007031,2.658764,-0.007031,-89.999855,-90.0,2.313889,1.252837,0.921209,297.490051,300.36026,0.023295,-0.034659,15.042118,1.2E-4,0.053065,0.017125,0.0,1.0,2241.164307
17.226715,-87.982513,-86.78907,2.662791,-0.005856,2.662791,-0.005856,-89.999855,-90.0,2.317199,1.411916,0.981703,297.472321,299.372009,0.023812,-0.033833,12.405872,1.0E-4,0.053175,0.018657,0.0,1.0,2245.785156
18.20229,-87.979172,-86.785728,2.668624,-0.00397,2.668624,-0.00397,-89.999855,-90.0,2.322481,1.664247,1.07164,297.452759,297.820587,0.024617,-0.031699,16.091223,8.4E-5,0.053256,0.019543,0.0,1.0,2251.563721
18.80962,-87.976875,-86.783432,2.672328,-0.002639,2.672328,-0.002639,-89.999855,-90.0,2.325996,1.831051,1.125803,297.443848,296.816162,0.025193,-0.030026,14.966615,5.7E-5,0.053372,0.020522,0.0,1.0,2254.657471
19.760654,-87.972954,-86.77951,2.678043,-3.54E-4,2.678043,-3.54E-4,-89.999855,-90.0,2.331853,2.10707,1.212658,297.434021,295.205414,0.026037,-0.027072,8.07548,3.8E-5,0.053447,0.020967,0.0,1.0,2258.921631
20.394638,-87.970108,-86.776665,2.681975,0.001374,2.681975,0.001374,-89.999855,-90.0,2.335999,2.300984,1.270774,297.428833,294.118561,0.026531,-0.025135,10.157505,5.0E-6,0.053561,0.021458,0.0,1.0,2261.457031
21.345407,-87.965492,-86.772049,2.687804,0.004258,2.687804,0.004258,-89.999855,-90.0,2.342582,2.606316,1.357395,297.421234,292.490723,0.027021,-0.022548,19.377335,-2.0E-5,0.05364,0.021718,0.0,1.0,2264.913574
22.005281,-87.962044,-86.7686,2.691973,0.006512,2.691973,0.006512,-89.999855,-90.0,2.347409,2.828317,1.417922,297.414764,291.375,0.027118,-0.021166,11.864966,-6.1E-5,0.053756,0.022098,0.0,1.0,2267.123779
22.954708,-87.956726,-86.763283,2.697901,0.010075,2.697901,0.010075,-89.999855,-90.0,2.354728,3.161951,1.505347,297.402435,289.809662,0.0268,-0.019887,12.798112,-9.3E-5,0.053839,0.022421,0.0,1.0,2270.101807
23.587126,-87.952957,-86.759514,2.701977,0.012663,2.701977,0.012663,-89.999855,-90.0,2.35985,3.393296,1.56373,297.39151,288.803741,0.026261,-0.019557,17.97003,-1.44E-4,0.053958,0.023038,0.0,1.0,2271.983154
24.534237,-87.946953,-86.75351,2.708073,0.016757,2.708073,0.016757,-89.999855,-90.0,2.367894,3.753317,1.651624,297.371338,287.367645,0.025002,-0.019707,9.591797,-1.81E-4,0.05404,0.023584,0.0,1.0,2274.688232
25.138823,-87.942894,-86.749451,2.712121,0.01949,2.712121,0.01949,-89.999855,-90.0,2.373262,3.991296,1.705888,297.355957,286.503754,0.023916,-0.020183,16.996317,-2.39E-4,0.054161,0.024593,0.0,1.0,2276.359131
26.085047,-87.936165,-86.742722,2.718445,0.023782,2.718445,0.023782,-89.999855,-90.0,2.382022,4.375896,1.793447,297.329559,285.247772,0.022037,-0.021184,12.530924,-2.78E-4,0.054242,0.025362,0.0,1.0,2278.912598
26.715414,-87.931396,-86.737946,2.723406,0.026668,2.723406,0.026668,-89.999855,-90.0,2.388136,4.640298,1.887035,297.310577,284.481903,0.020758,-0.021989,10.302938,-3.4E-4,0.054369,0.026682,0.0,1.0,2280.587402
27.65888,-87.923737,-86.730293,2.735369,0.036814,2.735369,0.036814,-89.999855,-90.0,2.398342,5.048545,2.157281,297.282166,283.448944,0.019157,-0.022886,9.279306,-3.81E-4,0.054468,0.027631,0.0,1.0,2283.067627
28.312973,-87.918015,-86.724571,2.740681,0.040306,2.740681,0.040306,-89.999855,-90.0,2.405949,5.34005,2.218512,297.262512,282.817688,0.017599,-0.023508,12.331295,-5.26E-4,0.054707,0.029051,0.0,1.0,2284.772217
29.253288,-87.909203,-86.715752,2.746881,0.044301,2.746881,0.044301,-89.999855,-90.0,2.417288,5.770988,2.311832,297.236572,282.037598,0.015967,-0.02393,17.059486,-5.76E-4,0.054814,0.030034,0.0,1.0,2287.206543
29.879038,-87.902969,-86.709526,2.751352,0.046882,2.751352,0.046882,-89.999855,-90.0,2.425112,6.065408,2.37601,297.220734,281.603882,0.015244,-0.023954,9.802578,-6.33E-4,0.054938,0.031331,0.0,1.0,2288.819092
30.789932,-87.893417,-86.699974,2.758058,0.050477,2.758058,0.050477,-89.999855,-90.0,2.436903,6.504683,2.469464,297.20047,281.096436,0.014584,-0.023537,17.975653,-6.7E-4,0.055027,0.032123,0.0,1.0,2291.159912
31.439306,-87.886269,-86.692825,2.763108,0.053161,2.763108,0.053161,-89.999855,-90.0,2.445604,6.825456,2.536557,297.187256,280.824524,0.014358,-0.023091,15.974111,-7.21E-4,0.055161,0.033136,0.0,1.0,2292.825439
32.372753,-87.875519,-86.682076,2.770276,0.05706,2.770276,0.05706,-89.999855,-90.0,2.458542,7.297305,2.634265,297.169312,280.563324,0.014155,-0.022355,17.419144,-7.59E-4,0.055262,0.033797,0.0,1.0,2295.216797
32.993351,-87.868057,-86.674614,2.775185,0.059862,2.775185,0.059862,-89.999855,-90.0,2.467433,7.618205,2.696467,297.157013,280.472504,0.01397,-0.021983,15.810438,-8.15E-4,0.055406,0.034694,0.0,1.0,2296.807129
33.922798,-87.856438,-86.662994,2.782367,0.06424,2.782367,0.06424,-89.999855,-90.0,2.481169,8.108753,2.792199,297.137329,280.456146,0.01344,-0.021689,8.465883,-8.55E-4,0.055504,0.035309,0.0,1.0,2299.188965
34.540932,-87.848419,-86.654976,2.787738,0.067379,2.787738,0.067379,-89.999855,-90.0,2.490628,8.441743,2.910809,297.122437,280.521332,0.01283,-0.021802,9.133076,-9.18E-4,0.055647,0.036293,0.0,1.0,2300.774658
35.414036,-87.836548,-86.643105,2.801193,0.071753,2.801193,0.071753,-89.999855,-90.0,2.50554,8.921372,3.287271,297.098785,280.710968,0.011313,-0.02234,16.293179,-9.63E-4,0.055755,0.037038,0.0,1.0,2303.018066
36.054588,-87.827332,-86.633888,2.806359,0.075459,2.806359,0.075459,-89.999855,-90.0,2.517077,9.27977,3.352421,297.078888,280.917999,0.010083,-0.023081,11.232574,-0.001025,0.056024,0.03822,0.0,1.0,2304.66626
37.000393,-87.812981,-86.619537,2.81294,0.080839,2.81294,0.080839,-89.999855,-90.0,2.534583,9.818811,3.455857,297.046692,281.319275,0.007841,-0.024452,16.8804,-0.001078,0.056127,0.039215,0.0,1.0,2307.103516
37.586987,-87.803673,-86.610229,2.817392,0.084216,2.817392,0.084216,-89.999855,-90.0,2.545739,10.158918,3.52248,297.025269,281.619934,0.006183,-0.025427,11.543704,-0.001155,0.056259,0.040825,0.0,1.0,2308.617676
38.502899,-87.788544,-86.5951,2.824548,0.089272,2.824548,0.089272,-89.999855,-90.0,2.563632,10.698732,3.628227,296.991669,282.158722,0.003754,-0.026769,8.82608,-0.001203,0.056348,0.041896,0.0,1.0,2310.986084
39.137314,-87.777657,-86.584206,2.829748,0.09273,2.829748,0.09273,-89.999855,-90.0,2.57637,11.078806,3.701416,296.968231,282.57486,0.002254,-0.027607,12.169247,-0.001275,0.056491,0.043576,0.0,1.0,2312.629639
40.023144,-87.761917,-86.568466,2.83679,0.097183,2.83679,0.097183,-89.999855,-90.0,2.594621,11.617821,3.784654,296.937378,283.204071,4.46E-4,-0.028323,10.342555,-0.001325,0.056595,0.044748,0.0,1.0,2314.929688
40.628487,-87.750786,-86.557343,2.849668,0.101828,2.849668,0.101828,-89.999855,-90.0,2.607438,11.991946,3.784922,296.917206,283.660339,-3.08E-4,-0.028571,13.118245,-0.001388,0.056736,0.046291,0.0,1.0,2316.505615
41.53355,-87.733429,-86.539978,2.859905,0.109012,2.859905,0.109012,-89.999855,-90.0,2.62896,12.559765,4.399441,296.889099,284.371094,-0.001329,-0.028556,19.550259,-0.001455,0.056993,0.047299,0.0,1.0,2318.867432
42.109978,-87.721779,-86.528336,2.862624,0.11191,2.862624,0.11191,-89.999855,-90.0,2.643134,12.926568,4.468409,296.871948,284.835632,-0.001795,-0.02847,15.023912,-0.001557,0.057198,0.048705,0.0,1.0,2320.375
43.034733,-87.702255,-86.508812,2.868158,0.116242,2.868158,0.116242,-89.999855,-90.0,2.666415,13.522989,4.58598,296.845825,285.588867,-0.002155,-0.028117,19.93437,-0.001599,0.057252,0.049562,0.0,1.0,2322.879395
43.657455,-87.688553,-86.49511,2.8729,0.119418,2.8729,0.119418,-89.999855,-90.0,2.682492,13.930257,4.667242,296.828094,286.095428,-0.002308,-0.027932,20.534084,-0.001661,0.057363,0.050868,0.0,1.0,2325.313232
44.552132,-87.668152,-86.474709,2.880022,0.124102,2.880022,0.124102,-89.999855,-90.0,2.706136,14.522553,4.782669,296.801941,286.81131,-0.002571,-0.027795,16.535946,-0.001706,0.057458,0.051755,0.0,1.0,2329.854736
45.147175,-87.654121,-86.460678,2.890174,0.127012,2.890174,0.127012,-89.999855,-90.0,2.722855,14.921121,5.342389,296.783142,287.274231,-0.002907,-0.027942,19.129612,-0.001773,0.0576,0.053062,0.0,1.0,2333.315186
46.013092,-87.632713,-86.43927,2.899449,0.133592,2.899449,0.133592,-89.999855,-90.0,2.749138,15.507488,5.47788,296.753784,287.920746,-0.003806,-0.028382,19.308973,-0.001814,0.057803,0.054002,0.0,1.0,2338.734375
46.631191,-87.61673,-86.423286,2.904261,0.137357,2.904261,0.137357,-89.999855,-90.0,2.768314,15.929939,5.559845,296.730591,288.357056,-0.004795,-0.029041,10.51278,-0.001908,0.057989,0.05547,0.0,1.0,2342.77832
47.495892,-87.593506,-86.400055,2.910686,0.142343,2.910686,0.142343,-89.999855,-90.0,2.795651,16.526276,5.680498,296.696106,288.925629,-0.006645,-0.030158,20.033333,-0.001962,0.058085,0.05663,0.0,1.0,2348.587402
48.088154,-87.577049,-86.383598,2.915471,0.145862,2.915471,0.145862,-89.999855,-90.0,2.81474,16.938412,5.76541,296.670959,289.283569,-0.008092,-0.031074,20.553886,-0.002033,0.058214,0.058354,0.0,1.0,2352.634521
48.975994,-87.55162,-86.358177,2.922585,0.150757,2.922585,0.150757,-89.999855,-90.0,2.843904,17.561375,5.893097,296.63266,289.766785,-0.010298,-0.032362,21.276125,-0.002084,0.058309,0.059612,0.0,1.0,2358.765381
49.567303,-87.534203,-86.340759,2.9286,0.154097,2.9286,0.154097,-89.999855,-90.0,2.863857,17.979769,6.622508,296.606812,290.050659,-0.01136,-0.033161,15.581348,-0.002154,0.058452,0.061526,0.0,1.0,2362.87915
50.451885,-87.507011,-86.313568,2.945511,0.168794,2.945511,0.168794,-89.999855,-90.0,2.897634,18.611826,6.927523,296.569824,290.415833,-0.013537,-0.033724,16.430876,-0.002201,0.058572,0.062819,0.0,1.0,2369.07373
51.040997,-87.487953,-86.29451,2.950244,0.171872,2.950244,0.171872,-89.999855,-90.0,2.920875,19.036087,7.009086,296.545868,290.617401,-0.014626,-0.0341,16.035347,-0.002411,0.05891,0.064668,0.0,1.0,2373.214111
51.923859,-87.45816,-86.264717,2.956017,0.175785,2.956017,0.175785,-89.999855,-90.0,2.95627,19.676676,7.142132,296.512604,290.855682,-0.015535,-0.034174,16.149754,-0.002455,0.059005,0.065866,0.0,1.0,2379.436523
52.536343,-87.436722,-86.243279,2.960653,0.178476,2.960653,0.178476,-89.999855,-90.0,2.981256,20.124409,7.240946,296.490662,290.975677,-0.015737,-0.034057,19.338247,-0.002511,0.05912,0.067529,0.0,1.0,2383.764648
53.417202,-87.404884,-86.211441,2.967455,0.181978,2.967455,0.181978,-89.999855,-90.0,3.017841,20.773149,7.384577,296.460815,291.083649,-0.015441,-0.03363,20.020676,-0.00255,0.059213,0.068626,0.0,1.0,2390.004639
54.003815,-87.38308,-86.189636,2.972156,0.184361,2.972156,0.184361,-89.999855,-90.0,3.04263,21.208193,7.480476,296.441071,291.113892,-0.014995,-0.033372,20.438368,-0.0026,0.059349,0.070119,0.0,1.0,2394.168945
54.833675,-87.351486,-86.158043,2.97852,0.187571,2.97852,0.187571,-89.999855,-90.0,3.078294,21.827879,7.620825,296.412964,291.101501,-0.014108,-0.033075,13.74433,-0.002634,0.059443,0.071106,0.0,1.0,2400.075439
55.468067,-87.326767,-86.133324,2.983493,0.190143,2.983493,0.190143,-89.999855,-90.0,3.105997,22.30435,7.718198,296.390015,291.05011,-0.013561,-0.033115,21.388973,-0.00268,0.05957,0.072511,0.0,1.0,2404.596191
56.320576,-87.292763,-86.099319,2.989891,0.193445,2.989891,0.193445,-89.999855,-90.0,3.143877,22.949177,7.859149,296.356995,290.92688,-0.012917,-0.033496,18.674496,-0.002716,0.05967,0.073659,0.0,1.0,2410.687744
56.904404,-87.268997,-86.075554,2.994471,0.195817,2.994471,0.195817,-89.999855,-90.0,3.170239,23.393545,7.957393,296.332306,290.808777,-0.012727,-0.034056,21.253355,-0.002763,0.059798,0.07531,0.0,1.0,2414.869141
57.804146,-87.231705,-86.038261,3.000165,0.200352,3.000165,0.200352,-89.999855,-90.0,3.211142,24.081997,7.99156,296.292114,290.577728,-0.012711,-0.035111,12.470179,-0.002797,0.059889,0.076544,0.0,1.0,2421.322754
58.386898,-87.207146,-86.013702,3.004532,0.202494,3.004532,0.202494,-89.999855,-90.0,3.237958,24.530689,8.087928,296.264648,290.398926,-0.012868,-0.035949,20.907595,-0.002862,0.060003,0.078554,0.0,1.0,2425.513184
59.235531,-87.17083,-85.977386,3.010813,0.205124,3.010813,0.205124,-89.999855,-90.0,3.277638,25.187922,8.228142,296.225189,290.102173,-0.012982,-0.036921,22.012899,-0.002893,0.060091,0.079927,0.0,1.0,2431.630859
59.816341,-87.145515,-85.952072,3.019277,0.205106,3.019277,0.205106,-89.999855,-90.0,3.306167,25.640512,8.771984,296.198486,289.876984,-0.012887,-0.037503,22.343687,-0.00293,0.060216,0.0819,0.0,1.0,2435.829346
60.685833,-87.106537,-85.913094,3.029043,0.206815,3.029043,0.206815,-89.999855,-90.0,3.350549,26.322206,9.064975,296.160675,289.511444,-0.011879,-0.037863,14.965733,-0.00293,0.060386,0.083235,0.0,1.0,2442.186279
61.263702,-87.079689,-85.886246,3.039041,0.20804,3.039041,0.20804,-89.999855,-90.0,3.383306,26.778469,9.88191,296.13678,289.252441,-0.011035,-0.037875,22.207699,-0.002955,0.060581,0.085126,0.0,1.0,2446.477783
62.153419,-87.036507,-85.843063,3.044683,0.208959,3.044683,0.208959,-89.999855,-90.0,3.434471,27.484585,10.028891,296.102539,288.834991,-0.008603,-0.037493,16.057724,-0.002972,0.060781,0.08632,0.0,1.0,2453.144043
62.705936,-87.00872,-85.815277,3.048059,0.20944,3.048059,0.20944,-89.999855,-90.0,3.466667,27.925123,10.127202,296.082245,288.567535,-0.006481,-0.037139,16.308357,-0.002985,0.060894,0.088033,0.0,1.0,2457.308838
63.569698,-86.964005,-85.770554,3.053672,0.209709,3.053672,0.209709,-89.999855,-90.0,3.517704,28.617031,10.286308,296.052307,288.142242,-0.002532,-0.036378,19.167686,-0.002992,0.060961,0.089047,0.0,1.0,2463.849365
64.168343,-86.932121,-85.738678,3.061289,0.213886,3.061289,0.213886,-89.999855,-90.0,3.55428,29.099167,10.990764,296.031586,287.845398,5.83E-4,-0.035807,14.003527,-0.002996,0.061073,0.090544,0.0,1.0,2468.402344
65.033607,-86.88472,-85.691269,3.068317,0.230051,3.068317,0.230051,-89.999855,-90.0,3.609494,29.795727,11.1148,295.908661,287.420959,-0.001398,-0.052201,14.758345,-0.003056,0.061226,0.0,0.0,1.0,2474.973145
65.619476,-86.85215,-85.658707,3.068182,0.232776,3.068182,0.232776,-89.999855,-90.0,3.646714,30.261599,11.211771,295.608673,287.141846,-0.014493,-0.096885,15.236934,-0.003286,0.061366,0.006146,0.0,1.0,2479.382324
66.484039,-86.803474,-85.610031,3.064918,0.216987,3.064918,0.216987,-89.999855,-90.0,3.701577,30.943165,11.366959,294.933655,286.739685,-0.058787,-0.190789,20.955761,-0.003325,0.061364,0.021146,0.0,1.0,2485.87915
67.08065,-86.769379,-85.575935,3.063053,0.198214,3.063053,0.198214,-89.999855,-90.0,3.739667,31.412064,11.489856,294.389221,286.465271,-0.10196,-0.259679,21.318352,-0.0031,0.061298,0.054897,0.0,1.0,2490.380859
68.001854,-86.715256,-85.521812,3.074718,0.158553,3.074718,0.158553,-89.999855,-90.0,3.804145,32.137489,12.923889,293.635559,286.039642,-0.172003,-0.337815,17.168116,-0.002832,0.061261,0.082118,0.0,1.0,2497.381836
68.598145,-86.678688,-85.485245,3.078686,0.133295,3.078686,0.133295,-89.999855,-90.0,3.847492,32.609711,13.073852,293.293732,285.759888,-0.210305,-0.358411,17.877151,-0.002265,0.061494,0.119801,0.0,1.0,2501.952637
69.489754,-86.621819,-85.428368,3.07825,0.078254,3.07825,0.078254,-89.999855,-90.0,3.915296,33.320374,14.226418,293.135651,285.334625,-0.243916,-0.32961,21.236403,-0.001904,0.061574,0.136893,0.0,1.0,2508.830078
70.062363,-86.583908,-85.390465,3.051493,0.003633,3.051493,0.003633,-89.999855,-90.0,3.961901,33.775848,14.843114,293.275421,285.06192,-0.245213,-0.276458,18.422962,-0.001118,0.061565,0.144797,0.0,1.0,2513.240234
70.944832,-86.521858,-85.328415,2.996086,-0.122738,2.996086,-0.122738,-89.999855,-90.0,4.036152,34.49099,14.651516,293.813049,284.643188,-0.211469,-0.154119,19.354649,-5.2E-5,0.06103,0.137808,0.0,1.0,2520.152588
71.513832,-86.479118,-85.285675,2.980559,-0.163505,2.980559,-0.163505,-89.999855,-90.0,4.084245,34.969067,14.14854,294.306885,284.37738,-0.167322,-0.061001,24.26,0.001753,0.059922,0.110927,0.0,1.0,2524.723145
72.362885,-86.412117,-85.218674,2.988821,-0.103488,2.988821,-0.103488,-89.999855,-90.0,4.158347,35.707748,15.552561,295.039459,284.003021,-0.082635,0.061382,20.02663,0.002336,0.059611,0.086235,0.0,1.0,2531.640381
72.907005,-86.367271,-85.173828,2.93991,0.047009,2.93991,0.047009,-89.999855,-90.0,4.214215,36.187706,17.697582,295.381287,283.790131,-0.025031,0.111711,16.786757,0.001478,0.059776,0.049606,0.0,1.0,2536.044922
73.738914,-86.296036,-85.102592,2.788709,0.390095,2.788709,0.390095,-89.999855,-90.0,4.303613,36.908592,17.450047,295.527954,283.523285,0.048174,0.122515,18.202547,-6.72E-4,0.058798,0.032515,0.0,1.0,2542.604492
74.308556,-86.246498,-85.053055,2.71082,0.590605,2.71082,0.590605,-89.999855,-90.0,4.35989,37.389832,16.33992,295.364014,283.382385,0.079847,0.087028,18.762991,-0.005573,0.055774,0.025182,0.0,1.0,2546.999512
75.156395,-86.173157,-84.979713,2.668411,0.654064,2.668411,0.654064,-89.999855,-90.0,4.438848,38.092762,16.60973,294.832947,283.227753,0.097707,-0.008626,18.475529,-0.008437,0.054216,0.033379,0.0,1.0,2553.490967
75.744843,-86.122078,-84.928635,2.639728,0.482617,2.639728,0.482617,-79.999855,-80.0,4.497712,38.577801,18.921864,294.372681,283.15274,0.091363,-0.085405,18.886505,-0.009344,0.053368,0.059932,0.0,1.0,2558.00708
76.648804,-86.038757,-84.845314,2.650652,-0.113727,2.650652,-0.113727,-79.999855,-80.0,4.613831,39.327198,27.31715,293.770782,283.079132,0.063667,-0.17794,19.334589,-0.006895,0.052795,0.082945,0.0,1.0,2565.053711
77.227814,-85.977562,-84.784119,2.70993,-0.625554,2.70993,-0.625554,-79.999855,-80.0,4.721757,39.814346,37.744141,293.55838,283.055115,0.042721,-0.204531,20.160692,0.001625,0.053013,0.11304,0.0,1.0,2569.655273
78.069618,-85.862549,-84.669106,2.865249,-1.327913,2.865249,-1.327913,-79.999855,-80.0,4.967961,40.546268,61.628815,293.607941,283.050537,0.020519,-0.17998,27.297876,0.008936,0.054199,0.12366,0.0,1.0,2576.552734
78.60157,-85.760292,-84.566849,3.010827,-1.635184,3.010827,-1.635184,-79.999855,-80.0,5.208509,41.034603,82.492844,293.856201,283.067749,0.019186,-0.128485,34.721504,0.01897,0.057305,0.121182,0.0,1.0,2581.102783
79.320747,-85.555077,-84.361633,3.23335,-1.684767,3.23335,-1.684767,-79.999855,-80.0,5.695853,41.74641,117.571632,294.367218,283.121887,0.038237,-0.031282,49.857986,0.02336,0.060217,0.108769,0.0,1.0,2587.574219
79.793053,-85.355255,-84.161812,3.396389,-1.443925,3.396389,-1.443925,-79.999855,-80.0,6.151824,42.253937,144.285416,294.71402,283.18103,0.061358,0.032023,63.363636,0.024068,0.064667,0.083218,0.0,1.0,2591.813965
80.412643,-84.983276,-83.789833,3.572525,-0.846281,3.572525,-0.846281,-79.999855,-80.0,6.946525,42.962158,181.052338,294.973022,283.289001,0.100953,0.078992,85.732864,0.020628,0.067928,0.065878,0.0,1.0,2596.572266
80.840607,-84.643272,-83.449821,3.669468,-0.372065,3.669468,-0.372065,-79.999855,-80.0,7.617925,43.465832,204.377258,294.937012,283.3797,0.121319,0.074438,103.280571,0.01209,0.071451,0.052928,0.0,1.0,2599.370605
81.450867,-84.038147,-82.844696,3.762523,0.118428,3.762523,0.118428,-79.999855,-80.0,8.717855,44.187325,233.921463,294.586395,283.520111,0.13363,0.018128,129.465744,0.005315,0.073389,0.054729,0.0,1.0,2602.825439
81.833969,-83.579201,-82.38575,3.821684,0.241836,3.821684,0.241836,-79.999855,-80.0,9.492611,44.64579,250.240677,294.253967,283.60965,0.126928,-0.034158,146.368683,-0.001692,0.07525,0.07226,0.0,1.0,2604.788574
82.439636,-82.725876,-81.532433,3.922359,0.076626,3.922359,0.076626,-79.999855,-80.0,10.843222,45.379074,274.453949,293.768402,283.742065,0.100292,-0.106858,172.863953,-0.003455,0.076434,0.088881,0.0,1.0,2607.678223
82.819595,-82.098671,-80.90522,3.998638,-0.189646,3.998638,-0.189646,-79.999855,-80.0,11.784516,45.851803,289.755219,293.590057,283.815247,0.079307,-0.129423,189.586823,-0.001095,0.078447,0.113159,0.0,1.0,2609.421875
83.366943,-81.053101,-79.859657,4.116079,-0.611774,4.116079,-0.611774,-79.999855,-80.0,13.292171,46.55619,312.601715,293.639557,283.901428,0.055536,-0.109484,213.929001,0.002709,0.079973,0.122076,0.0,1.0,2611.890625
83.707138,-80.287659,-79.094215,4.211246,-0.787072,4.211246,-0.787072,-79.999855,-80.0,14.362487,47.022278,329.519226,293.863678,283.94281,0.052442,-0.065672,229.834259,0.00874,0.082322,0.119601,0.0,1.0,2613.449219
84.158859,-79.073158,-77.879715,4.364851,-0.740112,4.364851,-0.740112,-79.999855,-80.0,16.036856,47.696209,359.387177,294.320129,283.982025,0.068184,0.016493,253.061905,0.011244,0.084225,0.108395,0.0,1.0,2615.598877
84.439163,-78.170189,-76.976746,4.490297,-0.508806,4.490297,-0.508806,-79.999855,-80.0,17.275068,48.153866,383.088226,294.61557,283.995758,0.088528,0.066914,269.461548,0.010573,0.087297,0.085573,0.0,1.0,2616.987061
84.840607,-76.658234,-75.46479,4.655724,0.041508,4.655724,0.041508,-79.999855,-80.0,19.337109,48.851479,417.244049,294.847382,283.996307,0.123201,0.103141,296.074646,0.007269,0.089806,0.070801,0.0,1.0,2619.000244
85.213211,-75.089653,-73.89621,4.747694,0.541895,4.747694,0.541895,-69.999855,-70.0,21.429565,49.502037,441.661377,294.740997,283.97113,0.145251,0.08125,322.189117,-5.93E-4,0.093114,0.05921,0.0,1.0,2620.796387
85.473557,-73.938614,-72.745163,4.775152,0.747377,4.775152,0.747377,-69.999855,-70.0,22.925478,49.942852,455.041962,294.516846,283.936981,0.146811,0.041532,339.890228,-0.007741,0.094954,0.064529,0.0,1.0,2621.989502
85.73703,-72.729767,-71.536324,4.794589,0.779174,4.794589,0.779174,-69.999855,-70.0,24.462347,50.379475,466.284027,294.243591,283.887115,0.137334,-0.005375,357.033295,-0.010677,0.095503,0.075737,0.0,1.0,2623.162598
86.14402,-70.761978,-69.568535,4.846837,0.522325,4.846837,0.522325,-69.999855,-70.0,26.899099,51.044617,481.626984,293.907104,283.776642,0.110444,-0.060939,381.854858,-0.011131,0.095892,0.0894,0.0,1.0,2624.94165
86.402649,-69.423492,-68.230049,4.900911,0.245427,4.900911,0.245427,-69.999855,-70.0,28.522768,51.470947,492.350555,293.825928,283.682434,0.091598,-0.072812,396.843414,-0.007462,0.096937,0.106224,0.0,1.0,2626.076172
86.771545,-67.330162,-66.136719,4.993207,-0.127801,4.993207,-0.127801,-69.999855,-70.0,31.031094,52.102741,510.927063,293.969818,283.50946,0.073369,-0.045708,418.028351,-0.003506,0.098018,0.110283,0.0,1.0,2627.741211
86.999702,-65.879379,-64.685936,5.06852,-0.253998,5.06852,-0.253998,-69.999855,-70.0,32.758076,52.518597,524.949341,294.20578,283.375732,0.073693,-0.00551,431.5336,0.001826,0.099864,0.103088,0.0,1.0,2628.818115
87.306938,-63.619461,-62.426018,5.181354,-0.156711,5.181354,-0.156711,-59.999859,-60.0,35.440983,53.133888,547.82428,294.608551,283.153748,0.091663,0.060261,451.506317,0.003629,0.10137,0.09129,0.0,1.0,2630.366211
87.584076,-61.324078,-60.130634,5.285594,0.187012,5.285594,0.187012,-59.999859,-60.0,38.162521,53.721844,571.442261,294.872864,282.919861,0.119558,0.099439,470.983337,0.002239,0.103627,0.071152,0.0,1.0,2631.788574
87.774811,-59.623039,-58.429596,5.347216,0.482102,5.347216,0.482102,-59.999859,-60.0,40.177116,54.135445,588.268433,294.905426,282.744476,0.135447,0.100096,485.139099,-0.002672,0.105712,0.057936,0.0,1.0,2632.762695
88.049393,-57.154152,-55.960709,5.407501,0.771914,5.407501,0.771914,-59.999859,-60.0,43.091473,54.705593,609.54071,294.723633,282.488342,0.145484,0.062674,505.254242,-0.006887,0.106944,0.056308,0.0,1.0,2634.090576
88.243629,-55.402409,-54.208961,5.448732,0.82295,5.448732,0.82295,-59.999859,-60.0,45.145607,55.09071,622.327393,294.502716,282.305206,0.139551,0.022215,519.130493,-0.011027,0.10815,0.065398,0.0,1.0,2634.98877
88.532562,-52.688057,-51.494614,5.511392,0.632506,5.511392,0.632506,-49.999859,-50.0,48.304218,55.65979,640.427979,294.194122,282.017883,0.116226,-0.032217,539.731079,-0.011756,0.108975,0.076444,0.0,1.0,2636.327393
88.725304,-50.822205,-49.628761,5.561553,0.387364,5.561553,0.387364,-49.999859,-50.0,50.459507,56.033592,652.357727,294.085968,281.81781,0.097816,-0.05075,553.225647,-0.009036,0.110228,0.091873,0.0,1.0,2637.213867
88.918419,-48.83213,-47.638687,5.61677,0.117228,5.61677,0.117228,-49.999859,-50.0,52.747799,56.418243,665.263611,294.103394,281.603088,0.082174,-0.047423,567.03656,-0.005534,0.111231,0.097281,0.0,1.0,2638.129395
89.176003,-45.885048,-44.691605,5.708502,-0.138285,5.708502,-0.138285,-49.999859,-50.0,56.123661,56.96352,684.785706,294.34433,281.286469,0.073496,-0.00691,586.490723,-0.001675,0.112335,0.09641,0.0,1.0,2639.420898
89.330101,-43.867348,-42.673901,5.783285,-0.162621,5.783285,-0.162621,-39.999859,-40.0,58.430546,57.321201,698.99585,294.581818,281.074005,0.079592,0.031528,599.265137,0.001976,0.11417,0.084363,0.0,1.0,2640.253174
89.535477,-40.759968,-39.566525,5.884499,0.040866,5.884499,0.040866,-39.999859,-40.0,61.983364,57.848591,721.570496,294.884918,280.759216,0.101198,0.078017,618.382141,0.002323,0.115666,0.072488,0.0,1.0,2641.444824
89.723686,-37.643147,-36.449703,5.969526,0.374224,5.969526,0.374224,-39.999859,-40.0,65.545746,58.350555,743.369934,294.985504,280.462646,0.123669,0.088719,637.184448,-5.84E-4,0.11769,0.057333,0.0,1.0,2642.541504
89.853226,-35.452087,-34.258644,6.016036,0.576486,6.016036,0.576486,-39.999859,-40.0,68.048103,58.688602,757.337341,294.914734,280.265961,0.131896,0.072486,650.063416,-0.005346,0.119391,0.052304,0.0,1.0,2643.268311
89.990662,-33.118492,-31.925047,6.052799,0.683587,6.052799,0.683587,-29.999857,-30.0,70.701828,59.035515,770.409851,294.747742,280.066772,0.131706,0.040405,663.894104,-0.008236,0.120321,0.055843,0.0,1.0,2644.013184
90.195999,-29.674473,-28.48103,6.101179,0.602038,6.101179,0.602038,-29.999857,-30.0,74.596359,59.526043,786.543579,294.462097,279.788971,0.116292,-0.011305,683.598999,-0.009766,0.121056,0.064192,0.0,1.0,2645.076172
90.403061,-26.136717,-24.943272,6.160025,0.311195,6.160025,0.311195,-29.999857,-30.0,78.567566,60.006313,801.528137,294.289124,279.520599,0.091851,-0.041447,702.765991,-0.008601,0.122024,0.078474,0.0,1.0,2646.133301
90.513306,-23.829744,-22.636299,6.203547,0.091207,6.203547,0.091207,-19.999857,-20.0,81.144089,60.30788,811.223694,294.295593,279.354248,0.077902,-0.040383,714.662292,-0.004446,0.1232,0.087123,0.0,1.0,2646.799072
90.649658,-20.149492,-18.956047,6.275624,-0.145812,6.275624,-0.145812,-19.999857,-20.0,85.239212,60.771606,826.417358,294.490936,279.104156,0.068673,-0.007664,732.667786,-0.001303,0.124071,0.0868,0.0,1.0,2647.777832
90.732834,-17.545197,-16.351751,6.335328,-0.180878,6.335328,-0.180878,-19.999857,-20.0,88.128281,61.087582,837.408508,294.705841,278.940338,0.073159,0.027036,744.771484,0.002083,0.125512,0.077032,0.0,1.0,2648.409668
90.831841,-13.72644,-12.532996,6.410278,-0.016057,6.410278,-0.016057,-9.999858,-10.0,92.357468,61.533619,853.756042,294.978729,278.722839,0.091666,0.06878,761.743469,0.002584,0.126707,0.066287,0.0,1.0,2649.250732
90.892998,-11.136259,-9.942815,6.453409,0.177282,6.453409,0.177282,-9.999858,-10.0,95.221611,61.82502,864.278381,295.069733,278.591675,0.105537,0.08026,772.806824,2.29E-4,0.128206,0.052643,0.0,1.0,2649.768311
90.981407,-7.294623,-6.101179,6.493085,0.436183,6.493085,0.436183,-9.999858,-10.0,99.458427,62.241489,877.996643,295.017303,278.421143,0.119364,0.065213,788.776245,-0.002533,0.129068,0.048093,0.0,1.0,2650.461914
91.055511,-4.506678,-3.313234,6.514985,0.528816,6.514985,0.528816,1.42E-4,0.0,102.521896,62.532982,886.068542,294.871979,278.31369,0.118913,0.037084,799.89032,-0.006231,0.129862,0.050714,0.0,1.0,2650.93042
91.168716,-0.393823,0.799621,6.540483,0.449384,6.540483,0.449384,1.42E-4,0.0,106.977875,62.944363,895.705017,294.624756,278.177551,0.104325,-0.008135,815.35907,-0.007555,0.1303,0.05798,0.0,1.0,2651.587158
91.246376,2.495086,3.688531,6.55968,0.284093,6.55968,0.284093,1.42E-4,0.0,109.973396,63.213364,901.353943,294.508057,278.097473,0.089464,-0.028936,825.203186,-0.00642,0.13081,0.070341,0.0,1.0,2652.019531
91.363487,6.880915,8.07436,6.592432,-0.01643,6.592432,-0.01643,10.000142,10.0,114.501595,63.609211,909.710876,294.502014,277.992096,0.06888,-0.030479,839.1698,-0.004058,0.131194,0.076176,0.0,1.0,2652.662598
91.432404,9.838046,11.03149,6.623168,-0.174365,6.623168,-0.174365,10.000142,10.0,117.544136,63.868042,915.679688,294.612305,277.931915,0.062633,-0.01254,847.997803,2.35E-4,0.131849,0.076479,0.0,1.0,2653.08374
91.50267,12.692831,13.886275,6.656615,-0.238225,6.656615,-0.238225,10.000142,10.0,120.47953,64.112236,921.957642,294.771881,277.882507,0.064058,0.013258,855.913635,0.002491,0.132463,0.070964,0.0,1.0,2653.476318
91.578613,17.33667,18.530115,6.711025,-0.145001,6.711025,-0.145001,20.000143,20.0,125.245987,64.497017,932.927307,295.027679,277.821991,0.077617,0.05298,868.41449,0.003403,0.133132,0.062985,0.0,1.0,2654.075928
91.645599,21.911526,23.104971,6.757384,0.089099,6.757384,0.089099,20.000143,20.0,129.939072,64.861725,943.974915,295.149689,277.786926,0.095729,0.06852,880.110718,0.002071,0.13422,0.050195,0.0,1.0,2654.618408
91.691833,24.862318,26.055761,6.77419,0.237283,6.77419,0.237283,20.000143,20.0,132.9655,65.08976,950.381409,295.121765,277.776489,0.104424,0.060271,887.342896,-6.6E-5,0.134895,0.045053,0.0,1.0,2654.949219
91.776764,29.654501,30.847946,6.792616,0.356909,6.792616,0.356909,30.000143,30.0,137.872391,65.448738,958.747375,294.940155,277.776794,0.104713,0.025111,898.662842,-0.00339,0.135484,0.045491,0.0,1.0,2655.470459
91.834099,32.791897,33.985344,6.802318,0.319485,6.802318,0.319485,30.000143,30.0,141.075974,65.67662,963.146484,294.788055,277.786072,0.096266,-0.002319,905.800781,-0.005099,0.135852,0.054572,0.0,1.0,2655.80835
91.924492,37.403866,38.597309,6.815887,0.117561,6.815887,0.117561,40.000141,40.0,145.772186,66.002304,968.729004,294.636749,277.80896,0.076442,-0.028907,915.758972,-0.004564,0.136046,0.062177,0.0,1.0,2656.306885
91.987183,40.589909,41.783356,6.830435,-0.062812,6.830435,-0.062812,40.000141,40.0,149.007675,66.221199,972.459656,294.624146,277.82962,0.064562,-0.031227,922.260803,-0.001679,0.136318,0.069742,0.0,1.0,2656.651855
92.073914,45.400658,46.594101,6.862862,-0.265196,6.862862,-0.265196,50.000141,50.0,153.885757,66.542854,978.785278,294.755707,277.867279,0.055749,-0.009268,931.409485,8.97E-4,0.136609,0.070372,0.0,1.0,2657.166748
92.124634,48.763718,49.957161,6.893563,-0.30761,6.893563,-0.30761,50.000141,50.0,157.293518,66.761452,984.024963,294.913452,277.898407,0.058525,0.016297,937.438354,0.003789,0.137257,0.063794,0.0,1.0,2657.514648
92.182747,53.503212,54.696655,6.933482,-0.20144,6.933482,-0.20144,50.000141,50.0,162.097275,67.06076,992.222168,295.114838,277.949585,0.07263,0.047538,945.599243,0.004394,0.137871,0.055907,0.0,1.0,2657.978027
92.218246,56.773277,57.966724,6.957117,-0.058378,6.957117,-0.058378,60.000141,60.0,165.414536,67.261429,997.921326,295.187103,277.989929,0.083688,0.057185,950.996521,0.002878,0.13867,0.045837,0.0,1.0,2658.27832
92.272903,61.71188,62.905327,6.976743,0.149501,6.976743,0.149501,60.000141,60.0,170.424698,67.555504,1005.637512,295.146576,278.05722,0.095146,0.046159,959.039551,8.34E-4,0.139142,0.042224,0.0,1.0,2658.709473
92.318588,65.164421,66.357864,6.984383,0.22603,6.984383,0.22603,60.000141,60.0,173.924393,67.75499,1009.898743,295.031586,278.107117,0.095173,0.024535,964.549133,-0.002136,0.139535,0.04425,0.0,1.0,2659.003174
92.388565,70.168388,71.361832,6.991085,0.17154,6.991085,0.17154,70.000145,70.0,178.986755,68.035782,1014.679138,294.834778,278.179871,0.084093,-0.010556,972.362976,-0.003229,0.139688,0.05,0.0,1.0,2659.428223
92.436424,73.523224,74.716667,6.997471,0.04781,6.997471,0.04781,70.000145,70.0,182.373688,68.218941,1017.351929,294.74118,278.22699,0.072577,-0.026629,977.380798,-0.002451,0.139822,0.05984,0.0,1.0,2659.716309
92.512634,78.579056,79.772499,7.014182,-0.17865,7.014182,-0.17865,80.000145,80.0,187.470825,68.487816,1021.47644,294.733398,278.293365,0.056706,-0.027519,984.442688,-6.83E-4,0.139949,0.06452,0.0,1.0,2660.153809
92.55442,81.824295,83.017738,7.031831,-0.29196,7.031831,-0.29196,80.000145,80.0,190.738907,68.655945,1024.585571,294.812225,278.332703,0.052131,-0.014166,988.743042,0.002552,0.140284,0.064909,0.0,1.0,2660.432861
92.614159,87.068291,88.261734,7.065932,-0.328494,7.065932,-0.328494,90.000145,90.0,196.019516,68.920349,1030.598633,295.010437,278.391602,0.056192,0.018544,995.339905,0.004171,0.140637,0.060968,0.0,1.0,2660.869385
92.645027,90.485329,91.678772,7.090077,-0.258024,7.090077,-0.258024,90.000145,90.0,199.462494,69.087784,1035.082397,295.132294,278.427551,0.064773,0.037678,999.453125,0.004693,0.141319,0.051057,0.0,1.0,2661.138916
92.678589,95.49012,96.683563,7.114027,-0.07302,7.114027,-0.07302,100.000145,100.0,204.510803,69.326157,1041.64856,295.21109,278.477295,0.079946,0.047979,1005.324463,0.003686,0.141802,0.044965,0.0,1.0,2661.510742
92.706177,98.941307,100.13475,7.12467,0.053421,7.12467,0.053421,100.000145,100.0,207.989944,69.48568,1045.610107,295.180237,278.509308,0.086257,0.040731,1009.479797,0.001043,0.142281,0.041025,0.0,1.0,2661.755127
92.755104,104.288284,105.481728,7.1311,0.13974,7.1311,0.13974,100.000145,100.0,213.376785,69.725563,1050.459717,295.029083,278.553467,0.086135,0.012648,1015.828796,-7.63E-4,0.142493,0.042567,0.0,1.0,2662.125488
92.790421,107.772789,108.966232,7.133646,0.106136,7.133646,0.106136,110.000145,110.0,216.882462,69.877426,1052.779175,294.909332,278.577301,0.079273,-0.008286,1019.871582,-0.001996,0.142622,0.050125,0.0,1.0,2662.367188
92.847015,112.873924,114.067375,7.139565,-0.052454,7.139565,-0.052454,110.000145,110.0,222.007431,70.093887,1055.651733,294.797668,278.603271,0.063786,-0.027062,1025.503418,-0.001516,0.142673,0.056113,0.0,1.0,2662.725586
92.885643,116.384651,117.578094,7.148223,-0.188279,7.148223,-0.188279,120.000145,120.0,225.529724,70.238991,1057.690552,294.795288,278.614502,0.055007,-0.027087,1029.193848,7.49E-4,0.142791,0.061696,0.0,1.0,2662.974854
92.94136,121.814514,123.007965,7.169947,-0.330968,7.169947,-0.330968,120.000145,120.0,230.974869,70.45742,1061.571655,294.911255,278.621613,0.049485,-0.007033,1034.519409,0.00269,0.142964,0.061815,0.0,1.0,2663.35791
92.966164,125.348717,126.54216,7.189593,-0.346898,7.189593,-0.346898,120.000145,120.0,234.518768,70.59565,1064.737793,295.030487,278.620605,0.052768,0.012654,1037.837036,0.004728,0.143399,0.056017,0.0,1.0,2663.599365
92.9972,130.51918,131.712631,7.214965,-0.245415,7.214965,-0.245415,130.000137,130.0,239.70752,70.792252,1069.956055,295.177094,278.612976,0.064981,0.035755,1042.500244,0.004956,0.143792,0.050055,0.0,1.0,2663.934814
93.015587,134.076965,135.270416,7.228999,-0.127102,7.228999,-0.127102,130.000137,130.0,243.280243,70.92363,1073.527588,295.220032,278.604309,0.073751,0.041408,1045.657471,0.003506,0.144299,0.042725,0.0,1.0,2664.152588
93.045235,139.432693,140.626144,7.238575,0.030292,7.238575,0.030292,140.000137,140.0,248.660355,71.115517,1078.166138,295.16748,278.586487,0.081923,0.029954,1050.362915,0.001816,0.14458,0.040578,0.0,1.0,2664.466309
93.06813,143.165771,144.359207,7.240869,0.079504,7.240869,0.079504,140.000137,140.0,252.408478,71.245262,1080.559814,295.068787,278.570221,0.08106,0.012109,1053.635376,-4.33E-4,0.144772,0.043205,0.0,1.0,2664.680908
93.113716,148.558701,149.752151,7.241866,0.020525,7.241866,0.020525,150.000137,150.0,257.818115,71.427307,1083.070435,294.917114,278.540009,0.071292,-0.01418,1058.206421,-0.001136,0.144817,0.04814,0.0,1.0,2664.993896
93.143913,152.164719,153.358154,7.244332,-0.082042,7.244332,-0.082042,150.000137,150.0,261.430725,71.545677,1084.428711,294.853821,278.514801,0.062213,-0.024653,1061.14917,-2.93E-4,0.144837,0.055724,0.0,1.0,2665.206543
93.189133,157.588074,158.781509,7.254684,-0.253013,7.254684,-0.253013,160.000137,160.0,266.858398,71.71891,1086.676392,294.867035,278.469482,0.050827,-0.021595,1065.358887,0.001172,0.144887,0.058888,0.0,1.0,2665.531006
93.215355,161.212341,162.405792,7.267412,-0.331714,7.267412,-0.331714,160.000137,160.0,270.483917,71.831512,1088.637329,294.942627,278.434937,0.048529,-0.008606,1068.008179,0.003614,0.145094,0.058228,0.0,1.0,2665.746582
93.242615,166.510742,167.704178,7.28934,-0.334037,7.28934,-0.334037,170.000137,170.0,275.784668,71.991539,1092.262939,295.09198,278.380402,0.053764,0.016238,1071.734375,0.004739,0.145348,0.054448,0.0,1.0,2666.052002
93.256676,170.304306,171.497742,7.305565,-0.26184,7.305565,-0.26184,170.000137,170.0,279.58252,72.102737,1095.250977,295.182648,278.339783,0.061252,0.030563,1074.298828,0.004772,0.145787,0.04698,0.0,1.0,2666.259766
93.278877,175.780762,176.974213,7.319712,-0.104412,7.319712,-0.104412,180.000137,180.0,285.069916,72.258286,1099.48291,295.222748,278.280518,0.073099,0.03521,1077.906616,0.003741,0.146111,0.042447,0.0,1.0,2666.542969
93.293076,179.441589,180.635025,7.324063,-0.011403,7.324063,-0.011403,180.000137,180.0,288.738983,72.359039,1101.795654,295.181366,278.240936,0.077251,0.026917,1080.3125,0.001492,0.146394,0.040442,0.0,1.0,2666.725098
93.317421,184.947311,186.140762,7.324068,0.033239,7.324068,0.033239,180.000137,180.0,294.254852,72.505951,1104.275269,295.052948,278.18103,0.075397,0.003817,1083.906494,1.63E-4,0.146481,0.042511,0.0,1.0,2666.99585
93.341049,188.626846,189.820282,7.323208,-0.007917,7.323208,-0.007917,190.000137,190.0,297.937714,72.601219,1105.349854,294.961426,278.14032,0.069163,-0.01186,1086.263184,-4.75E-4,0.146481,0.048932,0.0,1.0,2667.179199
93.373772,194.004898,195.198349,7.325266,-0.143482,7.325266,-0.143482,190.000137,190.0,303.314209,72.736549,1106.654419,294.890289,278.079285,0.056822,-0.023393,1089.611206,1.13E-4,0.146464,0.053508,0.0,1.0,2667.452881
93.398018,197.853363,199.046799,7.331128,-0.251329,7.331128,-0.251329,200.000137,200.0,307.158691,72.83065,1107.760864,294.905243,278.034668,0.050685,-0.020382,1091.860229,0.00205,0.146505,0.057065,0.0,1.0,2667.651855
93.426132,203.250488,204.443924,7.345832,-0.339123,7.345832,-0.339123,200.000137,200.0,312.548737,72.958832,1109.938599,295.007141,277.971924,0.048357,-0.002733,1094.828491,0.00359,0.146623,0.056317,0.0,1.0,2667.929443
93.440948,206.956802,208.150253,7.359402,-0.336116,7.359402,-0.336116,210.000137,210.0,316.251862,73.044273,1111.943604,295.101807,277.929871,0.052163,0.012946,1096.723755,0.004845,0.146917,0.051222,0.0,1.0,2668.114258
93.458183,212.681473,213.874908,7.376834,-0.231963,7.376834,-0.231963,210.000137,210.0,321.975342,73.172005,1115.487671,295.210052,277.8685,0.062762,0.029878,1099.582764,0.004802,0.147188,0.046489,0.0,1.0,2668.385254
93.464104,216.247391,217.440826,7.384407,-0.137989,7.384407,-0.137989,220.000137,220.0,325.542267,73.248962,1117.615723,295.227478,277.833191,0.069484,0.031705,1101.372314,0.003314,0.147537,0.041077,0.0,1.0,2668.54541
93.482887,221.994278,223.187729,7.387234,-0.021548,7.387234,-0.021548,220.000137,220.0,331.293243,73.368912,1120.331177,295.162079,277.781281,0.074583,0.018851,1104.191772,0.001971,0.147688,0.040205,0.0,1.0,2668.795166
93.491653,225.57428,226.767715,7.385985,8.12E-4,7.385985,8.12E-4,230.000137,230.0,334.873962,73.441193,1121.402222,295.082977,277.751709,0.072699,0.004877,1105.975098,3.08E-4,0.147745,0.043475,0.0,1.0,2668.949707
93.522507,231.341415,232.534866,7.383692,-0.067897,7.383692,-0.067897,230.000137,230.0,340.639801,73.554039,1122.473633,294.964752,277.707336,0.063726,-0.015264,1108.664795,-1.2E-5,0.14772,0.04743,0.0,1.0,2669.203369
93.537445,234.933472,236.126907,7.384152,-0.153083,7.384152,-0.153083,230.000137,230.0,344.226349,73.622147,1122.996094,294.927216,277.681366,0.056491,-0.021282,1110.36145,9.7E-4,0.147674,0.053342,0.0,1.0,2669.365234
93.563507,240.562698,241.756149,7.390976,-0.285152,7.390976,-0.285152,240.000137,240.0,349.843933,73.725708,1124.110718,294.955505,277.643097,0.048564,-0.015709,1112.837891,0.002187,0.147683,0.055218,0.0,1.0,2669.623047
93.579521,244.31897,245.512405,7.400173,-0.342654,7.400173,-0.342654,240.000137,240.0,353.592926,73.792686,1125.300781,295.032898,277.61969,0.041455,-0.002083,1114.324463,0.001358,0.14782,0.1,0.0,1.0,2669.794189
93.587509,250.117249,251.310699,7.42482,-0.361381,7.42482,-0.361381,250.000137,250.0,359.382233,73.892509,1127.976563,295.367371,277.588776,0.041227,0.052321,1116.520508,0.001632,0.148003,0.1,0.0,1.0,2670.044189
93.570343,253.884308,255.077759,7.449873,-0.246411,7.449873,-0.246411,250.000137,250.0,363.146545,73.954849,1130.671631,295.668243,277.574249,0.054468,0.098691,1117.963135,0.001721,0.148496,0.1,0.0,1.0,2670.184814
93.527412,259.543579,260.73703,7.48248,0.142136,7.48248,0.142136,260.000153,260.0,368.81311,74.044434,1135.946777,296.098755,277.564697,0.086906,0.16054,1120.142212,0.001173,0.148997,0.1,0.0,1.0,2670.348145
93.490646,263.166656,264.360107,7.495675,0.492435,7.495675,0.492435,260.000153,260.0,372.447693,74.099045,1139.479248,296.303345,277.568024,0.110828,0.186114,1121.639771,-6.77E-4,0.14965,0.1,0.0,1.0,2670.421387
93.437141,268.85141,270.044861,7.496852,1.086097,7.496852,1.086097,270.000153,270.0,378.157349,74.180328,1143.904297,296.470367,277.589386,0.140774,0.198278,1124.226563,-0.002345,0.149914,0.1,0.0,1.0,2670.500244
93.408379,272.809143,274.002594,7.490978,1.469261,7.490978,1.469261,270.000153,270.0,382.13269,74.233864,1145.639893,296.487366,277.615601,0.153001,0.189593,1126.161621,-0.005172,0.149937,0.1,0.0,1.0,2670.541992
93.378937,278.522766,279.716217,7.481266,1.886715,7.481266,1.886715,280.000153,280.0,387.863617,74.307098,1146.400757,296.432068,277.667908,0.158067,0.163617,1129.098511,-0.006996,0.14982,0.1,0.0,1.0,2670.601563
93.362953,282.180237,283.373688,7.475073,2.060046,7.475073,2.060046,280.000153,280.0,391.525269,74.351715,1146.035156,296.390625,277.708923,0.154069,0.146273,1130.959595,-0.008984,0.149625,0.1,0.0,1.0,2670.645752
93.351875,288.068939,289.26239,7.466498,2.198629,7.466498,2.198629,290.000153,290.0,397.411224,74.420326,1144.648438,296.383942,277.785034,0.14222,0.128388,1133.59729,-0.00981,0.149501,0.1,0.0,1.0,2670.731689
93.342461,291.892548,293.085999,7.460797,2.230917,7.460797,2.230917,290.000153,290.0,401.224792,74.462914,1143.53894,296.442993,277.840271,0.133886,0.127075,1135.15686,-0.01047,0.14933,0.1,0.0,1.0,2670.796387
93.334602,297.627502,298.820953,7.4548,2.256114,7.4548,2.256114,300.000153,300.0,406.938507,74.524139,1142.072632,296.631104,277.931458,0.125421,0.140361,1137.008911,-0.010623,0.149216,0.1,0.0,1.0,2670.901855
93.324425,301.451141,302.644562,7.452165,2.290179,7.452165,2.290179,300.000153,300.0,410.744263,74.563225,1141.449951,296.808807,277.99826,0.123898,0.156664,1138.014771,-0.010743,0.149096,0.1,0.0,1.0,2670.973633
93.299797,307.028503,308.221954,7.450885,2.394231,7.450885,2.394231,310.000153,310.0,416.291931,74.617714,1141.149414,297.104889,278.10556,0.127703,0.184363,1139.276001,-0.010906,0.149043,0.1,0.0,1.0,2671.07373
93.284859,310.851654,312.045105,7.450473,2.506011,7.450473,2.506011,310.000153,310.0,420.095947,74.653343,1141.295166,297.309143,278.186676,0.133067,0.202025,1139.913696,-0.011401,0.149018,0.1,0.0,1.0,2671.13623
93.254295,316.586639,317.78009,7.448891,2.715204,7.448891,2.715204,320.000153,320.0,425.803467,74.704094,1141.703369,297.586121,278.320892,0.142404,0.221493,1140.712891,-0.011933,0.149009,0.1,0.0,1.0,2671.220215
93.23822,320.568024,321.761444,7.446591,2.872043,7.446591,2.872043,320.000153,320.0,429.768097,74.737473,1141.884155,297.748932,278.423157,0.147779,0.228921,1141.105713,-0.01293,0.148978,0.1,0.0,1.0,2671.272949
93.212631,326.302887,327.496338,7.441909,3.07753,7.441909,3.07753,330.000153,330.0,435.477386,74.782944,1141.744873,297.945007,278.583221,0.152695,0.231929,1141.665405,-0.013676,0.148932,0.1,0.0,1.0,2671.345703
93.198486,330.125427,331.318848,7.437823,3.190247,7.437823,3.190247,330.000153,330.0,439.282562,74.811646,1141.32019,298.06076,278.697906,0.153507,0.230882,1141.942017,-0.014655,0.148838,0.1,0.0,1.0,2671.39502
93.177414,335.700287,336.893738,7.431516,3.307982,7.431516,3.307982,340.000153,340.0,444.828247,74.851364,1140.295898,298.229187,278.875519,0.151684,0.228585,1142.312378,-0.015192,0.148756,0.1,0.0,1.0,2671.471191
93.171089,339.519501,340.712952,7.426486,3.361658,7.426486,3.361658,340.000153,340.0,448.627686,74.87722,1139.387573,298.355713,279.003906,0.149284,0.228423,1142.348633,-0.015752,0.14863,0.1,0.0,1.0,2671.527344
93.155998,345.24939,346.442841,7.419302,3.41348,7.419302,3.41348,340.000153,340.0,454.320892,74.914047,1137.928467,298.574219,279.205688,0.145584,0.232142,1142.475098,-0.016008,0.14853,0.1,0.0,1.0,2671.617432
93.148323,349.224854,350.418304,7.414264,3.441575,7.414264,3.441575,350.000153,350.0,458.270264,74.938301,1136.95752,298.74765,279.352051,0.143848,0.237655,1142.381958,-0.016255,0.148386,0.1,0.0,1.0,2671.683105
93.130959,354.786713,355.980164,7.408566,3.485105,7.408566,3.485105,350.000153,350.0,463.794128,74.97052,1135.807861,299.014099,279.565247,0.143056,0.248202,1142.124268,-0.016388,0.148285,0.1,0.0,1.0,2671.776855
93.120041,358.755768,359.949219,7.404694,3.525809,7.404694,3.525809,360.000153,360.0,467.736694,74.992317,1135.161011,299.214142,279.723389,0.14373,0.256525,1141.816895,-0.016596,0.148171,0.1,0.0,1.0,2671.843994
93.107536,364.308197,365.501648,7.400183,3.597449,7.400183,3.597449,360.000153,360.0,473.25296,75.021156,1134.434692,299.496033,279.95285,0.145984,0.267322,1141.288208,-0.01679,0.148094,0.1,0.0,1.0,2671.937012
93.095802,368.27066,369.464111,7.397007,3.656753,7.397007,3.656753,370.000153,370.0,477.191193,75.040588,1134.00415,299.69281,280.122345,0.147799,0.273534,1140.833008,-0.017131,0.148004,0.1,0.0,1.0,2672.002197
93.079872,373.969666,375.163116,7.392821,3.743848,7.392821,3.743848,370.000153,370.0,482.85965,75.066917,1133.388062,299.965118,280.374084,0.150179,0.279682,1139.994019,-0.017413,0.14794,0.1,0.0,1.0,2672.094971
93.069664,377.604279,378.797699,7.389858,3.796345,7.389858,3.796345,380.000153,380.0,486.479492,75.082756,1132.955078,300.13266,280.539276,0.151188,0.28207,1139.260498,-0.017828,0.147856,0.1,0.0,1.0,2672.154053
93.053719,383.458588,384.652039,7.385087,3.867155,7.385087,3.867155,380.000153,380.0,492.29953,75.106705,1132.140137,300.396515,280.81131,0.151656,0.284301,1138.720215,-0.018078,0.147797,0.1,0.0,1.0,2672.251221
93.042152,387.252167,388.445618,7.381553,3.903523,7.381553,3.903523,390.000153,390.0,496.072296,75.121292,1131.531738,300.567627,280.991364,0.151356,0.285389,1138.276123,-0.018415,0.147702,0.1,0.0,1.0,2672.315674
93.033234,392.938843,394.132294,7.37658,3.943832,7.37658,3.943832,390.000153,390.0,501.727417,75.141853,1130.544067,300.830109,281.265839,0.1504,0.287458,1137.590942,-0.018588,0.147631,0.1,0.0,1.0,2672.415283
93.025269,396.569397,397.762817,7.373112,3.963646,7.373112,3.963646,400.000153,400.0,505.33783,75.154213,1129.908936,301.003326,281.443573,0.149702,0.289383,1137.13208,-0.01878,0.147532,0.1,0.0,1.0,2672.480713
93.015564,402.404968,403.598419,7.368103,3.990629,7.368103,3.990629,400.000153,400.0,511.141632,75.172874,1128.917114,301.29187,281.732574,0.148972,0.293549,1136.331177,-0.018875,0.147462,0.1,0.0,1.0,2672.587891
93.001846,406.187439,407.38089,7.364777,4.008082,7.364777,4.008082,410.000153,410.0,514.903687,75.184219,1128.294312,301.484467,281.921753,0.148702,0.296772,1135.805664,-0.019003,0.147362,0.1,0.0,1.0,2672.657227
92.969009,411.700684,412.894104,7.360838,4.029006,7.360838,4.029006,410.000153,410.0,520.385498,75.199745,1127.089111,301.774292,282.199585,0.147303,0.302246,1135.079224,-0.019086,0.147296,0.1,0.0,1.0,2672.739502
92.948235,415.477417,416.670868,7.357471,4.037902,7.357471,4.037902,410.000153,410.0,524.140869,75.209755,1126.161743,301.981781,282.391235,0.146177,0.306844,1134.514526,-0.019186,0.147217,0.1,0.0,1.0,2672.785889
92.914078,421.137451,422.330872,7.351086,4.047676,7.351086,4.047676,420.000153,420.0,529.767822,75.223839,1124.638916,302.307373,282.680267,0.144976,0.315096,1133.622437,-0.019228,0.147149,0.1,0.0,1.0,2672.845703
92.893677,425.06369,426.257141,7.345774,4.05638,7.345774,4.05638,420.000153,420.0,533.670837,75.233009,1123.509155,302.541687,282.88205,0.144743,0.321454,1132.940552,-0.019275,0.147022,0.1,0.0,1.0,2672.882813
92.863708,430.55368,431.747131,7.339089,4.075426,7.339089,4.075426,430.000153,430.0,539.128296,75.245049,1121.925659,302.875793,283.166107,0.145223,0.330365,1131.87561,-0.019316,0.146915,0.1,0.0,1.0,2672.930176
92.845169,434.471985,435.665436,7.334139,4.094629,7.334139,4.094629,430.000153,430.0,543.021912,75.25309,1120.830688,303.11499,283.370239,0.145959,0.336161,1131.138672,-0.019407,0.146782,0.1,0.0,1.0,2672.96167
92.813828,440.107483,441.300934,7.327445,4.127776,7.327445,4.127776,440.000153,440.0,548.622009,75.263908,1119.267456,303.45578,283.665955,0.147276,0.343018,1129.987549,-0.019498,0.146683,0.1,0.0,1.0,2673.005371
92.798256,443.858734,445.052185,7.32255,4.151276,7.32255,4.151276,440.000153,440.0,552.351135,75.270638,1118.211182,303.679199,283.864288,0.148038,0.346477,1129.106445,-0.019656,0.146549,0.1,0.0,1.0,2673.03418
92.767647,449.480835,450.674255,7.31557,4.183553,7.31557,4.183553,450.000153,450.0,557.937988,75.28006,1116.569946,304.009186,284.163391,0.148759,0.350184,1127.855103,-0.019768,0.146451,0.1,0.0,1.0,2673.077881
92.749382,453.223297,454.416748,7.310468,4.201521,7.310468,4.201521,450.000153,450.0,561.657898,75.285927,1115.43457,304.22702,284.36377,0.148879,0.351953,1126.932861,-0.019922,0.146311,0.1,0.0,1.0,2673.108398
92.72683,458.829987,460.023438,7.303189,4.221174,7.303189,4.221174,460.000153,460.0,567.230591,75.294167,1113.684692,304.55365,284.665619,0.148645,0.354139,1125.515015,-0.020007,0.146209,0.1,0.0,1.0,2673.156494
92.712212,462.562103,463.755554,7.29789,4.230045,7.29789,4.230045,460.000153,460.0,570.940857,75.299316,1112.498901,304.772949,284.867615,0.148313,0.355583,1124.498901,-0.020101,0.146064,0.1,0.0,1.0,2673.190918
92.693642,468.152985,469.346436,7.29049,4.238716,7.29049,4.238716,470.000153,470.0,576.498718,75.306572,1110.726685,305.105988,285.17157,0.147768,0.358045,1122.950928,-0.020143,0.145958,0.1,0.0,1.0,2673.245361
92.679138,471.874512,473.067963,7.285272,4.243071,7.285272,4.243071,470.000153,470.0,580.199158,75.311119,1109.572632,305.330902,285.374817,0.147494,0.35992,1121.865479,-0.020184,0.14581,0.1,0.0,1.0,2673.283936
92.656105,477.449707,478.643158,7.27828,4.249717,7.27828,4.249717,480.000153,480.0,585.742676,75.317566,1107.908203,305.671875,285.680573,0.147343,0.36296,1120.255371,-0.020205,0.145705,0.1,0.0,1.0,2673.344482
92.64592,481.160736,482.354187,7.27353,4.255157,7.27353,4.255157,480.000153,480.0,589.433899,75.321617,1106.856323,305.900604,285.88501,0.147399,0.364982,1119.130737,-0.020237,0.145566,0.1,0.0,1.0,2673.386719
92.6241,486.720215,487.913666,7.267148,4.265143,7.267148,4.265143,490.000153,490.0,594.964294,75.327362,1105.361938,306.244171,286.192566,0.147666,0.367756,1117.471924,-0.020263,0.145471,0.1,0.0,1.0,2673.452393
92.612885,490.266571,491.459991,7.262915,4.272447,7.262915,4.272447,490.000153,490.0,598.493774,75.330841,1104.448364,306.463135,286.389618,0.147881,0.369254,1116.367188,-0.02031,0.145343,0.1,0.0,1.0,2673.49585
92.59301,495.811493,497.004944,7.256914,4.284078,7.256914,4.284078,500.000153,500.0,604.012451,75.336014,1103.063721,306.804443,286.698792,0.148181,0.371105,1114.731689,-0.020345,0.145258,0.1,0.0,1.0,2673.565918
92.583229,499.502838,500.696289,7.252699,4.291368,7.252699,4.291368,500.000153,500.0,607.687744,75.339294,1102.165894,307.031006,286.905396,0.148304,0.372023,1113.62146,-0.0204,0.145138,0.1,0.0,1.0,2673.614502
92.569984,505.186127,506.379578,7.246817,4.300643,7.246817,4.300643,500.000153,500.0,613.348022,75.344124,1100.803101,307.379364,287.224579,0.148356,0.373092,1111.918945,-0.020435,0.145054,0.1,0.0,1.0,2673.691895
92.556931,508.866974,510.060425,7.242902,4.305191,7.242902,4.305191,510.000153,510.0,617.015869,75.34713,1099.947266,307.605225,287.431976,0.148294,0.373656,1110.783691,-0.020479,0.144936,0.1,0.0,1.0,2673.744141
92.545181,514.380981,515.574463,7.237647,4.309803,7.237647,4.309803,510.000153,510.0,622.51239,75.351471,1098.706543,307.944763,287.7435,0.148129,0.374473,1109.104126,-0.020501,0.144858,0.1,0.0,1.0,2673.824951
92.535591,518.052673,519.246094,7.233937,4.311805,7.233937,4.311805,520.000122,520.0,626.173401,75.354271,1097.910767,308.171875,287.951416,0.14802,0.37505,1108.018066,-0.020523,0.144753,0.1,0.0,1.0,2673.880371
92.523209,523.401733,524.595215,7.228984,4.31388,7.228984,4.31388,520.000122,520.0,631.507629,75.357819,1096.789063,308.504333,288.254913,0.147869,0.375978,1106.514526,-0.020532,0.144679,0.1,0.0,1.0,2673.963867
92.514114,527.217773,528.411194,7.225336,4.315218,7.225336,4.315218,530.000122,530.0,635.314514,75.35881,1096.022949,308.742584,288.471832,0.147821,0.376678,1105.445068,-0.020542,0.14458,0.1,0.0,1.0,2674.025146
92.497902,532.556152,533.749634,7.22084,4.317427,7.220821,4.317365,530.000122,530.0,640.639832,75.360222,1095.000488,309.076813,288.775726,0.147811,0.377654,1104.091675,-0.020549,0.144507,0.1,0.0,1.0,2674.113037
92.491631,536.364624,537.558105,7.217658,4.319473,7.21758,4.319213,540.000122,540.0,644.440674,75.361244,1094.314209,309.315674,288.99292,0.147838,0.378292,1103.11377,-0.020559,0.144416,0.1,0.0,1.0,2674.177246
92.479965,541.842957,543.036438,7.213556,4.322967,7.213321,4.322183,540.000122,540.0,649.90979,75.36277,1093.37561,309.659454,289.305756,0.147915,0.379073,1101.738037,-0.020569,0.144352,0.1,0.0,1.0,2674.271729
92.472572,545.491821,546.685303,7.210804,4.325482,7.210417,4.324193,550.000122,550.0,653.553345,75.363823,1092.778198,309.888336,289.514404,0.14797,0.379485,1100.860107,-0.020586,0.144266,0.1,0.0,1.0,2674.335938
92.457687,550.964905,552.158386,7.207195,4.329122,7.206511,4.32684,550.000122,550.0,659.015015,75.365479,1091.921021,310.231262,289.827362,0.147997,0.379958,1099.8479,-0.020598,0.144208,0.1,0.0,1.0,2674.434082
92.451279,554.458069,555.651489,7.204823,4.331233,7.203904,4.328171,550.000122,550.0,662.502197,75.366585,1091.394897,310.450134,290.027283,0.147982,0.380183,1099.169678,-0.020615,0.14413,0.1,0.0,1.0,2674.498047
92.445427,559.917969,561.111389,7.201578,4.333988,7.200223,4.329472,560.000122,560.0,667.957092,75.368423,1090.598511,310.792694,290.340149,0.147944,0.380474,1097.964844,-0.020625,0.144078,0.1,0.0,1.0,2674.599854
92.438408,563.706421,564.899902,7.19928,4.33554,7.197573,4.329849,560.000122,560.0,671.742981,75.369774,1090.070557,311.03064,290.557343,0.147907,0.380655,1097.17334,-0.020638,0.144004,0.1,0.0,1.0,2674.672119
92.429245,569.156311,570.349731,7.196461,4.337437,7.194175,4.329816,570.000122,570.0,677.191406,75.371849,1089.339966,311.373657,290.869934,0.147826,0.380922,1096.032471,-0.020645,0.143951,0.1,0.0,1.0,2674.777344
92.418373,572.788452,573.981873,7.194601,4.338532,7.191882,4.32947,570.000122,570.0,680.821777,75.373314,1088.883179,311.602539,291.078217,0.147772,0.381108,1095.399414,-0.020654,0.143883,0.1,0.0,1.0,2674.848877
92.412117,578.233215,579.426636,7.192205,4.340156,7.188766,4.328694,580.000122,580.0,686.264465,75.375664,1088.235107,311.946228,291.390472,0.147724,0.381403,1094.502441,-0.02066,0.143838,0.1,0.0,1.0,2674.958008
92.407188,581.707886,582.901306,7.190644,4.341299,7.186702,4.328158,580.000122,580.0,689.740112,75.377266,1087.842407,312.165955,291.589844,0.147702,0.381588,1093.863892,-0.020667,0.143775,0.1,0.0,1.0,2675.028564
92.402542,587.143311,588.336731,7.18863,4.343341,7.183829,4.327341,590.000122,590.0,695.177795,75.379921,1087.256226,312.509888,291.901703,0.147718,0.381853,1092.933594,-0.020673,0.143734,0.1,0.0,1.0,2675.140381
92.396545,590.915588,592.10907,7.187235,4.344946,7.181789,4.326795,590.000122,590.0,698.952332,75.381882,1086.875366,312.748657,292.118164,0.147738,0.382001,1092.333618,-0.020683,0.143677,0.1,0.0,1.0,2675.219238
92.388535,596.192261,597.385742,7.185647,4.347339,7.17923,4.325949,600.000122,600.0,704.234436,75.384796,1086.368774,313.082764,292.42099,0.147747,0.382152,1091.462158,-0.02069,0.143636,0.1,0.0,1.0,2675.330566
