airspeed_indicator_indicated_speed_kt,altimeter_indicated_altitude_ft,altimeter_pressure_alt_ft,attitude_indicator_indicated_pitch_deg,attitude_indicator_indicated_roll_deg,attitude_indicator_internal_pitch_deg,attitude_indicator_internal_roll_deg,encoder_indicated_altitude_ft,encoder_pressure_alt_ft,gps_indicated_altitude_ft,gps_indicated_ground_speed_kt,gps_indicated_vertical_speed,indicated_heading_deg,magnetic_compass_indicated_heading_deg,slip_skid_ball_indicated_slip_skid,turn_indicator_indicated_turn_rate,vertical_speed_indicator_indicated_speed_fpm,flight_aileron,flight_elevator,flight_rudder,flight_flaps,engine_throttle,engine_rpm
6.540532,-87.942635,-86.749191,2.970729,1.358366,2.591064,0.092816,-89.999855,-90.0,2.286525,0.0,0.008374,297.867401,278.815063,0.012379,-0.048189,-16.898806,-0.0,0.0,0.0,0.0,0.0,600.224304
6.597061,-87.956421,-86.762978,2.928697,1.217965,2.591111,0.092678,-89.999855,-90.0,2.286562,0.0,0.002579,297.866119,282.311096,0.012419,-0.041293,-19.344465,-0.019405,0.051821,0.0,0.0,1.0,608.628479
6.638947,-87.963394,-86.769951,2.772907,0.72346,2.583606,0.092456,-89.999855,-90.0,2.286545,3.5E-5,-0.012327,297.865234,284.527802,0.012363,-0.037374,-16.631521,-0.017399,0.051822,6.4E-5,0.0,1.0,672.776367
6.7099,-87.971649,-86.778206,2.5776,0.198239,2.545154,0.090085,-89.999855,-90.0,2.286407,2.29E-4,-0.043143,297.863739,287.738464,0.011968,-0.032269,-18.378805,-0.010335,0.051672,1.08E-4,0.0,1.0,852.915771
6.786138,-87.976006,-86.782555,2.510458,0.086198,2.510458,0.086198,-89.999855,-90.0,2.286293,7.4E-4,-0.019897,297.862579,289.78241,0.011979,-0.029343,-15.22288,-0.002832,0.050903,1.83E-4,0.0,1.0,1004.676147
6.983493,-87.981194,-86.78775,2.491193,0.076388,2.491193,0.076388,-89.999855,-90.0,2.286351,0.003818,0.041401,297.860535,292.673401,0.01323,-0.025606,-15.409124,-0.001231,0.050209,2.41E-4,0.0,1.0,1245.628784
7.180522,-87.98391,-86.790466,2.495587,0.067768,2.495587,0.067768,-89.999855,-90.0,2.28656,0.008771,0.080357,297.858704,294.468658,0.014699,-0.023534,-16.046494,-0.001091,0.049824,3.43E-4,0.0,1.0,1401.179688
7.582593,-87.987076,-86.793633,2.514478,0.053048,2.514478,0.053048,-89.999855,-90.0,2.287112,0.023139,0.136262,297.854065,296.940582,0.018117,-0.021143,-18.427778,-9.68E-4,0.049912,4.35E-4,0.0,1.0,1610.941528
7.920744,-87.988678,-86.795235,2.530442,0.042804,2.530442,0.042804,-89.999855,-90.0,2.287637,0.038856,0.172605,297.848816,298.430145,0.021289,-0.020102,-14.610259,-7.58E-4,0.05029,6.67E-4,0.0,1.0,1730.433716
7.920744,-87.988678,-86.795235,2.530442,0.042804,2.530442,0.042804,-89.999855,-90.0,2.287637,0.038856,0.172605,297.848816,298.430145,0.021289,-0.020102,-14.610259,-7.58E-4,0.05029,6.67E-4,0.0,1.0,1730.433716
8.946309,-87.991486,-86.798042,2.569131,0.020239,2.569131,0.020239,-89.999855,-90.0,2.289445,0.103367,0.266629,297.824219,301.467194,0.031208,-0.019777,-15.742757,-6.11E-4,0.050609,9.29E-4,0.0,1.0,1949.031494
9.713687,-87.992172,-86.798729,2.589873,0.008582,2.589873,0.008582,-89.999855,-90.0,2.290998,0.167804,0.334257,297.797363,302.968994,0.02993,-0.021243,-18.4471,-2.89E-4,0.051383,0.002159,0.0,1.0,2043.165649
10.274999,-87.992332,-86.798889,2.601099,0.00237,2.601099,0.00237,-89.999855,-90.0,2.292246,0.222796,0.38286,297.774719,303.786713,0.029264,-0.022781,-4.684585,-1.23E-4,0.051797,0.003502,0.0,1.0,2090.882813
11.126178,-87.99218,-86.798737,2.614172,-0.004299,2.614172,-0.004299,-89.999855,-90.0,2.294345,0.31906,0.455245,297.737061,304.684265,0.028589,-0.025451,-1.045058,-3.4E-5,0.052022,0.004634,0.0,1.0,2141.925049
11.714416,-87.991829,-86.798386,2.621584,-0.00745,2.621584,-0.00745,-89.999855,-90.0,2.295953,0.394724,0.506494,297.708649,305.100586,0.02827,-0.027507,6.750999,6.1E-5,0.052283,0.006517,0.0,1.0,2166.780029
12.593674,-87.99099,-86.797546,2.630445,-0.010479,2.630445,-0.010479,-89.999855,-90.0,2.298607,0.52176,0.582999,297.665527,305.452209,0.02768,-0.030359,12.598088,1.06E-4,0.052432,0.007938,0.0,1.0,2193.075684
13.232942,-87.990143,-86.7967,2.635946,-0.01173,2.635946,-0.01173,-89.999855,-90.0,2.300735,0.624643,0.639373,297.63382,305.523132,0.027365,-0.032268,16.492229,1.5E-4,0.052609,0.010094,0.0,1.0,2206.271973
14.164,-87.988586,-86.795135,2.642678,-0.01246,2.642678,-0.01246,-89.999855,-90.0,2.304148,0.790447,0.722912,297.590576,305.373352,0.026847,-0.034253,11.874709,1.68E-4,0.052719,0.011679,0.0,1.0,2219.805176
14.789489,-87.987312,-86.793869,2.646806,-0.012251,2.646806,-0.012251,-89.999855,-90.0,2.306655,0.912417,0.778047,297.563721,305.11676,0.026647,-0.035087,17.641829,1.78E-4,0.052854,0.013841,0.0,1.0,2227.069092
15.706385,-87.985146,-86.791702,2.652379,-0.011367,2.652379,-0.011367,-89.999855,-90.0,2.310649,1.106407,0.861318,297.530396,304.533661,0.026341,-0.035211,16.087336,1.75E-4,0.052936,0.015184,0.0,1.0,2235.852539
16.363903,-87.983353,-86.789909,2.656386,-0.010449,2.656386,-0.010449,-89.999855,-90.0,2.31375,1.256478,0.920773,297.510498,303.976776,0.026355,-0.034676,12.536099,1.62E-4,0.053048,0.01685,0.0,1.0,2241.072266
17.260506,-87.980598,-86.787155,2.661687,-0.009043,2.661687,-0.009043,-89.999855,-90.0,2.318302,1.475645,1.002939,297.489746,303.050354,0.02651,-0.033025,13.466168,1.49E-4,0.053128,0.017845,0.0,1.0,2247.079102
17.920982,-87.97834,-86.784897,2.66569,-0.00782,2.66569,-0.00782,-89.999855,-90.0,2.321896,1.647657,1.063266,297.478394,302.257935,0.026779,-0.03135,11.961888,1.29E-4,0.053234,0.018883,0.0,1.0,2250.859863
18.846376,-87.974846,-86.781403,2.671224,-0.005944,2.671224,-0.005944,-89.999855,-90.0,2.32728,1.903576,1.149384,297.467224,301.012177,0.02731,-0.028541,16.396065,1.12E-4,0.053314,0.01945,0.0,1.0,2255.45752
19.534695,-87.971992,-86.778549,2.675443,-0.004335,2.675443,-0.004335,-89.999855,-90.0,2.331546,2.104838,1.210682,297.461182,299.99939,0.027686,-0.026364,17.491146,8.5E-5,0.053424,0.020009,0.0,1.0,2258.461914
20.460743,-87.967812,-86.774368,2.681032,-0.001912,2.681032,-0.001912,-89.999855,-90.0,2.337647,2.390392,1.295226,297.454498,298.542236,0.028141,-0.023568,13.232759,6.2E-5,0.053509,0.020311,0.0,1.0,2262.087158
21.095638,-87.964714,-86.771263,2.684983,-2.6E-5,2.684983,-2.6E-5,-89.999855,-90.0,2.342069,2.595674,1.353375,297.449615,297.494965,0.028295,-0.021928,15.761289,2.7E-5,0.053621,0.020645,0.0,1.0,2264.355713
22.074085,-87.959579,-86.766129,2.691031,0.003215,2.691031,0.003215,-89.999855,-90.0,2.349265,2.926842,1.443781,297.439972,295.828796,0.028181,-0.020036,15.752976,0.0,0.0537,0.020889,0.0,1.0,2267.592041
22.68148,-87.956154,-86.762711,2.694904,0.005438,2.694904,0.005438,-89.999855,-90.0,2.353971,3.14147,1.498547,297.431824,294.774628,0.027827,-0.019339,19.05088,-4.6E-5,0.053821,0.021371,0.0,1.0,2269.479004
23.65613,-87.954147,-86.760704,2.701091,0.009286,2.701091,0.009286,-89.999855,-90.0,2.361914,3.500447,1.588015,297.414978,293.072571,0.026856,-0.018932,17.014,-7.8E-5,0.053898,0.021779,0.0,1.0,2272.364258
24.286871,-87.954147,-86.760704,2.705266,0.011946,2.705266,0.011946,-89.999855,-90.0,2.367313,3.74211,1.646064,297.401245,291.977203,0.025959,-0.019144,17.014,-1.33E-4,0.054022,0.022621,0.0,1.0,2274.158447
25.205515,-87.954147,-86.760704,2.711308,0.015906,2.711308,0.015906,-89.999855,-90.0,2.375534,4.10661,1.731077,297.378296,290.411377,0.024278,-0.019847,17.014,-1.71E-4,0.054105,0.023308,0.0,1.0,2276.693848
25.834549,-87.954147,-86.760704,2.715639,0.018711,2.715639,0.018711,-89.999855,-90.0,2.381409,4.364625,1.789528,297.360809,289.369995,0.023047,-0.020551,17.014,-2.27E-4,0.054226,0.024455,0.0,1.0,2278.388916
26.776281,-87.954147,-86.760704,2.724373,0.02404,2.724373,0.02404,-89.999855,-90.0,2.390791,4.763598,2.002864,297.333832,287.874207,0.021496,-0.021534,17.014,-2.67E-4,0.054313,0.02533,0.0,1.0,2280.880859
27.428804,-87.954147,-86.760704,2.73267,0.031544,2.73267,0.031544,-89.999855,-90.0,2.397963,5.048876,2.154635,297.31485,286.891968,0.02029,-0.022099,17.014,-3.43E-4,0.054487,0.026678,0.0,1.0,2282.584473
28.341112,-87.954147,-86.760704,2.739475,0.035955,2.739475,0.035955,-89.999855,-90.0,2.408662,5.459228,2.242897,297.289764,285.607758,0.018202,-0.022676,17.014,-4.51E-4,0.054653,0.027628,0.0,1.0,2284.942139
28.966494,-87.954147,-86.760704,2.743754,0.038556,2.743754,0.038556,-89.999855,-90.0,2.416251,5.747808,2.305635,297.273743,284.795288,0.01726,-0.02285,17.014,-5.14E-4,0.054789,0.028882,0.0,1.0,2286.551514
29.902925,-87.954147,-86.760704,2.750407,0.042157,2.750407,0.042157,-89.999855,-90.0,2.428033,6.191328,2.401668,297.252411,283.690338,0.016342,-0.022656,17.014,-5.51E-4,0.054875,0.029683,0.0,1.0,2288.957764
30.526077,-87.954147,-86.760704,2.755146,0.044618,2.755146,0.044618,-89.999855,-90.0,2.436156,6.493917,2.466282,297.239502,283.03421,0.015969,-0.022345,17.014,-6.02E-4,0.055008,0.030749,0.0,1.0,2290.557373
31.459099,-87.954147,-86.760704,2.762233,0.048303,2.762233,0.048303,-89.999855,-90.0,2.448742,6.957844,2.562583,297.221924,282.17688,0.015661,-0.021654,17.014,-6.37E-4,0.055103,0.031395,0.0,1.0,2292.951172
32.105541,-87.954147,-86.760704,2.767338,0.051048,2.767338,0.051048,-89.999855,-90.0,2.457766,7.286912,2.628973,297.2099,281.673645,0.015496,-0.021217,17.014,-6.9E-4,0.055245,0.032274,0.0,1.0,2294.610107
33.035233,-87.954147,-86.760704,2.774507,0.055138,2.774507,0.055138,-89.999855,-90.0,2.471167,7.770384,2.729628,297.191956,281.083984,0.015108,-0.020753,17.014,-7.29E-4,0.055347,0.032875,0.0,1.0,2296.994873
33.627048,-87.954147,-86.760704,2.779206,0.057969,2.779206,0.057969,-89.999855,-90.0,2.47998,8.085044,2.786371,297.179291,280.790833,0.014649,-0.020692,17.014,-7.88E-4,0.05549,0.033772,0.0,1.0,2298.516602
34.552261,-87.954147,-86.760704,2.789786,0.062544,2.789786,0.062544,-89.999855,-90.0,2.494288,8.586306,2.948324,297.157135,280.461487,0.013593,-0.020967,17.014,-8.28E-4,0.055584,0.034405,0.0,1.0,2300.895752
35.16695,-87.954147,-86.760704,2.798316,0.065831,2.798316,0.065831,-89.999855,-90.0,2.505139,8.926241,3.286299,297.140015,280.32785,0.012508,-0.021501,17.014,-8.93E-4,0.055796,0.035513,0.0,1.0,2302.480225
36.11256,-87.954147,-86.760704,2.80539,0.070951,2.80539,0.070951,-89.999855,-90.0,2.522292,9.459027,3.384711,297.110809,280.251617,0.01053,-0.022649,17.014,-9.4E-4,0.055966,0.036369,0.0,1.0,2304.920898
36.69928,-87.954147,-86.760704,2.80974,0.074253,2.80974,0.074253,-89.999855,-90.0,2.53322,9.795396,3.450832,297.090851,280.280151,0.008997,-0.02356,17.014,-0.001014,0.056108,0.03783,0.0,1.0,2306.437256
37.615112,-87.954147,-86.760704,2.816744,0.079245,2.816744,0.079245,-89.999855,-90.0,2.550752,10.329585,3.557684,297.058716,280.434479,0.006596,-0.024945,17.014,-0.001061,0.056195,0.038828,0.0,1.0,2308.808838
38.198544,-87.954147,-86.760704,2.821508,0.082484,2.821508,0.082484,-89.999855,-90.0,2.562229,10.675649,3.623136,297.037567,280.598633,0.005022,-0.025827,17.014,-0.001132,0.056335,0.040434,0.0,1.0,2310.323242
39.160912,-87.954147,-86.760704,2.829223,0.087388,2.829223,0.087388,-89.999855,-90.0,2.581664,11.255278,3.740272,297.003845,280.971558,0.002926,-0.026902,17.014,-0.001178,0.05643,0.041492,0.0,1.0,2312.823975
39.74099,-87.954147,-86.760704,2.834019,0.090365,2.834019,0.090365,-89.999855,-90.0,2.593707,11.610724,3.783683,296.98407,281.253113,0.001802,-0.027385,17.014,-0.001248,0.056584,0.043178,0.0,1.0,2314.33667
40.646561,-87.954147,-86.760704,2.851394,0.097412,2.851394,0.097412,-89.999855,-90.0,2.613491,12.173815,4.257752,296.955383,281.767578,7.25E-4,-0.027611,17.014,-0.001291,0.05668,0.044167,0.0,1.0,2316.702881
41.248497,-87.954147,-86.760704,2.85679,0.102095,2.85679,0.102095,-89.999855,-90.0,2.627989,12.553627,4.399776,296.937256,282.153992,3.0E-5,-0.027614,17.014,-0.001392,0.057028,0.045601,0.0,1.0,2318.279541
42.147961,-87.954147,-86.760704,2.861278,0.106281,2.861278,0.106281,-89.999855,-90.0,2.650266,13.129726,4.507465,296.912018,282.787323,-5.43E-4,-0.027357,17.014,-0.001459,0.057136,0.046507,0.0,1.0,2320.641602
42.746044,-87.954147,-86.760704,2.865308,0.109123,2.865308,0.109123,-89.999855,-90.0,2.665433,13.517909,4.585076,296.895752,283.238617,-7.44E-4,-0.027128,17.014,-0.001518,0.057226,0.047769,0.0,1.0,2322.21582
43.640568,-87.954147,-86.760704,2.8722,0.113483,2.8722,0.113483,-89.999855,-90.0,2.688671,14.106119,4.703719,296.871674,283.947632,-8.75E-4,-0.026777,17.014,-0.001559,0.057306,0.048582,0.0,1.0,2325.555176
44.25964,-87.954147,-86.760704,2.87734,0.116807,2.87734,0.116807,-89.999855,-90.0,2.705151,14.518649,4.782602,296.853912,284.455505,-0.001068,-0.026738,17.014,-0.001621,0.057444,0.049786,0.0,1.0,2328.656494
45.124527,-87.954147,-86.760704,2.890739,0.12186,2.890739,0.12186,-89.999855,-90.0,2.730018,15.101565,5.377526,296.82724,285.177002,-0.001613,-0.026956,17.014,-0.001669,0.057547,0.050674,0.0,1.0,2333.645264
45.740662,-87.954147,-86.760704,2.897033,0.126583,2.897033,0.126583,-89.999855,-90.0,2.748873,15.521652,5.486053,296.80603,285.693176,-0.002349,-0.027417,17.014,-0.001741,0.057815,0.052008,0.0,1.0,2337.501953
46.627926,-87.954147,-86.760704,2.903597,0.131723,2.903597,0.131723,-89.999855,-90.0,2.776593,16.131847,5.599873,296.773041,286.427124,-0.003953,-0.028417,17.014,-0.001808,0.057941,0.053069,0.0,1.0,2343.312744
47.218693,-87.954147,-86.760704,2.908215,0.135236,2.908215,0.135236,-89.999855,-90.0,2.795414,16.542004,5.684015,296.749146,286.904602,-0.00531,-0.029304,17.014,-0.001882,0.058072,0.054718,0.0,1.0,2347.294678
48.104061,-87.954147,-86.760704,2.915243,0.140236,2.915243,0.140236,-89.999855,-90.0,2.824172,17.162121,5.810563,296.712219,287.594086,-0.00753,-0.030627,17.014,-0.001932,0.058164,0.055913,0.0,1.0,2353.366211
48.69379,-87.954147,-86.760704,2.920158,0.143587,2.920158,0.143587,-89.999855,-90.0,2.843699,17.578699,5.896514,296.68689,288.031128,-0.009054,-0.031522,17.014,-0.002003,0.058305,0.057759,0.0,1.0,2357.456543
49.577042,-87.954147,-86.760704,2.934276,0.155958,2.934276,0.155958,-89.999855,-90.0,2.874574,18.208166,6.594572,296.650208,288.645325,-0.010675,-0.032276,17.014,-0.002051,0.058403,0.059026,0.0,1.0,2363.631592
50.164223,-87.954147,-86.760704,2.943052,0.161462,2.943052,0.161462,-89.999855,-90.0,2.897534,18.630781,6.925647,296.626099,289.023376,-0.012226,-0.032777,17.014,-0.002228,0.058686,0.06086,0.0,1.0,2367.764893
51.044312,-87.954147,-86.760704,2.949282,0.165738,2.949282,0.165738,-89.999855,-90.0,2.932498,19.269014,7.053971,296.592224,289.537598,-0.013631,-0.033125,17.014,-0.002307,0.058861,0.062065,0.0,1.0,2373.981445
51.630409,-87.954147,-86.760704,2.953562,0.168476,2.953562,0.168476,-89.999855,-90.0,2.956182,19.697296,7.147056,296.570801,289.842529,-0.014175,-0.033163,17.014,-0.002368,0.058986,0.063759,0.0,1.0,2378.134277
52.508461,-87.954147,-86.760704,2.960287,0.172161,2.960287,0.172161,-89.999855,-90.0,2.992296,20.343775,7.290218,296.540802,290.239655,-0.01434,-0.032877,17.014,-0.002407,0.059071,0.06483,0.0,1.0,2384.373047
53.093243,-87.954147,-86.760704,2.96504,0.174641,2.96504,0.174641,-89.999855,-90.0,3.016771,20.777386,7.385615,296.52121,290.462677,-0.014146,-0.032662,17.014,-0.002459,0.059206,0.06633,0.0,1.0,2388.537354
53.969311,-87.954147,-86.760704,2.971885,0.178132,2.971885,0.178132,-89.999855,-90.0,3.054082,21.431608,7.528844,296.492065,290.733002,-0.013523,-0.032344,17.014,-0.002495,0.059301,0.06731,0.0,1.0,2394.791016
54.552692,-87.954147,-86.760704,2.976548,0.180565,2.976548,0.180565,-89.999855,-90.0,3.079357,21.87022,7.625514,296.471649,290.870056,-0.013081,-0.032325,17.014,-0.002545,0.059438,0.068767,0.0,1.0,2398.9646
55.426811,-87.954147,-86.760704,2.983216,0.184066,2.983216,0.184066,-89.999855,-90.0,3.117862,22.531708,7.766767,296.439423,291.010986,-0.012507,-0.03255,17.014,-0.002579,0.059531,0.069788,0.0,1.0,2405.231934
56.008892,-87.954147,-86.760704,2.987851,0.186511,2.987851,0.186511,-89.999855,-90.0,3.143929,22.975006,7.862533,296.416077,291.062408,-0.012322,-0.032984,17.014,-0.00263,0.059664,0.071399,0.0,1.0,2409.414307
56.880985,-87.954147,-86.760704,2.994245,0.190165,2.994245,0.190165,-89.999855,-90.0,3.183577,23.643293,7.944096,296.379181,291.077454,-0.012262,-0.033829,17.014,-0.002664,0.059757,0.072566,0.0,1.0,2415.694824
57.461838,-87.954147,-86.760704,2.997922,0.193458,2.997922,0.193458,-89.999855,-90.0,3.210122,24.090977,7.993971,296.353058,291.047516,-0.012429,-0.03456,17.014,-0.002717,0.059885,0.074411,0.0,1.0,2419.886963
58.307808,-87.954147,-86.760704,3.004216,0.196419,3.004216,0.196419,-89.999855,-90.0,3.24935,24.746836,8.134855,296.314606,290.949463,-0.012708,-0.035567,17.014,-0.002764,0.059958,0.075717,0.0,1.0,2426.005615
58.911327,-87.954147,-86.760704,3.008911,0.198461,3.008911,0.198461,-89.999855,-90.0,3.277789,25.217405,8.235477,296.286926,290.842072,-0.012822,-0.036243,17.014,-0.002806,0.060084,0.07764,0.0,1.0,2430.380371
59.778374,-87.954147,-86.760704,3.020012,0.198995,3.020012,0.198995,-89.999855,-90.0,3.321095,25.897984,8.82732,296.248749,290.637024,-0.01254,-0.036866,17.014,-0.002835,0.060178,0.079024,0.0,1.0,2436.686035
60.355366,-87.954147,-86.760704,3.027869,0.200278,3.027869,0.200278,-89.999855,-90.0,3.351018,26.353573,10.166928,296.224243,290.46991,-0.011787,-0.037064,17.014,-0.002843,0.0604,0.080933,0.0,1.0,2440.927979
61.217968,-87.954147,-86.760704,3.039145,0.20186,3.039145,0.20186,-89.999855,-90.0,3.400293,27.039635,9.935471,296.190399,290.178619,-0.01028,-0.036874,17.014,-0.002861,0.060557,0.082158,0.0,1.0,2447.369385
61.792324,-87.954147,-86.760704,3.042835,0.202675,3.042835,0.202675,-89.999855,-90.0,3.433589,27.498737,10.032374,296.168823,289.960358,-0.008649,-0.036622,17.014,-0.002884,0.060783,0.08385,0.0,1.0,2451.697754
62.652714,-87.954147,-86.760704,3.047959,0.20343,3.047959,0.20343,-89.999855,-90.0,3.484157,28.189884,10.185753,296.138306,289.602509,-0.005453,-0.03601,17.014,-0.002895,0.060857,0.084929,0.0,1.0,2458.223633
63.225533,-87.954147,-86.760704,3.051877,0.203821,3.051877,0.203821,-89.999855,-90.0,3.518307,28.652254,10.293075,296.118103,289.346985,-0.00292,-0.035642,17.014,-0.002906,0.060959,0.086455,0.0,1.0,2462.589355
64.083023,-87.954147,-86.760704,3.062946,0.209551,3.062946,0.209551,-89.999855,-90.0,3.571772,29.348122,11.024494,296.088104,288.944061,0.001159,-0.034987,17.014,-0.002912,0.061038,0.087465,0.0,1.0,2469.15332
64.654594,-87.954147,-86.760704,3.067167,0.21582,3.067167,0.21582,-89.999855,-90.0,3.608708,29.813522,11.126289,296.050049,288.66568,0.002252,-0.038529,17.014,-0.002994,0.061259,0.0,0.0,1.0,2473.536865
65.524437,-87.954147,-86.760704,3.067852,0.226649,3.067852,0.226649,-89.999855,-90.0,3.664726,30.513844,11.268379,295.687866,288.238007,-0.012281,-0.092649,17.014,-0.003083,0.061343,0.001903,0.0,1.0,2480.146973
66.112297,-87.954147,-86.760704,3.065967,0.218399,3.065967,0.218399,-89.999855,-90.0,3.702474,30.982216,11.371012,295.255798,287.946899,-0.037427,-0.154042,17.014,-0.003238,0.061357,0.020012,0.0,1.0,2484.596191
66.999817,-87.954147,-86.760704,3.068968,0.190246,3.068968,0.190246,-89.999855,-90.0,3.760688,31.68708,12.67297,294.483521,287.49942,-0.096271,-0.253262,17.014,-0.00312,0.061319,0.041615,0.0,1.0,2491.339844
67.591988,-87.954147,-86.760704,3.073872,0.166832,3.073872,0.166832,-89.999855,-90.0,3.8035,32.158577,12.908481,293.979462,287.192047,-0.141515,-0.308881,17.014,-0.002718,0.061379,0.080229,0.0,1.0,2495.874512
68.480415,-87.954147,-86.760704,3.078102,0.126543,3.078102,0.126543,-89.999855,-90.0,3.868619,32.868267,13.133541,293.435974,286.715149,-0.199945,-0.347545,17.014,-0.002383,0.061477,0.105432,0.0,1.0,2502.722412
69.069817,-87.954147,-86.760704,3.081302,0.097069,3.081302,0.097069,-89.999855,-90.0,3.913539,33.342945,13.959287,293.279266,286.387024,-0.225865,-0.337528,17.014,-0.001808,0.061562,0.132607,0.0,1.0,2507.304199
69.957993,-87.954147,-86.760704,3.038827,-0.026747,3.038827,-0.026747,-89.999855,-90.0,3.98686,34.057209,15.098588,293.420685,285.884613,-0.235818,-0.266969,17.014,-0.001387,0.061626,0.140442,0.0,1.0,2514.201416
70.545181,-87.954147,-86.760704,2.993491,-0.127019,2.993491,-0.127019,-89.999855,-90.0,4.037133,34.534889,14.923738,293.74469,285.549103,-0.219031,-0.19026,17.014,3.82E-4,0.060777,0.133371,0.0,1.0,2518.815186
71.3983,-87.954147,-86.760704,2.96893,-0.196766,2.96893,-0.196766,-89.999855,-90.0,4.109679,35.253399,14.137218,294.430298,285.059479,-0.161529,-0.057379,17.014,0.001815,0.05987,0.117171,0.0,1.0,2525.69043
71.94754,-87.954147,-86.760704,2.97906,-0.182403,2.97906,-0.182403,-89.999855,-90.0,4.156981,35.733505,14.585093,294.911835,284.750946,-0.108257,0.024673,17.014,0.002811,0.059379,0.08289,0.0,1.0,2530.201416
72.759628,-87.954147,-86.760704,2.933371,-0.001689,2.933371,-0.001689,-89.999855,-90.0,4.238815,36.454895,17.871794,295.443848,284.328156,-0.023713,0.105255,17.014,0.002606,0.059581,0.058813,0.0,1.0,2536.845459
73.307114,-87.954147,-86.760704,2.831151,0.207388,2.831151,0.207388,-89.999855,-90.0,4.299276,36.936466,18.023264,295.588806,284.078766,0.025603,0.120935,17.014,2.4E-5,0.058667,0.032213,0.0,1.0,2541.230713
74.149376,-87.954147,-86.760704,2.707074,0.501981,2.707074,0.501981,-89.999855,-90.0,4.385051,37.659771,16.387753,295.421509,283.759338,0.077743,0.080704,17.014,-0.002963,0.056623,0.024965,0.0,1.0,2547.828613
74.72377,-87.954147,-86.760704,2.66951,0.579985,2.66951,0.579985,-89.999855,-90.0,4.439522,38.143055,16.396193,295.088593,283.582825,0.092758,0.020081,17.014,-0.007171,0.054141,0.03333,0.0,1.0,2552.275879
75.59539,-87.954147,-86.760704,2.636637,0.375651,2.636637,0.375651,-89.999855,-90.0,4.527075,38.871941,19.482889,294.439606,283.368042,0.088357,-0.088973,17.014,-0.008286,0.05339,0.049976,0.0,1.0,2559.040771
76.175613,-87.954147,-86.760704,2.644503,0.028779,2.644503,0.028779,-89.999855,-90.0,4.600745,39.358856,25.004448,294.030457,283.254639,0.072297,-0.152852,17.014,-0.005366,0.052733,0.082425,0.0,1.0,2563.604736
77.032623,-87.954147,-86.760704,2.729053,-0.682733,2.729053,-0.682733,-89.999855,-90.0,4.761602,40.090717,40.51162,293.668945,283.123962,0.041161,-0.200422,17.014,-4.11E-4,0.05289,0.102882,0.0,1.0,2570.495361
77.586678,-87.954147,-86.760704,2.831534,-1.165797,2.831534,-1.165797,-89.999855,-90.0,4.922913,40.579437,56.348324,293.651581,283.061188,0.025706,-0.192942,17.014,0.009753,0.054581,0.120958,0.0,1.0,2575.091797
78.371284,-87.954147,-86.760704,3.027466,-1.65139,3.027466,-1.65139,-89.999855,-90.0,5.280079,41.31308,86.754913,293.947296,283.002625,0.019324,-0.12762,17.014,0.016654,0.056631,0.121826,0.0,1.0,2581.921387
78.851349,-87.954147,-86.760704,3.187577,-1.739042,3.187577,-1.739042,-89.999855,-90.0,5.609489,41.802025,110.402603,294.280853,282.987518,0.029328,-0.063321,17.014,0.023591,0.060549,0.10704,0.0,1.0,2586.375244
79.501633,-87.954147,-86.760704,3.409954,-1.460893,3.409954,-1.460893,-89.999855,-90.0,6.259018,42.534153,148.459335,294.768524,283.000458,0.061116,0.027111,17.014,0.024843,0.063752,0.090363,0.0,1.0,2592.493164
79.894768,-87.954147,-86.760704,3.5455,-1.075897,3.5455,-1.075897,-89.999855,-90.0,6.797589,43.020741,173.662781,294.976288,283.031219,0.086545,0.065263,17.014,0.02087,0.068199,0.065979,0.0,1.0,2595.77832
80.446602,-87.954147,-86.760704,3.681727,-0.41763,3.681727,-0.41763,-89.999855,-90.0,7.756753,43.747437,207.921951,294.979889,283.104462,0.119389,0.068447,17.014,0.01537,0.07091,0.055591,0.0,1.0,2599.846924
80.797897,-87.954147,-86.760704,3.75101,-0.051197,3.75101,-0.051197,-89.999855,-90.0,8.484888,44.22942,227.931396,294.780151,283.166016,0.129697,0.03707,17.014,0.005966,0.073635,0.055411,0.0,1.0,2602.16333
81.301338,-87.954147,-86.760704,3.838409,0.186605,3.838409,0.186605,-89.999855,-90.0,9.694165,44.948341,254.244232,294.304443,283.266693,0.124374,-0.037715,17.014,7.31E-4,0.07502,0.065398,0.0,1.0,2605.25
81.618988,-87.954147,-86.760704,3.90626,0.127265,3.90626,0.127265,-89.999855,-90.0,10.569196,45.424828,270.07785,293.977112,283.332977,0.108921,-0.087057,17.014,-0.002666,0.076768,0.089183,0.0,1.0,2607.125488
82.065186,-87.954147,-86.760704,4.012137,-0.216978,4.012137,-0.216978,-89.999855,-90.0,11.979037,46.135174,293.064423,293.678406,283.422211,0.078052,-0.126298,17.014,-0.001818,0.078125,0.10555,0.0,1.0,2609.747803
82.338211,-87.954147,-86.760704,4.094749,-0.500684,4.094749,-0.500684,-89.999855,-90.0,12.982164,46.605614,308.275574,293.668915,283.47168,0.061715,-0.120259,17.014,0.0031,0.080243,0.120485,0.0,1.0,2611.39624
82.70108,-87.954147,-86.760704,4.225683,-0.780168,4.225683,-0.780168,-89.999855,-90.0,14.585695,47.305988,333.373138,293.939697,283.529114,0.052947,-0.064635,17.014,0.007153,0.081895,0.120959,0.0,1.0,2613.740479
82.904823,-87.954147,-86.760704,4.335349,-0.790524,4.335349,-0.790524,-89.999855,-90.0,15.73105,47.768944,353.56012,294.241669,283.557007,0.060964,-0.009708,17.014,0.011145,0.084514,0.10742,0.0,1.0,2615.219971
83.150826,-87.954147,-86.760704,4.510318,-0.493172,4.510318,-0.493172,-89.999855,-90.0,17.58713,48.456562,388.428406,294.675171,283.585052,0.088931,0.065167,17.014,0.011293,0.086707,0.092322,0.0,1.0,2617.310791
83.281647,-87.954147,-86.760704,4.62932,-0.151011,4.62932,-0.151011,-89.999855,-90.0,18.920664,48.909966,410.502228,294.853821,283.594757,0.111299,0.094119,17.014,0.007045,0.090206,0.070647,0.0,1.0,2618.622803
83.453255,-87.954147,-86.760704,4.734705,0.380642,4.734705,0.380642,-89.999855,-90.0,21.046322,49.582054,437.321259,294.846344,283.593567,0.138889,0.089032,17.014,0.002157,0.092586,0.061714,0.0,1.0,2620.491699
83.56131,-87.954147,-86.760704,4.768897,0.640632,4.768897,0.640632,-89.999855,-90.0,22.528475,50.024704,451.187103,294.672028,283.580048,0.145597,0.057574,17.014,-0.005438,0.094694,0.062088,0.0,1.0,2621.69165
83.716194,-87.954147,-86.760704,4.801341,0.730928,4.801341,0.730928,-89.999855,-90.0,24.830236,50.680721,468.327667,294.289642,283.536224,0.136007,-0.008394,17.014,-0.009152,0.095378,0.070804,0.0,1.0,2623.450195
83.811577,-87.954147,-86.760704,4.837632,0.601727,4.837632,0.601727,-89.999855,-90.0,26.408934,51.112915,478.490448,294.05365,283.489014,0.119575,-0.047424,17.014,-0.010442,0.096027,0.089923,0.0,1.0,2624.602295
83.93631,-87.954147,-86.760704,4.911818,0.227247,4.911818,0.227247,-89.999855,-90.0,28.842278,51.753597,494.686981,293.898071,283.388763,0.090767,-0.070756,17.014,-0.008596,0.096753,0.101723,0.0,1.0,2626.302002
84.001953,-87.954147,-86.760704,4.97508,-0.03364,4.97508,-0.03364,-89.999855,-90.0,30.512125,52.175583,506.991852,293.963745,283.302612,0.0777,-0.057845,17.014,-0.003246,0.098236,0.109502,0.0,1.0,2627.412354
84.062912,-87.954147,-86.760704,5.078105,-0.242663,5.078105,-0.242663,-89.999855,-90.0,33.099419,52.800533,527.691711,294.273834,283.147736,0.07449,-0.004159,17.014,4.81E-4,0.099502,0.106218,0.0,1.0,2629.030273
84.074524,-87.954147,-86.760704,5.158777,-0.214044,5.158777,-0.214044,-89.999855,-90.0,34.884167,53.211559,542.781311,294.545441,283.030518,0.084548,0.040513,17.014,0.003467,0.101562,0.090714,0.0,1.0,2630.06665
84.81588,-81.901428,-80.707985,5.263987,0.075234,5.263987,0.075234,-79.999855,-80.0,37.659466,53.819237,566.767883,294.865845,282.83905,0.111001,0.089956,765.115845,0.003058,0.103176,0.077133,0.0,1.0,2631.549561
85.508263,-76.617233,-75.42379,5.326978,0.350604,5.326978,0.350604,-79.999855,-80.0,39.57655,54.218273,582.861938,294.9505,282.703125,0.128284,0.099956,958.628662,-0.001075,0.10528,0.061113,0.0,1.0,2632.494873
86.376221,-69.813133,-68.61969,5.396276,0.694719,5.396276,0.694719,-69.999855,-70.0,42.550163,54.807632,605.401733,294.837585,282.48819,0.143699,0.073932,1079.913574,-0.005009,0.10654,0.05688,0.0,1.0,2633.868896
86.868729,-65.856369,-64.662926,5.440288,0.799075,5.440288,0.799075,-69.999855,-70.0,44.591557,55.194527,618.784302,294.642975,282.337097,0.141953,0.037603,1106.5896,-0.009925,0.107926,0.062526,0.0,1.0,2634.768555
87.508347,-60.566891,-59.373447,5.501756,0.687858,5.501756,0.687858,-59.999859,-60.0,47.734112,55.766144,637.432251,294.325195,282.097046,0.123335,-0.019117,1103.190063,-0.011415,0.108806,0.072256,0.0,1.0,2636.106445
87.880112,-57.370667,-56.177223,5.549675,0.477928,5.549675,0.477928,-59.999859,-60.0,49.879593,56.141571,649.417908,294.182281,281.92746,0.105615,-0.043817,1083.372192,-0.009827,0.110035,0.088145,0.0,1.0,2636.992432
88.367699,-52.938026,-51.744583,5.626999,0.107255,5.626999,0.107255,-49.999859,-50.0,53.173786,56.696335,667.847778,294.181763,281.659668,0.081924,-0.043519,1039.519043,-0.006828,0.110993,0.095291,0.0,1.0,2638.30835
88.648506,-50.163372,-48.969929,5.69212,-0.082806,5.69212,-0.082806,-49.999859,-50.0,55.422272,57.060532,680.902649,294.323517,281.474182,0.075225,-0.019859,1005.703613,-0.001532,0.11254,0.095317,0.0,1.0,2639.169678
89.007339,-46.189903,-44.99646,5.794311,-0.140729,5.794311,-0.140729,-49.999859,-50.0,58.880531,57.598057,702.037903,294.649841,281.190704,0.081537,0.033303,954.077881,0.001183,0.113842,0.088229,0.0,1.0,2640.419922
89.210602,-43.62854,-42.435097,5.867369,-0.028811,5.867369,-0.028811,-39.999859,-40.0,61.2463,57.950352,716.982666,294.861572,281.001495,0.094511,0.066154,921.567383,0.00201,0.115886,0.071913,0.0,1.0,2641.217529
89.480751,-39.865978,-38.672535,5.953084,0.284017,5.953084,0.284017,-39.999859,-40.0,64.889618,58.469437,739.480164,295.023041,280.721893,0.118026,0.087285,878.613831,4.12E-4,0.117347,0.061327,0.0,1.0,2642.358643
89.648392,-37.386997,-36.19355,6.002608,0.498667,6.002608,0.498667,-39.999859,-40.0,67.379044,58.809219,753.517273,294.994293,280.539673,0.128644,0.078178,854.858276,-0.004057,0.119062,0.053253,0.0,1.0,2643.090576
89.892433,-33.682457,-32.48901,6.05844,0.66445,6.05844,0.66445,-29.999857,-30.0,71.196526,59.309647,772.400391,294.779999,280.272827,0.130659,0.036343,827.153687,-0.007124,0.120052,0.054691,0.0,1.0,2644.164063
90.051849,-31.209566,-30.016123,6.095784,0.635338,6.095784,0.635338,-29.999857,-30.0,73.790581,59.637299,783.477356,294.588165,280.098541,0.121485,0.001658,813.798523,-0.009492,0.121169,0.065405,0.0,1.0,2644.87207
90.284691,-27.480816,-26.287371,6.149145,0.394281,6.149145,0.394281,-29.999857,-30.0,77.747986,60.120144,798.816467,294.379272,279.841339,0.098234,-0.035023,800.560547,-0.009076,0.121916,0.074997,0.0,1.0,2645.928467
90.433113,-24.976156,-23.782711,6.192036,0.172916,6.192036,0.172916,-19.999857,-20.0,80.427818,60.436409,808.735229,294.34967,279.672638,0.083406,-0.040209,795.603821,-0.005633,0.122983,0.085442,0.0,1.0,2646.628174
90.638268,-21.18346,-19.990017,6.262751,-0.087598,6.262751,-0.087598,-19.999857,-20.0,84.510902,60.902367,824.18512,294.496246,279.425751,0.070865,-0.015562,792.847046,-0.00247,0.123841,0.086922,0.0,1.0,2647.661621
90.759132,-18.627535,-17.43409,6.320194,-0.152939,6.320194,-0.152939,-19.999857,-20.0,87.277008,61.207279,835.192932,294.681885,279.267365,0.072806,0.014672,793.563782,0.001251,0.125255,0.079593,0.0,1.0,2648.331299
90.917259,-14.746596,-13.553152,6.400031,-0.036558,6.400031,-0.036558,-9.999858,-10.0,91.497681,61.655796,852.636658,294.956512,279.043182,0.088472,0.057654,797.709045,0.002185,0.126404,0.070311,0.0,1.0,2649.292725
91.012444,-12.124791,-10.931347,6.450268,0.138402,6.450268,0.138402,-9.999858,-10.0,94.360039,61.948795,864.344177,295.068634,278.904633,0.102131,0.073284,802.171082,5.22E-4,0.128001,0.05658,0.0,1.0,2649.902344
91.152672,-8.136082,-6.942637,6.502175,0.412465,6.502175,0.412465,-9.999858,-10.0,98.725082,62.379242,880.793213,295.053833,278.7146,0.118237,0.065118,810.894775,-0.001977,0.129005,0.050974,0.0,1.0,2650.758789
91.230133,-5.438278,-4.244834,6.531193,0.527912,6.531193,0.527912,-9.999858,-10.0,101.677795,62.660297,890.272278,294.934875,278.599457,0.120273,0.041904,817.767456,-0.005892,0.130044,0.051714,0.0,1.0,2651.296387
91.335487,-1.333893,-0.140449,6.565291,0.500708,6.565291,0.500708,1.42E-4,0.0,106.160744,63.073364,902.105896,294.694733,278.442017,0.10912,-0.00195,829.125488,-0.007542,0.130624,0.057661,0.0,1.0,2652.039307
91.408897,1.568835,2.762279,6.588778,0.364174,6.588778,0.364174,1.42E-4,0.0,109.179535,63.3433,908.826172,294.564911,278.345917,0.095357,-0.024891,837.094421,-0.007153,0.131306,0.069669,0.0,1.0,2652.50708
91.518524,5.987842,7.181286,6.624712,0.078006,6.624712,0.078006,10.000142,10.0,113.748047,63.740322,918.224731,294.523682,278.213715,0.074193,-0.032256,849.216125,-0.005202,0.131776,0.07616,0.0,1.0,2653.181396
91.586617,8.968106,10.161551,6.656377,-0.089958,6.656377,-0.089958,10.000142,10.0,116.819664,63.999805,924.563782,294.610962,278.133789,0.066338,-0.018018,857.24176,-0.001114,0.132494,0.078221,0.0,1.0,2653.614014
91.674171,13.487205,14.680649,6.709559,-0.180085,6.709559,-0.180085,10.000142,10.0,121.468559,64.381165,934.849365,294.852692,278.028107,0.067776,0.021094,869.057251,0.001285,0.133128,0.073857,0.0,1.0,2654.231201
91.721977,16.531601,17.725044,6.748791,-0.122051,6.748791,-0.122051,20.000143,20.0,124.59742,64.630066,942.270142,295.024811,277.968628,0.076826,0.047769,876.777222,0.002573,0.134191,0.061771,0.0,1.0,2654.616943
91.447502,18.063229,19.256674,6.792665,0.096111,6.792665,0.096111,20.000143,20.0,129.337906,64.9953,953.460327,295.174561,277.897583,0.09547,0.068031,664.015015,0.001744,0.134976,0.053165,0.0,1.0,2655.156006
90.954178,18.063229,19.256674,6.822298,0.322779,6.822298,0.322779,20.000143,20.0,134.13121,65.350868,963.323181,295.134583,277.84845,0.107574,0.05591,338.010681,-0.001373,0.135853,0.045677,0.0,1.0,2655.6604
90.625542,18.063229,19.256674,6.832776,0.392998,6.832776,0.392998,20.000143,20.0,137.351974,65.582703,968.707458,295.017609,277.82663,0.107855,0.032994,117.972351,-0.003692,0.136294,0.045944,0.0,1.0,2655.987549
90.133766,18.063229,19.256674,6.846474,0.331316,6.846474,0.331316,20.000143,20.0,142.212601,65.923042,975.12677,294.800568,277.807312,0.095742,-0.006596,7.141817,-0.005614,0.136656,0.053525,0.0,1.0,2656.477295
89.805069,18.063229,19.256674,6.85587,0.189462,6.85587,0.189462,20.000143,20.0,145.469467,66.145195,978.775635,294.700073,277.801514,0.082406,-0.02444,7.141817,-0.005367,0.136843,0.060919,0.0,1.0,2656.806885
89.305382,18.063229,19.256674,6.878033,-0.072079,6.878033,-0.072079,20.000143,20.0,150.377121,66.471565,984.217773,294.686737,277.801392,0.064764,-0.027216,7.141817,-0.002707,0.137117,0.069402,0.0,1.0,2657.305176
88.959846,18.063229,19.256674,6.900239,-0.210593,6.900239,-0.210593,20.000143,20.0,153.66481,66.684608,988.328308,294.776215,277.806702,0.058729,-0.012585,7.141817,-1.77E-4,0.137391,0.070898,0.0,1.0,2657.635498
88.430061,18.063229,19.256674,6.940803,-0.270496,6.940803,-0.270496,20.000143,20.0,158.624741,66.997299,995.640381,294.995331,277.823456,0.0624,0.022657,7.141817,0.003008,0.138005,0.065594,0.0,1.0,2658.116943
88.061127,18.063229,19.256674,6.968637,-0.200203,6.968637,-0.200203,20.000143,20.0,161.952835,67.201096,1001.076904,295.137604,277.841156,0.071583,0.044611,7.141817,0.003864,0.138816,0.054639,0.0,1.0,2658.421875
87.494736,18.063229,19.256674,6.997315,0.00889,6.997315,0.00889,20.000143,20.0,166.979385,67.499718,1009.17041,295.238708,277.87793,0.088297,0.05758,7.141817,0.00286,0.139373,0.047525,0.0,1.0,2658.853271
87.113815,18.063229,19.256674,7.010446,0.149786,7.010446,0.149786,20.000143,20.0,170.3517,67.694145,1013.950562,295.209259,277.908722,0.095482,0.049879,7.141817,-1.27E-4,0.139946,0.04247,0.0,1.0,2659.128174
86.543152,18.063229,19.256674,7.019384,0.245375,7.019384,0.245375,20.000143,20.0,175.43718,67.979034,1019.760437,295.04953,277.961823,0.095709,0.019427,7.141817,-0.00214,0.140209,0.043942,0.0,1.0,2659.533936
86.163643,18.063229,19.256674,7.023602,0.209839,7.023602,0.209839,20.000143,20.0,178.841629,68.164673,1022.705078,294.915161,277.999908,0.0882,-0.004524,7.141817,-0.003505,0.140388,0.051929,0.0,1.0,2659.805908
85.592888,18.063229,19.256674,7.032099,0.026071,7.032099,0.026071,20.000143,20.0,183.965012,68.437019,1026.470703,294.781738,278.057709,0.070676,-0.027556,7.141817,-0.002998,0.140472,0.058647,0.0,1.0,2660.221191
85.208298,18.063229,19.256674,7.042879,-0.129138,7.042879,-0.129138,20.000143,20.0,187.390945,68.614632,1029.022705,294.77536,278.09549,0.060304,-0.028541,7.141817,-3.72E-4,0.140642,0.065318,0.0,1.0,2660.501953
84.617912,18.063229,19.256674,7.067887,-0.29299,7.067887,-0.29299,20.000143,20.0,192.547302,68.875183,1033.566772,294.896484,278.150269,0.052887,-0.007944,7.141817,0.001845,0.140858,0.065637,0.0,1.0,2660.922119
84.211678,18.063229,19.256674,7.090889,-0.318612,7.090889,-0.318612,20.000143,20.0,195.99881,69.04493,1037.296143,295.029938,278.185883,0.055688,0.013895,7.141817,0.004186,0.141358,0.059581,0.0,1.0,2661.195068
83.583542,18.063229,19.256674,7.122252,-0.210154,7.122252,-0.210154,20.000143,20.0,201.201447,69.293495,1043.642944,295.206604,278.238953,0.068517,0.041492,7.141817,0.004552,0.141818,0.052908,0.0,1.0,2661.584473
83.155899,18.063229,19.256674,7.139657,-0.080303,7.139657,-0.080303,20.000143,20.0,204.687698,69.455139,1047.933838,295.262756,278.274384,0.078336,0.048889,7.141817,0.003002,0.142445,0.044075,0.0,1.0,2661.82959
82.509415,18.063229,19.256674,7.152057,0.096447,7.152057,0.096447,20.000143,20.0,209.942551,69.691582,1053.590332,295.214996,278.326874,0.088199,0.037424,7.141817,0.001147,0.142793,0.041267,0.0,1.0,2662.181641
82.078201,18.063229,19.256674,7.155813,0.153247,7.155813,0.153247,20.000143,20.0,213.459671,69.845329,1056.470581,295.113525,278.360352,0.08786,0.018644,7.141817,-0.001378,0.143041,0.043655,0.0,1.0,2662.412598
81.431755,18.063229,19.256674,7.158572,0.094746,7.158572,0.094746,20.000143,20.0,218.750839,70.070442,1059.718872,294.941345,278.405701,0.07765,-0.011752,7.141817,-0.002189,0.143116,0.048729,0.0,1.0,2662.761963
80.999474,18.063229,19.256674,7.16211,-0.017879,7.16211,-0.017879,20.000143,20.0,222.286362,70.217003,1061.504028,294.862885,278.431366,0.067461,-0.025065,7.141817,-0.001354,0.143171,0.057338,0.0,1.0,2662.999268
80.343826,18.063229,19.256674,7.173753,-0.214053,7.173753,-0.214053,20.000143,20.0,227.600998,70.431763,1064.35022,294.863525,278.46167,0.053835,-0.024338,7.141817,2.55E-4,0.143242,0.061261,0.0,1.0,2663.36084
79.897659,18.063229,19.256674,7.187961,-0.310009,7.187961,-0.310009,20.000143,20.0,231.152786,70.571571,1066.703857,294.941223,278.476563,0.050313,-0.011088,7.141817,0.003058,0.143475,0.061229,0.0,1.0,2663.601563
79.209557,18.063229,19.256674,7.214199,-0.325121,7.214199,-0.325121,20.000143,20.0,236.497269,70.776176,1071.127197,295.113007,278.492157,0.054817,0.01735,7.141817,0.004429,0.143759,0.057344,0.0,1.0,2663.952881
78.738335,18.063229,19.256674,7.232855,-0.254398,7.232855,-0.254398,20.000143,20.0,240.073547,70.909111,1074.562134,295.216858,278.498993,0.062762,0.033704,7.141817,0.004645,0.144284,0.048755,0.0,1.0,2664.175537
78.019005,18.063229,19.256674,7.25046,-0.081907,7.25046,-0.081907,20.000143,20.0,245.459839,71.103264,1079.695679,295.2771,278.505066,0.076192,0.041268,7.141817,0.003634,0.144657,0.043562,0.0,1.0,2664.491699
77.535538,18.063229,19.256674,7.256907,0.024951,7.256907,0.024951,20.000143,20.0,249.06398,71.229248,1082.600952,295.240631,278.506378,0.08143,0.033431,7.141817,0.00117,0.145009,0.04055,0.0,1.0,2664.694092
76.809151,18.063229,19.256674,7.258836,0.084261,7.258836,0.084261,20.000143,20.0,254.486008,71.413277,1085.878418,295.103699,278.503235,0.080507,0.00834,7.141817,-3.56E-4,0.145138,0.042374,0.0,1.0,2664.993896
76.324532,18.063229,19.256674,7.258958,0.044847,7.258958,0.044847,20.000143,20.0,258.108337,71.532822,1087.384521,294.99884,278.496887,0.074042,-0.009853,7.141817,-0.001204,0.145177,0.04922,0.0,1.0,2665.196289
75.594193,18.063229,19.256674,7.262227,-0.107496,7.262227,-0.107496,20.000143,20.0,263.55011,71.707672,1089.252075,294.906708,278.479736,0.060234,-0.025124,7.141817,-6.41E-4,0.145179,0.054463,0.0,1.0,2665.506592
75.101738,18.063229,19.256674,7.268846,-0.225518,7.268846,-0.225518,20.000143,20.0,267.183258,71.821358,1090.620605,294.913757,278.463104,0.052799,-0.02351,7.141817,0.001536,0.145245,0.05907,0.0,1.0,2665.717041
74.347824,18.063229,19.256674,7.286146,-0.334653,7.286146,-0.334653,20.000143,20.0,272.642944,71.987572,1093.33313,295.021851,278.431305,0.048798,-0.004766,7.141817,0.003222,0.145377,0.058717,0.0,1.0,2666.032227
73.8321,18.063229,19.256674,7.301963,-0.337403,7.301963,-0.337403,20.000143,20.0,276.291412,72.095474,1095.717407,295.127502,278.406647,0.052236,0.012727,7.141817,0.004781,0.145723,0.053313,0.0,1.0,2666.236816
73.039856,18.063229,19.256674,7.322135,-0.231806,7.322135,-0.231806,20.000143,20.0,281.780426,72.252869,1099.811768,295.253448,278.366516,0.063486,0.032522,7.141817,0.00482,0.146039,0.04803,0.0,1.0,2666.52832
72.502731,18.063229,19.256674,7.332157,-0.124617,7.332157,-0.124617,20.000143,20.0,285.451172,72.354813,1102.500977,295.282532,278.338531,0.071168,0.036058,7.141817,0.003312,0.146443,0.041733,0.0,1.0,2666.712402
71.690628,18.063229,19.256674,7.337049,0.005187,7.337049,0.005187,20.000143,20.0,290.972778,72.503342,1105.839111,295.223541,278.295258,0.077792,0.023931,7.141817,0.00178,0.146643,0.040279,0.0,1.0,2666.979004
71.147491,18.063229,19.256674,7.336871,0.0364,7.336871,0.0364,20.000143,20.0,294.661682,72.599556,1107.36731,295.135712,278.265259,0.076472,0.008209,7.141817,-7.4E-5,0.146741,0.043228,0.0,1.0,2667.155273
70.330338,18.063229,19.256674,7.335585,-0.029672,7.335585,-0.029672,20.000143,20.0,300.202759,72.739906,1108.903687,295.003754,278.217651,0.067227,-0.014497,7.141817,-5.2E-4,0.146737,0.04762,0.0,1.0,2667.423828
69.782051,18.063229,19.256674,7.336626,-0.125241,7.336626,-0.125241,20.000143,20.0,303.900513,72.830963,1109.709229,294.953247,278.183807,0.059164,-0.022744,7.141817,4.24E-4,0.146712,0.054217,0.0,1.0,2667.607666
68.948486,18.063229,19.256674,7.344648,-0.272783,7.344648,-0.272783,20.000143,20.0,309.452606,72.96389,1111.175781,294.97464,278.130035,0.049589,-0.018301,7.141817,0.001789,0.146733,0.056743,0.0,1.0,2667.887939
68.381218,18.063229,19.256674,7.355023,-0.334082,7.355023,-0.334082,20.000143,20.0,313.158875,73.050072,1112.601074,295.046082,278.092926,0.048112,-0.006012,7.141817,0.003897,0.146893,0.055673,0.0,1.0,2668.074707
67.508934,18.063229,19.256674,7.373183,-0.319634,7.373183,-0.319634,20.000143,20.0,318.728912,73.175636,1115.452393,295.182251,278.037262,0.053568,0.01661,7.141817,0.004773,0.1471,0.052101,0.0,1.0,2668.346191
66.913826,18.063229,19.256674,7.385101,-0.250001,7.385101,-0.250001,20.000143,20.0,322.450897,73.256821,1117.669312,295.254425,278.001221,0.060468,0.02794,7.141817,0.004566,0.147464,0.045293,0.0,1.0,2668.518555
66.006851,18.063229,19.256674,7.394443,-0.109704,7.394443,-0.109704,20.000143,20.0,328.047668,73.374802,1120.845093,295.2789,277.950134,0.070734,0.030219,7.141817,0.003571,0.147702,0.041684,0.0,1.0,2668.764404
65.396461,18.063229,19.256674,7.396409,-0.03363,7.396409,-0.03363,20.000143,20.0,331.786804,73.450981,1122.492188,295.235352,277.918182,0.073904,0.021783,7.141817,0.001567,0.147889,0.04046,0.0,1.0,2668.92334
64.4758,18.063229,19.256674,7.394445,-0.009605,7.394445,-0.009605,20.000143,20.0,337.4039,73.561722,1124.128418,295.117493,277.872864,0.071359,7.86E-4,7.141817,4.8E-4,0.147928,0.042638,0.0,1.0,2669.161133
63.910122,18.063229,19.256674,7.392743,-0.050156,7.392743,-0.050156,20.000143,20.0,340.839722,73.627419,1124.71106,295.044464,277.846283,0.06546,-0.011645,7.141817,1.37E-4,0.147889,0.048531,0.0,1.0,2669.309082
62.923576,18.063229,19.256674,7.393728,-0.185583,7.393728,-0.185583,20.000143,20.0,346.777863,73.737579,1125.527588,294.984375,277.801514,0.054592,-0.021205,7.141817,7.17E-4,0.147855,0.052182,0.0,1.0,2669.571777
62.290592,18.063229,19.256674,7.398386,-0.274639,7.398386,-0.274639,20.000143,20.0,350.530792,73.805038,1126.226074,295.004211,277.774078,0.049566,-0.017405,7.141817,0.002651,0.147875,0.055186,0.0,1.0,2669.740967
61.316971,18.063229,19.256674,7.412575,-0.364408,7.412575,-0.364408,20.000143,20.0,356.165802,73.90313,1127.871826,295.155304,277.735046,0.037824,0.008889,7.141817,0.001308,0.147968,0.1,0.0,1.0,2669.99292
60.639339,18.063229,19.256674,7.431433,-0.36531,7.431433,-0.36531,20.000143,20.0,359.928192,73.966339,1129.606323,295.399231,277.711731,0.039767,0.048257,7.141817,0.001735,0.148252,0.1,0.0,1.0,2670.151367
59.565674,18.063229,19.256674,7.46806,-0.152289,7.46806,-0.152289,20.000143,20.0,365.58609,74.057564,1133.73291,295.85907,277.684784,0.062036,0.118625,7.141817,0.00174,0.148629,0.1,0.0,1.0,2670.353027
58.813854,18.063229,19.256674,7.49107,0.13504,7.49107,0.13504,20.000143,20.0,369.371338,74.115761,1137.378784,296.144562,277.674652,0.084854,0.159198,7.141817,7.25E-4,0.149361,0.1,0.0,1.0,2670.454834
57.650612,18.063229,19.256674,7.503971,0.700112,7.503971,0.700112,20.000143,20.0,375.072571,74.198837,1142.764404,296.443268,277.674347,0.120694,0.195015,7.141817,-6.43E-4,0.149821,0.1,0.0,1.0,2670.559082
56.863331,18.063229,19.256674,7.502973,1.103965,7.502973,1.103965,20.000143,20.0,378.886627,74.251389,1145.422974,296.536163,277.684875,0.140038,0.199843,7.141817,-0.003334,0.150079,0.1,0.0,1.0,2670.605225
55.676914,18.063229,19.256674,7.493934,1.62979,7.493934,1.62979,20.000143,20.0,384.620392,74.326172,1147.638184,296.542847,277.716187,0.156639,0.184046,7.141817,-0.005257,0.150059,0.1,0.0,1.0,2670.6604
54.883808,18.063229,19.256674,7.486698,1.893935,7.486698,1.893935,20.000143,20.0,388.446594,74.373528,1147.936646,296.498413,277.746307,0.158724,0.165505,7.141817,-0.007761,0.149879,0.1,0.0,1.0,2670.697998
53.687645,18.063229,19.256674,7.477836,2.130849,7.477836,2.130849,20.000143,20.0,394.184784,74.441208,1147.164185,296.437744,277.803009,0.1515,0.138938,7.141817,-0.009019,0.149734,0.1,0.0,1.0,2670.765869
52.882244,18.063229,19.256674,7.471637,2.204479,7.471637,2.204479,20.000143,20.0,398.007019,74.484314,1146.15918,296.43988,277.84726,0.143035,0.128449,7.141817,-0.010147,0.149557,0.1,0.0,1.0,2670.821289
51.654488,18.063229,19.256674,7.463746,2.241431,7.463746,2.241431,20.000143,20.0,403.733368,74.546219,1144.444092,296.54248,277.92215,0.130756,0.128627,7.141817,-0.010498,0.149433,0.1,0.0,1.0,2670.917236
50.817753,18.063229,19.256674,7.459338,2.25658,7.459338,2.25658,20.000143,20.0,407.546417,74.585739,1143.457031,296.677521,277.977814,0.125512,0.138965,7.141817,-0.010673,0.149275,0.1,0.0,1.0,2670.986572
49.527328,18.063229,19.256674,7.456296,2.31619,7.456296,2.31619,20.000143,20.0,413.261047,74.642448,1142.55127,296.952576,278.070831,0.124114,0.164511,7.141817,-0.010746,0.149187,0.1,0.0,1.0,2671.091797
48.640579,18.063229,19.256674,7.455447,2.396323,7.455447,2.396323,20.000143,20.0,417.069214,74.67852,1142.399902,297.159393,278.140076,0.127223,0.183887,7.141817,-0.011029,0.149126,0.1,0.0,1.0,2671.157959
47.270206,18.063229,19.256674,7.454552,2.5747,7.454552,2.5747,20.000143,20.0,422.781647,74.729988,1142.630371,297.463074,278.256226,0.135687,0.209494,7.141817,-0.011411,0.149109,0.1,0.0,1.0,2671.247803
46.331203,18.063229,19.256674,7.453179,2.720644,7.453179,2.720644,20.000143,20.0,426.590881,74.762527,1142.889648,297.643982,278.342438,0.14201,0.221614,7.141817,-0.01226,0.149091,0.1,0.0,1.0,2671.301025
44.887878,18.063229,19.256674,7.449502,2.943354,7.449502,2.943354,20.000143,20.0,432.305969,74.808716,1143.071411,297.871979,278.485291,0.149773,0.230928,7.141817,-0.012955,0.149064,0.1,0.0,1.0,2671.373779
43.903488,18.063229,19.256674,7.445915,3.078876,7.445915,3.078876,20.000143,20.0,436.115997,74.837837,1142.90564,297.999054,278.589386,0.152728,0.23224,7.141817,-0.014016,0.14899,0.1,0.0,1.0,2671.420654
42.392853,18.063229,19.256674,7.439898,3.237433,7.439898,3.237433,20.000143,20.0,441.828857,74.87915,1142.170044,298.171051,278.757935,0.153471,0.230226,7.141817,-0.014661,0.148918,0.1,0.0,1.0,2671.49292
41.360832,18.063229,19.256674,7.435044,3.312555,7.435044,3.312555,20.000143,20.0,445.634827,74.905228,1141.392822,298.286621,278.878021,0.151961,0.228614,7.141817,-0.015416,0.148798,0.1,0.0,1.0,2671.544189
39.769253,18.063229,19.256674,7.427887,3.38384,7.427887,3.38384,20.000143,20.0,451.338196,74.942291,1139.969727,298.480499,279.068726,0.148235,0.228886,7.141817,-0.015774,0.148701,0.1,0.0,1.0,2671.627686
38.674541,18.063229,19.256674,7.42268,3.414962,7.42268,3.414962,20.000143,20.0,455.136383,74.965721,1138.967651,298.629578,279.202484,0.145762,0.231846,7.141817,-0.016114,0.148558,0.1,0.0,1.0,2671.687012
36.972668,18.063229,19.256674,7.416007,3.454505,7.416007,3.454505,20.000143,20.0,460.827545,74.999046,1137.567749,298.883667,279.412628,0.143367,0.240336,7.141817,-0.016262,0.148454,0.1,0.0,1.0,2671.780273
35.79237,18.063229,19.256674,7.411678,3.485741,7.411678,3.485741,20.000143,20.0,464.618042,75.020081,1136.778931,299.068817,279.558899,0.14301,0.24786,7.141817,-0.01645,0.14832,0.1,0.0,1.0,2671.843506
33.942978,18.063229,19.256674,7.406555,3.547376,7.406555,3.547376,20.000143,20.0,470.299377,75.049911,1135.833496,299.358063,279.787415,0.144242,0.259848,7.141817,-0.016599,0.148234,0.1,0.0,1.0,2671.938477
32.650963,18.063229,19.256674,7.403222,3.599072,7.403222,3.599072,20.000143,20.0,474.084625,75.068672,1135.341187,299.551331,279.94577,0.145853,0.267141,7.141817,-0.016892,0.148131,0.1,0.0,1.0,2672.000732
30.611153,18.063229,19.256674,7.398885,3.685185,7.398885,3.685185,20.000143,20.0,479.759644,75.095161,1134.694092,299.833221,280.191956,0.148591,0.275665,7.141817,-0.017138,0.148064,0.1,0.0,1.0,2672.092773
29.173923,18.063229,19.256674,7.395743,3.743893,7.395743,3.743893,20.000143,20.0,483.541229,75.111755,1134.264038,300.013641,280.361481,0.150132,0.279508,7.141817,-0.017548,0.147978,0.1,0.0,1.0,2672.153564
26.879417,18.063229,19.256674,7.391203,3.823138,7.391203,3.823138,20.000143,20.0,489.210724,75.135109,1133.531006,300.274597,280.623169,0.15151,0.282907,7.141817,-0.017828,0.147915,0.1,0.0,1.0,2672.245117
25.2384,18.063229,19.256674,7.387749,3.867697,7.387749,3.867697,20.000143,20.0,492.98822,75.149712,1132.963623,300.445099,280.802002,0.151712,0.284203,7.141817,-0.018205,0.147824,0.1,0.0,1.0,2672.307129
22.561226,18.063229,19.256674,7.38274,3.918637,7.38274,3.918637,20.000143,20.0,498.650604,75.170258,1132.004028,300.702179,281.075836,0.151162,0.285816,7.141817,-0.018418,0.147755,0.1,0.0,1.0,2672.402832
20.588593,18.063229,19.256674,7.379024,3.944113,7.379024,3.944113,20.000143,20.0,502.422791,75.18309,1131.320557,300.877655,281.261566,0.150476,0.287245,7.141817,-0.01866,0.147655,0.1,0.0,1.0,2672.468506
17.216389,18.063229,19.256674,7.373937,3.973319,7.373937,3.973319,20.000143,20.0,508.076721,75.201134,1130.290649,301.150238,281.544098,0.149451,0.290414,7.141817,-0.018781,0.14758,0.1,0.0,1.0,2672.569824
14.542578,18.063229,19.256674,7.370379,3.990528,7.370379,3.990528,20.000143,20.0,511.843231,75.212395,1129.637329,301.338348,281.734619,0.148994,0.293228,7.141817,-0.018921,0.147479,0.1,0.0,1.0,2672.638672
9.004746,18.063229,19.256674,7.365927,4.014923,7.365927,4.014923,20.000143,20.0,517.48877,75.228195,1128.548706,301.628967,282.023071,0.1481,0.298244,7.141817,-0.019003,0.147408,0.1,0.0,1.0,2672.734863
0.494787,18.063229,19.256674,7.362781,4.026319,7.362781,4.026319,20.000143,20.0,521.249084,75.238052,1127.646729,301.830444,282.216827,0.146926,0.302325,7.141817,-0.019119,0.147319,0.1,0.0,1.0,2672.786133
0.0,18.063229,19.256674,7.357111,4.036695,7.357111,4.036695,20.000143,20.0,526.883545,75.251884,1126.158569,302.147644,282.509277,0.145297,0.309934,7.141817,-0.019173,0.147256,0.1,0.0,1.0,2672.850586
0.0,18.063229,19.256674,7.35222,4.043469,7.35222,4.043469,20.000143,20.0,530.635559,75.260521,1125.091797,302.3685,282.705353,0.144676,0.315866,7.141817,-0.019222,0.147142,0.1,0.0,1.0,2672.887695
0.0,18.063229,19.256674,7.345173,4.059369,7.345173,4.059369,20.000143,20.0,536.256836,75.272629,1123.451294,302.709381,283.001099,0.144671,0.325306,7.141817,-0.019255,0.147044,0.1,0.0,1.0,2672.937988
0.0,18.063229,19.256674,7.340197,4.075557,7.340197,4.075557,20.000143,20.0,539.999817,75.280167,1122.371582,302.939362,283.199402,0.145208,0.331375,7.141817,-0.01933,0.146903,0.1,0.0,1.0,2672.96875
0.0,18.063229,19.256674,7.333497,4.107015,7.333497,4.107015,20.000143,20.0,545.607544,75.290695,1120.783325,303.282776,283.498566,0.146471,0.339287,7.141817,-0.019407,0.146804,0.1,0.0,1.0,2673.012207
0.0,18.063229,19.256674,7.328596,4.130944,7.328596,4.130944,20.000143,20.0,549.341675,75.297218,1119.730225,303.508453,283.699158,0.147353,0.343469,7.141817,-0.019557,0.14667,0.1,0.0,1.0,2673.040283
0.0,18.063229,19.256674,7.321631,4.165917,7.321631,4.165917,20.000143,20.0,554.936157,75.30632,1118.104614,303.841064,284.001617,0.148371,0.348059,7.141817,-0.019671,0.146572,0.1,0.0,1.0,2673.082275
0.0,18.063229,19.256674,7.316463,4.186606,7.316463,4.186606,20.000143,20.0,558.661255,75.311958,1116.979248,304.05957,284.204163,0.148715,0.350201,7.141817,-0.019838,0.146433,0.1,0.0,1.0,2673.11084
0.0,18.063229,19.256674,7.309154,4.210453,7.309154,4.210453,20.000143,20.0,564.241638,75.319824,1115.225464,304.385468,284.509155,0.148712,0.352602,7.141817,-0.019936,0.146329,0.1,0.0,1.0,2673.15625
24.464489,101.445572,102.639023,7.303779,4.221702,7.303779,4.221702,70.000145,70.0,567.957031,75.324707,1114.028442,304.603241,284.713104,0.148445,0.354011,3125.574951,-0.02005,0.146183,0.1,0.0,1.0,2673.188232
51.888878,200.183105,201.376541,7.296329,4.232572,7.296329,4.232572,170.000137,170.0,573.522461,75.331551,1112.220093,304.93338,285.019775,0.147877,0.356295,4462.066406,-0.020103,0.146076,0.1,0.0,1.0,2673.239746
61.377586,252.116119,253.30957,7.290988,4.237503,7.290988,4.237503,230.000137,230.0,577.227844,75.335815,1111.033081,305.156433,285.22464,0.147524,0.358054,4952.954102,-0.020155,0.145927,0.1,0.0,1.0,2673.276367
70.860054,314.072266,315.265717,7.283827,4.243934,7.283827,4.243934,300.000153,300.0,582.778503,75.341812,1109.306519,305.495331,285.532471,0.1472,0.361034,5396.587402,-0.020179,0.14582,0.1,0.0,1.0,2673.334229
75.291786,346.965942,348.159393,7.278815,4.248877,7.278815,4.248877,330.000153,330.0,586.474304,75.345566,1108.209229,305.723358,285.738068,0.147161,0.363121,5566.467773,-0.020209,0.145677,0.1,0.0,1.0,2673.374512
80.155655,386.653503,387.846924,7.272209,4.258171,7.272209,4.258171,380.000153,380.0,592.011292,75.350853,1106.640381,306.066833,286.046936,0.147339,0.366135,5696.318359,-0.020233,0.145576,0.1,0.0,1.0,2673.437744
82.556107,408.019409,409.21286,7.267607,4.265627,7.267607,4.265627,400.000153,400.0,595.698364,75.354164,1105.648315,306.295715,286.253204,0.147555,0.367911,5722.125977,-0.020277,0.145444,0.1,0.0,1.0,2673.481201
85.272369,434.222931,435.416382,7.261502,4.277602,7.261502,4.277602,430.000153,430.0,601.222839,75.358856,1104.21582,306.637848,286.563049,0.147903,0.370084,5695.388672,-0.020313,0.145352,0.1,0.0,1.0,2673.549316
86.641808,448.60788,449.801331,7.257207,4.285477,7.257207,4.285477,440.000153,440.0,604.901978,75.361809,1103.294678,306.864838,286.769867,0.148084,0.371185,5644.335938,-0.02037,0.14523,0.1,0.0,1.0,2673.596191
88.212547,466.644714,467.838165,7.251436,4.295704,7.251436,4.295704,460.000153,460.0,610.414978,75.366013,1101.942993,307.204102,287.080444,0.148219,0.372415,5530.830078,-0.020407,0.145144,0.1,0.0,1.0,2673.668945
89.012344,476.800934,477.994385,7.247344,4.301164,7.247344,4.301164,470.000153,470.0,614.086609,75.368675,1101.064087,307.42981,287.287659,0.148208,0.37304,5436.115234,-0.020456,0.145029,0.1,0.0,1.0,2673.719238
89.935631,489.889801,491.083252,7.241832,4.306968,7.241832,4.306968,490.000153,490.0,619.588562,75.372513,1099.773071,307.768677,287.598602,0.148077,0.37387,5272.716309,-0.020482,0.144947,0.1,0.0,1.0,2673.797363
90.40786,497.483276,498.676697,7.237937,4.309555,7.237937,4.309555,500.000153,500.0,623.253052,75.374969,1098.939331,307.995178,287.805939,0.14795,0.374425,5152.808105,-0.020509,0.144837,0.1,0.0,1.0,2673.851318
90.954254,507.57251,508.765961,7.232745,4.312133,7.232745,4.312133,510.000153,510.0,628.744568,75.37854,1097.730957,308.336304,288.116974,0.147766,0.375345,4960.821289,-0.020522,0.144759,0.1,0.0,1.0,2673.934814
91.233986,513.611694,514.805176,7.229114,4.313493,7.229114,4.313493,510.000153,510.0,632.402344,75.379982,1096.962646,308.564575,288.324341,0.14768,0.37601,4826.743652,-0.020534,0.144655,0.1,0.0,1.0,2673.992188
91.557465,521.880859,523.074341,7.224324,4.315619,7.224324,4.315619,520.000122,520.0,637.884338,75.380852,1095.863647,308.90799,288.635345,0.147627,0.377047,4619.238281,-0.02054,0.144582,0.1,0.0,1.0,2674.080566
91.722771,526.97644,528.169861,7.220995,4.317315,7.220995,4.317315,530.000122,530.0,641.536011,75.381447,1095.171021,309.137238,288.842682,0.147641,0.377709,4477.936523,-0.020551,0.144486,0.1,0.0,1.0,2674.140869
91.913353,534.139832,535.333252,7.216613,4.320274,7.216613,4.320274,530.000122,530.0,647.009277,75.382385,1094.182129,309.481171,289.153625,0.147707,0.378597,4263.362305,-0.020559,0.14442,0.1,0.0,1.0,2674.233398
92.01033,538.66156,539.855042,7.213562,4.322401,7.213562,4.322401,540.000122,540.0,650.655457,75.383049,1093.557129,309.710205,289.360901,0.147758,0.379084,4119.455078,-0.020573,0.144332,0.1,0.0,1.0,2674.296387
92.121468,545.151855,546.345276,7.209522,4.325412,7.209522,4.325412,540.000122,540.0,656.120911,75.384125,1092.658447,310.053345,289.671722,0.147816,0.379656,3903.605225,-0.020583,0.144271,0.1,0.0,1.0,2674.392822
92.177559,549.323853,550.517334,7.206695,4.32713,7.206695,4.32713,550.000122,550.0,659.762146,75.384895,1092.08606,310.28183,289.878906,0.14783,0.379942,3760.371338,-0.020597,0.14419,0.1,0.0,1.0,2674.458252
92.241188,555.403259,556.59668,7.202935,4.329007,7.202935,4.329007,550.000122,550.0,665.220398,75.386154,1091.258667,310.624359,290.189575,0.147808,0.380278,3547.52124,-0.020605,0.144134,0.1,0.0,1.0,2674.558594
92.272858,559.361328,560.554749,7.200299,4.329785,7.200299,4.329785,560.000122,560.0,668.856995,75.38707,1090.731079,310.852722,290.396637,0.147771,0.380466,3407.486816,-0.020614,0.144059,0.1,0.0,1.0,2674.626709
92.308144,565.188721,566.382141,7.196797,4.330322,7.196797,4.330322,560.000122,560.0,674.308716,75.388565,1089.970947,311.195526,290.707062,0.147697,0.380742,3201.083008,-0.020618,0.144006,0.1,0.0,1.0,2674.730469
92.325279,569.015198,570.208618,7.19435,4.330376,7.19435,4.330376,570.000122,570.0,677.941101,75.389648,1089.489136,311.424255,290.91394,0.147646,0.380932,3066.384033,-0.020621,0.143936,0.1,0.0,1.0,2674.801025
92.343681,574.687012,575.880432,7.191116,4.33023,7.191116,4.33023,570.000122,570.0,683.38678,75.391434,1088.800659,311.767761,291.224121,0.147584,0.381239,2869.476318,-0.020621,0.143887,0.1,0.0,1.0,2674.908447
92.352127,578.431885,579.625366,7.188868,4.3301,7.188868,4.3301,580.000122,580.0,687.01532,75.392723,1088.36792,311.996948,291.430817,0.147557,0.381447,2742.08252,-0.02062,0.143822,0.1,0.0,1.0,2674.981201
92.360466,584.006714,585.200195,7.185909,4.330005,7.185909,4.330005,580.000122,580.0,692.455566,75.394821,1087.752808,312.340912,291.740814,0.147541,0.38175,2557.577637,-0.02062,0.143777,0.1,0.0,1.0,2675.091797
92.363785,587.700439,588.89386,7.183854,4.330022,7.183854,4.330022,590.000122,590.0,696.08075,75.396332,1087.36731,312.57019,291.947388,0.147541,0.381927,2439.412354,-0.020619,0.143718,0.1,0.0,1.0,2675.166504
92.366249,593.213989,594.407471,7.181145,4.330127,7.181145,4.330127,590.000122,590.0,701.516174,75.398781,1086.818726,312.914032,292.257233,0.147549,0.382145,2270.182617,-0.020619,0.143677,0.1,0.0,1.0,2675.280029
92.366615,596.875122,598.068542,7.179259,4.330183,7.179259,4.330183,600.000122,600.0,705.138306,75.400536,1086.474365,313.143127,292.463745,0.147552,0.382252,2163.143555,-0.02062,0.143623,0.1,0.0,1.0,2675.356445
92.365761,602.349243,603.542664,7.176765,4.330143,7.176765,4.330143,600.000122,600.0,710.569397,75.403366,1085.982666,313.486603,292.773499,0.147545,0.382367,2011.96875,-0.02062,0.143585,0.1,0.0,1.0,2675.472656
92.36451,605.989075,607.182495,7.175025,4.329981,7.175025,4.329981,610.000122,610.0,714.188782,75.40538,1085.67334,313.715485,292.97995,0.147531,0.382417,1917.825439,-0.02062,0.143535,0.1,0.0,1.0,2675.550781
92.361893,611.437195,612.630615,7.172723,4.329507,7.172723,4.329507,610.000122,610.0,719.616028,75.408607,1085.231812,314.058807,293.289642,0.147498,0.382476,1787.139771,-0.020619,0.143501,0.1,0.0,1.0,2675.669434
92.359787,615.062744,616.256165,7.171118,4.329044,7.171118,4.329044,610.000122,610.0,723.232971,75.410896,1084.954834,314.28772,293.496094,0.147472,0.382509,1707.295898,-0.020617,0.143454,0.1,0.0,1.0,2675.749512
