airspeed_indicator_indicated_speed_kt,altimeter_indicated_altitude_ft,altimeter_pressure_alt_ft,attitude_indicator_indicated_pitch_deg,attitude_indicator_indicated_roll_deg,attitude_indicator_internal_pitch_deg,attitude_indicator_internal_roll_deg,encoder_indicated_altitude_ft,encoder_pressure_alt_ft,gps_indicated_altitude_ft,gps_indicated_ground_speed_kt,gps_indicated_vertical_speed,indicated_heading_deg,magnetic_compass_indicated_heading_deg,slip_skid_ball_indicated_slip_skid,turn_indicator_indicated_turn_rate,vertical_speed_indicator_indicated_speed_fpm,flight_aileron,flight_elevator,flight_rudder,flight_flaps,engine_throttle,engine_rpm,Command_fault,Command
64.262955,-59.852493,-58.65905,2.921168,0.027877,2.921168,0.027877,-59.999859,-60,22.009953,38.305546,6.183593,297.615295,11.874442,-0.022011,3.23E-04,20.757765,-3.93E-04,0.058983,0.013947,0,1,2470.037109,, fly_strait
65.12571,-59.805569,-58.612125,2.926146,0.031369,2.926146,0.031369,-59.999859,-60,22.041418,39.077724,6.386412,297.611786,11.883502,-0.021459,-4.26E-04,15.284226,-3.98E-04,0.058423,0,0,1,2476.493164,, fly_strait
65.699181,-59.776592,-58.583145,2.93211,0.032851,2.93211,0.032851,-59.999859,-60,22.062885,39.593868,6.484287,297.575684,11.896139,-0.022813,-0.006309,20.377151,-4.48E-04,0.058523,1.75E-04,0,1,2480.80957,, fly_strait
66.556564,-59.735626,-58.542183,2.938632,0.0322,2.938632,0.0322,-59.999859,-60,22.095606,40.370026,6.599079,297.47995,11.923452,-0.02892,-0.020469,15.317828,-4.69E-04,0.058642,0.001981,0,1,2487.294922,, fly_strait
67.125954,-59.709568,-58.516125,2.942714,0.030616,2.942714,0.030616,-59.999859,-60,22.117731,40.888683,6.673507,297.400879,11.94603,-0.035512,-0.031052,21.205572,-4.60E-04,0.058773,0.006767,0,1,2491.621582,, fly_strait
67.976875,-59.67181,-58.478367,2.948928,0.026806,2.948928,0.026806,-59.999859,-60,22.151398,41.668385,6.803639,297.29126,11.984229,-0.046911,-0.043361,14.958563,-4.37E-04,0.058854,0.010721,0,1,2498.110596,, fly_strait
68.542747,-59.647224,-58.453781,2.948346,0.011846,2.948346,0.011846,-59.999859,-60,22.175123,42.189255,7.509201,297.237823,12.011435,-0.054775,-0.047727,12.630533,-3.83E-04,0.058979,0.016202,0,1,2502.435303,, fly_strait
69.391106,-59.609863,-58.41642,2.916151,-0.101529,2.916151,-0.101529,-59.999859,-60,22.218834,42.972057,9.599422,297.209045,12.053983,-0.063623,-0.047457,17.727598,-1.69E-04,0.058967,0.018874,0,1,2508.926025,, fly_strait
69.958664,-59.583626,-58.390179,2.857939,-0.231227,2.857939,-0.231227,-59.999859,-60,22.251591,43.494892,9.936627,297.229309,12.084364,-0.065138,-0.042324,13.398429,0.00145,0.058323,0.020312,0,1,2513.262939,, fly_strait
70.813156,-59.54216,-58.348717,2.767544,-0.441503,2.767544,-0.441503,-59.999859,-60,22.300985,44.280598,9.758161,297.310577,12.1364,-0.059659,-0.028037,22.196325,0.003303,0.057159,0.019299,0,1,2519.793213,, fly_strait
71.384628,-59.513474,-58.32003,2.719252,-0.565926,2.719252,-0.565926,-59.999859,-60,22.333275,44.805405,9.572761,297.383148,12.17781,-0.051479,-0.016583,14.76977,0.006307,0.055351,0.015236,0,1,2524.165039,, fly_strait
72.241776,-59.469551,-58.276108,2.672494,-0.715581,2.672494,-0.715581,-59.999859,-60,22.380791,45.594166,9.521344,297.476288,12.25359,-0.035506,-0.003484,13.687407,0.008085,0.054385,0.011607,0,1,2530.748779,, fly_strait
72.811256,-59.439754,-58.246307,2.642672,-0.811572,2.642672,-0.811572,-59.999859,-60,22.412907,46.120995,9.710664,297.506958,12.314624,-0.024625,-8.79E-04,21.113182,0.010223,0.05345,0.00695,0,1,2535.147461,, fly_strait
73.664146,-59.394291,-58.200848,2.584791,-0.969445,2.584791,-0.969445,-59.999859,-60,22.461201,46.912621,7.818807,297.479614,12.423244,-0.011913,-0.009446,13.759988,0.011594,0.052853,0.005417,0,1,2541.753174,, fly_strait
74.238541,-59.364807,-58.171364,2.502017,-1.138954,2.502017,-1.138954,-59.999859,-60,22.479317,47.441299,4.865996,297.410706,12.507232,-0.006333,-0.02392,20.536371,0.013849,0.051696,0.006784,0,1,2546.167236,, fly_strait
75.102074,-59.324993,-58.13155,2.418604,-1.360271,2.418604,-1.360271,-59.999859,-60,22.503073,48.235733,4.984606,297.253479,12.650966,-9.23E-04,-0.050352,12.912712,0.016271,0.05004,0.010229,0,1,2552.819092,, fly_strait
75.674263,-59.300678,-58.107235,2.427743,-1.509903,2.427743,-1.509903,-59.999859,-60,22.522253,48.766296,6.668653,297.126648,12.758204,-0.002156,-0.069318,20.479244,0.019432,0.048372,0.018091,0,1,2557.266113,, fly_strait
76.521111,-59.263935,-58.070492,2.553721,-1.847709,2.553721,-1.847709,-59.999859,-60,22.574789,49.563454,16.881502,296.943085,12.935805,-0.007854,-0.095664,19.866816,0.02157,0.048555,0.024432,0,1,2563.931885,, fly_strait
77.073532,-59.233208,-58.039764,2.659289,-2.113802,2.659289,-2.113802,-59.999859,-60,22.656101,50.095596,32.13102,296.844666,13.066655,-0.010234,-0.108028,21.421736,0.026396,0.051074,0.033611,0,1,2568.360596,, fly_strait
77.874886,-59.158611,-57.965168,2.798061,-2.450997,2.798061,-2.450997,-59.999859,-60,22.887701,50.894367,60.205509,296.759247,13.285123,-0.011304,-0.11298,20.042271,0.030197,0.053186,0.038531,0,1,2574.956055,, fly_strait
78.387093,-59.077858,-57.884411,2.903402,-2.60313,2.903402,-2.60313,-59.999859,-60,23.122633,51.426914,80.147087,296.737701,13.447145,-0.009401,-0.108723,28.788452,0.035014,0.055961,0.042802,0,1,2579.300293,, fly_strait
79.120377,-58.892181,-57.698738,3.072407,-2.682008,3.072407,-2.682008,-59.999859,-60,23.603146,52.22514,111.321365,296.732178,13.715487,-0.002901,-0.095705,45.382507,0.037188,0.058068,0.04388,0,1,2585.69751,, fly_strait
79.583664,-58.716492,-57.523048,3.198153,-2.645316,3.198153,-2.645316,-59.999859,-60,24.010958,52.756466,132.64151,296.723938,13.910067,0.00326,-0.086953,58.340187,0.038314,0.061448,0.044156,0,1,2589.860107,, fly_strait
80.243317,-58.362587,-57.16914,3.363733,-2.49158,3.363733,-2.49158,-59.999859,-60,24.755716,53.551422,163.945663,296.675049,14.220551,0.013225,-0.079042,80.047821,0.03779,0.063963,0.044568,0,1,2595.921387,, fly_strait
80.661613,-58.061092,-56.867649,3.467115,-2.352076,3.467115,-2.352076,-59.999859,-60,25.335827,54.079605,183.298309,296.609222,14.435592,0.018855,-0.078828,95.543846,0.035594,0.067275,0.047012,0,1,2599.732178,, fly_strait
81.263733,-57.50528,-56.311836,3.591086,-2.148264,3.591086,-2.148264,-59.999859,-60,26.325726,54.868538,211.540176,296.472565,14.761161,0.024283,-0.084435,119.657059,0.033601,0.069342,0.050304,0,1,2604.356445,, fly_strait
81.6483,-57.063953,-55.870506,3.67584,-2.029717,3.67584,-2.029717,-59.999859,-60,27.061846,55.391933,229.389923,296.369659,14.974778,0.02567,-0.089824,136.066132,0.030689,0.071822,0.057136,0,1,2606.883057,, fly_strait
82.201981,-56.294693,-55.10125,3.797887,-1.89937,3.797887,-1.89937,-59.999859,-60,28.276594,56.172657,255.604324,296.238007,15.281614,0.025395,-0.094098,160.855804,0.028996,0.073517,0.062282,0,1,2610.114502,, fly_strait
82.554939,-55.710255,-54.516811,3.886034,-1.827917,3.886034,-1.827917,-49.999859,-50,29.158192,56.68993,272.696899,296.180573,15.473201,0.0251,-0.092047,177.398499,0.027134,0.075958,0.068864,0,1,2612.00293,, fly_strait
83.05899,-54.726658,-53.533215,4.007331,-1.721558,4.007331,-1.721558,-49.999859,-50,30.58614,57.460503,297.507965,296.157471,15.736087,0.026407,-0.079377,202.127884,0.026113,0.077721,0.071736,0,1,2614.555176,, fly_strait
83.378181,-54.000202,-52.806755,4.091821,-1.628451,4.091821,-1.628451,-49.999859,-50,31.607618,57.970345,315.103149,296.17804,15.892846,0.029581,-0.06587,218.498581,0.024594,0.080147,0.072891,0,1,2616.114258,, fly_strait
83.830978,-52.803711,-51.610268,4.220564,-1.445799,4.220564,-1.445799,-49.999859,-50,33.257977,58.728745,344.694977,296.234802,16.097004,0.03768,-0.04326,243.202194,0.023264,0.081836,0.071863,0,1,2618.290283,, fly_strait
84.11351,-51.932766,-50.739319,4.325209,-1.294464,4.325209,-1.294464,-49.999859,-50,34.443779,59.229774,366.047516,296.269287,16.21056,0.044554,-0.030052,260.051819,0.020654,0.084411,0.069025,0,1,2619.651611,, fly_strait
84.510818,-50.512157,-49.318714,4.470443,-1.055468,4.470443,-1.055468,-49.999859,-50,36.348545,59.973953,393.949097,296.285248,16.343493,0.055229,-0.018136,286.058289,0.018492,0.086504,0.0673,0,1,2621.580566,, fly_strait
84.762901,-49.488899,-48.295452,4.547758,-0.901973,4.547758,-0.901973,-49.999859,-50,37.688183,60.464947,408.810852,296.266541,16.404953,0.060965,-0.015911,303.516449,0.015078,0.089409,0.066502,0,1,2622.801025,, fly_strait
85.131866,-47.844673,-46.65123,4.607736,-0.725187,4.607736,-0.725187,-49.999859,-50,39.783566,61.193512,428.344757,296.206177,16.452736,0.066105,-0.019088,329.050964,0.012885,0.090955,0.067438,0,1,2624.551514,, fly_strait
85.372559,-46.679672,-45.486229,4.645547,-0.645641,4.645547,-0.645641,-49.999859,-50,41.231647,61.67387,439.962067,296.158844,16.453489,0.067079,-0.022792,345.35849,0.01036,0.092155,0.070456,0,1,2625.674561,, fly_strait
85.724205,-44.836086,-43.642643,4.716899,-0.588041,4.716899,-0.588041,-39.999859,-40,43.475719,62.386307,457.270935,296.10907,16.407272,0.066156,-0.025493,368.557068,0.009223,0.092911,0.072823,0,1,2627.302246,, fly_strait
85.950645,-43.54641,-42.352966,4.776383,-0.571644,4.776383,-0.571644,-39.999859,-40,45.020824,62.855789,469.456146,296.101807,16.345846,0.065363,-0.023404,383.241058,0.008401,0.094338,0.075311,0,1,2628.352539,, fly_strait
86.277107,-41.524635,-40.331192,4.861573,-0.550574,4.861573,-0.550574,-39.999859,-40,47.417889,63.55162,488.958466,296.136383,16.211239,0.065695,-0.013603,404.395996,0.008166,0.095528,0.075674,0,1,2629.87793,, fly_strait
86.484879,-40.119625,-38.926182,4.922867,-0.520957,4.922867,-0.520957,-39.999859,-40,49.070866,64.009819,502.378906,296.182159,16.095837,0.067767,-0.004021,418.11554,0.007865,0.097231,0.073946,0,1,2630.862061,, fly_strait
86.783012,-37.927132,-36.733688,5.007578,-0.4416,5.007578,-0.4416,-39.999859,-40,51.63488,64.688423,522.57428,296.256531,15.88896,0.073313,0.010068,438.369232,0.007442,0.098457,0.071657,0,1,2632.290527,, fly_strait
86.973549,-36.409103,-35.21566,5.066456,-0.36981,5.066456,-0.36981,-39.999859,-40,53.399944,65.134949,536.012451,296.294556,15.730977,0.077664,0.016798,451.732574,0.006309,0.100152,0.067938,0,1,2633.212646,, fly_strait
87.249634,-34.047909,-32.854465,5.144908,-0.261618,5.144908,-0.261618,-29.999857,-30,56.132038,65.79583,556.131714,296.313354,15.467415,0.083351,0.01958,471.641998,0.005283,0.101329,0.066037,0,1,2634.553955,, fly_strait
87.428078,-32.417912,-31.224466,5.199605,-0.20366,5.199605,-0.20366,-29.999857,-30,58.008392,66.230453,569.167114,296.300323,15.275772,0.085318,0.016898,484.842255,0.003737,0.102898,0.065097,0,1,2635.423584,, fly_strait
87.688858,-29.889925,-28.696482,5.272917,-0.164243,5.272917,-0.164243,-29.999857,-30,60.903652,66.873459,588.302246,296.258789,14.967641,0.085085,0.009005,504.507141,0.002909,0.103992,0.065749,0,1,2636.695068,, fly_strait
87.857895,-28.149885,-26.956442,5.325222,-0.168603,5.325222,-0.168603,-29.999857,-30,62.886459,67.296196,600.922913,296.231171,14.750804,0.08311,0.003841,517.50531,0.002346,0.105458,0.067825,0,1,2637.523438,, fly_strait
88.10318,-25.458765,-24.265322,5.400253,-0.208405,5.400253,-0.208405,-29.999857,-30,65.939751,67.921417,619.801025,296.216125,14.413587,0.079078,5.98E-04,536.82135,0.002409,0.106504,0.069206,0,1,2638.737549,, fly_strait
88.26001,-23.611143,-22.4177,5.456036,-0.240285,5.456036,-0.240285,-19.999857,-20,68.027489,68.332321,632.407898,296.230591,14.184422,0.077027,0.002474,549.582031,0.002977,0.108005,0.069959,0,1,2639.528076,, fly_strait
88.484131,-20.760033,-19.566589,5.534956,-0.266262,5.534956,-0.266262,-19.999857,-20,71.238548,68.939758,651.42688,296.284485,13.840806,0.07618,0.010401,568.574036,0.003433,0.109121,0.069235,0,1,2640.683594,, fly_strait
88.625702,-18.806414,-17.612968,5.591451,-0.260919,5.591451,-0.260919,-19.999857,-20,73.431816,69.338737,664.084778,296.331299,13.615507,0.077389,0.017161,581.155334,0.003804,0.110699,0.066541,0,1,2641.432373,, fly_strait
88.827599,-15.797025,-14.60358,5.667151,-0.218116,5.667151,-0.218116,-19.999857,-20,76.800896,69.928177,682.886902,296.390259,13.288577,0.080954,0.024878,599.930786,0.003727,0.111829,0.0642,0,1,2642.522217,, fly_strait
88.956192,-13.7384,-12.544955,5.719083,-0.177696,5.719083,-0.177696,-9.999858,-10,79.098335,70.315102,695.110535,296.411316,13.080283,0.083313,0.026717,612.384094,0.003116,0.113343,0.061252,0,1,2643.227295,, fly_strait
89.142509,-10.57273,-9.379286,5.786565,-0.126937,5.786565,-0.126937,-9.999858,-10,82.620003,70.886436,712.851746,296.40741,12.785126,0.085318,0.023335,630.940369,0.002539,0.114382,0.060199,0,1,2644.255371,, fly_strait
89.263092,-8.411174,-7.217729,5.832753,-0.111381,5.832753,-0.111381,-9.999858,-10,85.015785,71.261322,724.164124,296.386993,12.601097,0.084824,0.018217,643.197998,0.001813,0.115731,0.060394,0,1,2644.91626,, fly_strait
89.439148,-5.093856,-3.900412,5.894347,-0.127303,5.894347,-0.127303,1.42E-04,0,88.678993,71.814751,740.471802,296.351715,12.34621,0.081667,0.010043,661.346802,0.001591,0.116655,0.061415,0,1,2645.865967,, fly_strait
89.552887,-2.833469,-1.640025,5.938076,-0.157886,5.938076,-0.157886,1.42E-04,0,91.165344,72.177826,750.932495,296.338074,12.191833,0.078722,0.006469,673.249756,0.001819,0.117887,0.063179,0,1,2646.476318,, fly_strait
89.717041,0.717836,1.911281,5.998578,-0.211897,5.998578,-0.211897,1.42E-04,0,94.959656,72.713676,766.237244,296.34845,11.986566,0.07471,0.006492,690.760254,0.002256,0.118762,0.063861,0,1,2647.361084,, fly_strait
89.821342,3.18765,4.381094,6.042219,-0.239706,6.042219,-0.239706,1.42E-04,0,97.531036,73.065109,776.225708,296.375977,11.869078,0.073364,0.009911,702.189575,0.003027,0.119972,0.063342,0,1,2647.931885,, fly_strait
89.969727,6.963148,8.156592,6.101737,-0.248683,6.101737,-0.248683,10.000142,10,101.45034,73.583557,790.970703,296.433075,11.724594,0.073773,0.017485,718.962769,0.003424,0.120844,0.061966,0,1,2648.759033,, fly_strait
90.063438,9.526273,10.719717,6.143167,-0.233433,6.143167,-0.233433,10.000142,10,104.103516,73.923401,800.569031,296.469849,11.650396,0.075318,0.022083,729.902954,0.003553,0.122035,0.059111,0,1,2649.29126,, fly_strait
90.197906,13.438373,14.631817,6.196684,-0.190734,6.196684,-0.190734,10.000142,10,108.142632,74.424515,814.523376,296.501312,11.572612,0.078196,0.024738,745.959106,0.003335,0.122863,0.057272,0,1,2650.062256,, fly_strait
90.284477,16.090307,17.283752,6.232585,-0.162378,6.232585,-0.162378,20.000143,20,110.8731,74.752846,823.397583,296.502289,11.542528,0.07931,0.02312,756.426758,0.002725,0.123934,0.055699,0,1,2650.55957,, fly_strait
90.411301,20.131933,21.325377,6.278534,-0.143325,6.278534,-0.143325,20.000143,20,115.023087,75.236847,836.055908,296.479004,11.528305,0.078899,0.016666,771.756653,0.00232,0.124652,0.05565,0,1,2651.28418,, fly_strait
90.494087,22.867495,24.06094,6.310126,-0.15109,6.310126,-0.15109,20.000143,20,117.823784,75.553925,844.034302,296.457001,11.538298,0.077077,0.011502,781.713257,0.002048,0.125571,0.056815,0,1,2651.754639,, fly_strait
90.615303,27.030087,28.22353,6.352798,-0.190278,6.352798,-0.190278,30.000143,30,122.073761,76.021294,855.502747,296.436188,11.580897,0.073037,0.006152,796.223938,0.002158,0.126203,0.057915,0,1,2652.443604,, fly_strait
90.693451,29.84322,31.036663,6.383597,-0.224328,6.383597,-0.224328,30.000143,30,124.93821,76.327438,862.884033,296.438629,11.627086,0.070506,0.005462,805.604065,0.002718,0.127056,0.058955,0,1,2652.892334,, fly_strait
90.805573,34.117729,35.311172,6.426464,-0.263429,6.426464,-0.263429,30.000143,30,129.280716,76.77861,873.737305,296.46933,11.722315,0.068228,0.009042,819.231018,0.003205,0.127672,0.058833,0,1,2653.54834,, fly_strait
90.876404,37.002754,38.196198,6.457228,-0.273463,6.457228,-0.273463,40.000141,40,132.20546,77.074059,880.841858,296.501801,11.80257,0.068226,0.013314,828.029053,0.003763,0.128529,0.057298,0,1,2653.973389,, fly_strait
90.977112,41.381535,42.574978,6.498122,-0.258005,6.498122,-0.258005,40.000141,40,136.636749,77.509285,891.290466,296.548126,11.946568,0.070058,0.019095,840.822144,0.003907,0.129145,0.055675,0,1,2654.591553,, fly_strait
91.041145,44.333942,45.527386,6.525869,-0.234685,6.525869,-0.234685,40.000141,40,139.619385,77.794167,898.022644,296.567841,12.056829,0.071673,0.020938,849.097778,0.003686,0.129962,0.053358,0,1,2654.990967,, fly_strait
91.134209,48.810764,50.004208,6.56076,-0.199738,6.56076,-0.199738,50.000141,50,144.134674,78.213692,907.68103,296.570343,12.240212,0.07336,0.019079,861.150391,0.003353,0.130517,0.052373,0,1,2655.572266,, fly_strait
91.194969,51.826454,53.019901,6.584034,-0.187103,6.584034,-0.187103,50.000141,50,147.170807,78.488235,913.746826,296.556549,12.372174,0.073181,0.015361,868.948608,0.002853,0.131215,0.052248,0,1,2655.949463,, fly_strait
91.28479,56.394821,57.588264,6.614238,-0.196591,6.614238,-0.196591,60.000141,60,151.761993,78.892494,922.360046,296.527802,12.580842,0.070945,0.008689,880.283752,0.002673,0.131681,0.052937,0,1,2656.502686,, fly_strait
91.343559,59.469135,60.662579,6.635613,-0.219138,6.635613,-0.219138,60.000141,60,154.845978,79.157059,927.814026,296.51355,12.725201,0.068614,0.005279,887.593018,0.002808,0.132285,0.054375,0,1,2656.864014,, fly_strait
91.429138,64.12175,65.315193,6.665441,-0.26258,6.665441,-0.26258,60.000141,60,159.505615,79.546616,935.747681,296.514221,12.947107,0.065158,0.004111,898.178894,0.003131,0.132712,0.055087,0,1,2657.395264,, fly_strait
91.483749,67.24987,68.443314,6.687389,-0.287328,6.687389,-0.287328,70.000145,70,162.633728,79.801529,940.931335,296.530823,13.097528,0.063796,0.006057,904.987244,0.003751,0.133309,0.055054,0,1,2657.741699,, fly_strait
91.561333,71.980072,73.173515,6.717784,-0.300584,6.717784,-0.300584,70.000145,70,167.358276,80.176788,948.623169,296.570404,13.325219,0.063675,0.011357,914.844055,0.004105,0.133748,0.054224,0,1,2658.248291,, fly_strait
91.610138,75.158119,76.351563,6.739136,-0.292792,6.739136,-0.292792,70.000145,70,170.529068,80.422264,953.663147,296.597626,13.477248,0.064723,0.014878,921.194092,0.004294,0.134356,0.052245,0,1,2658.576904,, fly_strait
91.679977,79.960892,81.154335,6.766427,-0.2634,6.766427,-0.2634,80.000145,80,175.316467,80.783485,961.008301,296.622101,13.703179,0.066962,0.017235,930.415222,0.004183,0.134783,0.050883,0,1,2659.05542,, fly_strait
91.725037,83.18589,84.379333,6.784444,-0.242192,6.784444,-0.242192,80.000145,80,178.527924,81.019714,965.669067,296.623322,13.850636,0.067955,0.016254,936.372742,0.003763,0.135329,0.04966,0,1,2659.365967,, fly_strait
91.791542,88.056877,89.25032,6.806866,-0.226448,6.806866,-0.226448,90.000145,90,183.373505,81.367271,972.271484,296.605194,14.063899,0.067891,0.01152,945.033386,0.00346,0.135689,0.049599,0,1,2659.820557,, fly_strait
91.835442,91.325729,92.519173,6.822109,-0.23118,6.822109,-0.23118,90.000145,90,186.621582,81.594551,976.396484,296.587067,14.199121,0.066611,0.007531,950.622864,0.003235,0.136137,0.050505,0,1,2660.117676,, fly_strait
91.900352,96.25985,97.453293,6.84278,-0.259994,6.84278,-0.259994,100.000145,100,191.518906,81.928978,982.296936,296.568024,14.38938,0.063568,0.003192,958.723694,0.003303,0.136442,0.051411,0,1,2660.555908,, fly_strait
91.942474,99.568977,100.762421,6.858039,-0.285929,6.858039,-0.285929,100.000145,100,194.799805,82.147675,986.100159,296.567444,14.507113,0.061601,0.002451,963.933044,0.003714,0.136856,0.052364,0,1,2660.843262,, fly_strait
92.002922,104.560928,105.754372,6.879878,-0.316528,6.879878,-0.316528,100.000145,100,199.744858,82.46946,991.736755,296.587708,14.669556,0.059784,0.004962,971.464844,0.004085,0.137161,0.052393,0,1,2661.266357,, fly_strait
92.040932,107.907082,109.100533,6.895893,-0.324856,6.895893,-0.324856,110.000145,110,203.057098,82.679855,995.470703,296.610809,14.768322,0.059773,0.008164,976.306641,0.004522,0.137598,0.051379,0,1,2661.542236,, fly_strait
92.094612,112.952705,114.146156,6.917291,-0.313663,6.917291,-0.313663,110.000145,110,208.048798,82.989326,1001.012207,296.644348,14.901961,0.061236,0.012609,983.322754,0.004641,0.137918,0.050224,0,1,2661.945557,, fly_strait
92.128593,116.333603,117.527046,6.931713,-0.295906,6.931713,-0.295906,120.000145,120,211.391724,83.191597,1004.600159,296.658356,14.981026,0.062558,0.014066,987.849731,0.004481,0.138346,0.048547,0,1,2662.20752,, fly_strait
92.178055,121.429886,122.623329,6.949374,-0.268912,6.949374,-0.268912,120.000145,120,216.428116,83.489037,1009.735779,296.6586,15.083632,0.063994,0.012705,994.432251,0.004227,0.138634,0.047847,0,1,2662.590576,, fly_strait
92.210594,124.843544,126.036987,6.960898,-0.258977,6.960898,-0.258977,120.000145,120,219.799469,83.683426,1012.937195,296.64679,15.140769,0.063934,0.00988,998.68689,0.003842,0.138987,0.047835,0,1,2662.84082,, fly_strait
92.259171,129.987259,131.180695,6.975643,-0.265949,6.975643,-0.265949,130.000137,130,224.875931,83.969284,1017.448181,296.623016,15.208855,0.062294,0.004813,1004.866638,0.0037,0.139218,0.048425,0,1,2663.209717,, fly_strait
92.291191,133.431244,134.624695,6.986229,-0.282989,6.986229,-0.282989,130.000137,130,228.272354,84.15612,1020.293274,296.611084,15.242477,0.060545,0.002251,1008.848083,0.003799,0.139513,0.049614,0,1,2663.452393,, fly_strait
92.33783,138.618454,139.811905,7.001549,-0.315636,7.001549,-0.315636,140.000137,140,233.384583,84.430893,1024.454956,296.610443,15.276003,0.057969,0.001488,1014.608582,0.004043,0.139725,0.050211,0,1,2663.811279,, fly_strait
92.367424,142.090179,143.28363,7.013194,-0.333833,7.013194,-0.333833,140.000137,140,236.804184,84.610481,1027.210083,296.622467,15.287883,0.057009,0.003076,1018.309631,0.004509,0.140031,0.050243,0,1,2664.046631,, fly_strait
92.408997,147.317383,148.510834,7.02962,-0.342393,7.02962,-0.342393,150.000137,150,241.950928,84.874542,1031.350586,296.65152,15.291626,0.057086,0.007233,1023.66449,0.004769,0.140264,0.049641,0,1,2664.392578,, fly_strait
92.434814,150.814911,152.008362,7.041202,-0.335263,7.041202,-0.335263,150.000137,150,245.393494,85.047073,1034.090576,296.671112,15.28559,0.058011,0.009925,1027.114136,0.004891,0.140592,0.048189,0,1,2664.617676,, fly_strait
92.471428,156.079788,157.273224,7.055743,-0.311515,7.055743,-0.311515,160.000137,160,250.574341,85.300667,1038.090454,296.687408,15.264812,0.059872,0.011622,1032.127075,0.004789,0.140824,0.047209,0,1,2664.947266,, fly_strait
92.495003,159.601791,160.795227,7.065119,-0.294969,7.065119,-0.294969,160.000137,160,254.039032,85.466316,1040.615356,296.686493,15.24352,0.060682,0.010762,1035.369507,0.00445,0.141115,0.046394,0,1,2665.161865,, fly_strait
92.529968,164.902328,166.095779,7.076425,-0.283384,7.076425,-0.283384,160.000137,160,259.251373,85.70977,1044.15625,296.670227,15.200904,0.060642,0.007044,1040.089111,0.004214,0.141302,0.04644,0,1,2665.477295,, fly_strait
92.55323,168.447296,169.640732,7.084039,-0.287589,7.084039,-0.287589,170.000137,170,262.735687,85.868797,1046.344116,296.655334,15.165765,0.059655,0.004021,1043.138062,0.004048,0.141529,0.047253,0,1,2665.68457,, fly_strait
92.587776,173.780823,174.974258,7.094532,-0.310149,7.094532,-0.310149,170.000137,170,267.975525,86.102562,1049.459351,296.640381,15.104096,0.057351,9.26E-04,1047.558228,0.004108,0.141681,0.047998,0,1,2665.991699,, fly_strait
92.610161,177.346756,178.540192,7.102529,-0.329669,7.102529,-0.329669,180.000137,180,271.477203,86.25528,1051.475464,296.640198,15.058002,0.055924,5.88E-04,1050.400146,0.004431,0.141891,0.048746,0,1,2666.194092,, fly_strait
92.64196,182.710312,183.903748,7.114345,-0.351304,7.114345,-0.351304,180.000137,180,276.742371,86.479744,1054.494629,296.656067,14.983478,0.05474,0.00283,1054.506592,0.00471,0.142051,0.048755,0,1,2666.493164,, fly_strait
92.661652,186.295456,187.488892,7.123145,-0.355883,7.123145,-0.355883,190.000137,190,280.260834,86.626366,1056.519897,296.673492,14.931447,0.0549,0.005397,1057.145142,0.005019,0.142287,0.047961,0,1,2666.688965,, fly_strait
92.689011,191.68689,192.880325,7.134813,-0.344717,7.134813,-0.344717,190.000137,190,285.55127,86.841812,1059.543091,296.69751,14.851722,0.056244,0.008749,1060.968384,0.005084,0.142463,0.04709,0,1,2666.976318,, fly_strait
92.706146,195.290115,196.483566,7.142508,-0.329965,7.142508,-0.329965,190.000137,190,289.086456,86.982491,1061.49707,296.70636,14.798211,0.05734,0.009704,1063.435913,0.004925,0.142696,0.045889,0,1,2667.163574,, fly_strait
92.731102,200.707993,201.901443,7.151532,-0.309183,7.151532,-0.309183,200.000137,200,294.401184,87.189163,1064.264771,296.70343,14.718221,0.05845,0.008374,1067.025757,0.004714,0.14285,0.045447,0,1,2667.438721,, fly_strait
92.747658,204.328339,205.52179,7.157226,-0.302377,7.157226,-0.302377,200.000137,200,297.951691,87.324097,1065.962036,296.692688,14.66539,0.058357,0.006084,1069.346558,0.004417,0.143031,0.045593,0,1,2667.619141,, fly_strait
92.772644,209.770935,210.964386,7.164414,-0.30943,7.164414,-0.30943,210.000137,210,303.287659,87.522354,1068.320435,296.67334,14.587473,0.057022,0.002257,1072.715698,0.00432,0.143145,0.04613,0,1,2667.886475,, fly_strait
92.789238,213.406998,214.600449,7.169683,-0.323264,7.169683,-0.323264,210.000137,210,306.851288,87.651817,1069.798096,296.664429,14.536938,0.055687,4.92E-04,1074.883423,0.00442,0.143288,0.047098,0,1,2668.063232,, fly_strait
92.8134,218.871979,220.06543,7.177622,-0.347905,7.177622,-0.347905,220.000137,220,312.205902,87.842064,1071.969116,296.665192,14.464505,0.053838,3.33E-04,1078.012817,0.004618,0.143394,0.047543,0,1,2668.325684,, fly_strait
92.828568,222.522232,223.715683,7.183855,-0.360517,7.183855,-0.360517,220.000137,220,315.781616,87.966293,1073.424805,296.675201,14.419322,0.053261,0.00181,1080.018433,0.00497,0.143552,0.047505,0,1,2668.498779,, fly_strait
92.84951,228.007599,229.20105,7.192773,-0.364102,7.192773,-0.364102,230.000137,230,321.154449,88.148811,1075.640015,296.697449,14.357596,0.053594,0.005166,1082.913574,0.00515,0.143677,0.047005,0,1,2668.75415,, fly_strait
92.862297,231.671005,232.864441,7.198998,-0.356686,7.198998,-0.356686,230.000137,230,324.742462,88.267967,1077.116455,296.711395,14.321057,0.054445,0.007159,1084.775269,0.005201,0.143855,0.045892,0,1,2668.921143,, fly_strait
92.880302,237.175583,238.369034,7.206497,-0.336962,7.206497,-0.336962,240.000137,240,330.133636,88.442978,1079.261597,296.721008,14.273627,0.055962,0.008143,1087.477417,0.005096,0.14398,0.045195,0,1,2669.166748,, fly_strait
92.891975,240.851486,242.044937,7.211096,-0.324417,7.211096,-0.324417,240.000137,240,333.73349,88.557205,1080.595215,296.718109,14.246895,0.056551,0.007236,1089.223755,0.004814,0.14413,0.044714,0,1,2669.327637,, fly_strait
92.909607,246.374268,247.567719,7.21635,-0.317288,7.21635,-0.317288,250.000137,250,339.141296,88.72496,1082.429077,296.703278,14.213812,0.056389,0.004177,1091.762329,0.004635,0.144222,0.044859,0,1,2669.565674,, fly_strait
92.921562,250.061829,251.255264,7.219854,-0.322017,7.219854,-0.322017,250.000137,250,342.751343,88.83448,1083.541748,296.691315,14.196265,0.055557,0.001896,1093.398926,0.004533,0.144327,0.045601,0,1,2669.723145,, fly_strait
92.939491,255.601212,256.794647,7.22491,-0.340676,7.22491,-0.340676,260.000153,260,348.173126,88.995354,1085.120117,296.680695,14.176665,0.053775,-1.51E-04,1095.764526,0.0046,0.144397,0.046199,0,1,2669.957764,, fly_strait
92.95108,259.299225,260.492676,7.228998,-0.355468,7.228998,-0.355468,260.000153,260,351.791992,89.100388,1086.154175,296.681763,14.168236,0.052769,-1.01E-04,1097.279663,0.004867,0.144498,0.04673,0,1,2670.113037,, fly_strait
