airspeed_indicator_indicated_speed_kt,altimeter_indicated_altitude_ft,altimeter_pressure_alt_ft,attitude_indicator_indicated_pitch_deg,attitude_indicator_indicated_roll_deg,attitude_indicator_internal_pitch_deg,attitude_indicator_internal_roll_deg,encoder_indicated_altitude_ft,encoder_pressure_alt_ft,gps_indicated_altitude_ft,gps_indicated_ground_speed_kt,gps_indicated_vertical_speed,indicated_heading_deg,magnetic_compass_indicated_heading_deg,slip_skid_ball_indicated_slip_skid,turn_indicator_indicated_turn_rate,vertical_speed_indicator_indicated_speed_fpm,flight_aileron,flight_elevator,flight_rudder,flight_flaps,engine_throttle,engine_rpm,
Command: takeoff
6.378826,-87.98568,-86.792236,2.971249,1.359665,2.591791,0.094802,-89.999855,-90.0,2.286492,0.0,0.006063,297.867676,278.719696,0.012286,-0.049368,-15.066998,-0.0,0.0,0.0,0.0,0.0,600.133057,
6.413023,-87.995163,-86.80172,2.977087,1.377828,2.592275,0.095121,-89.999855,-90.0,2.286513,0.0,0.005996,297.866882,280.996948,0.012257,-0.044651,-8.9968,-0.0,0.0,0.0,0.0,0.0,600.142029,
6.473947,-88.00634,-86.812889,2.773787,0.725358,2.584759,0.095266,-89.999855,-90.0,2.286505,3.4E-5,-0.012025,297.86557,284.34494,0.012074,-0.038431,-14.326005,-0.019683,0.051845,4.0E-5,0.0,1.0,672.63324,
6.518924,-88.012184,-86.818741,2.636979,0.33779,2.563898,0.094187,-89.999855,-90.0,2.286432,1.4E-4,-0.033094,297.864624,286.508423,0.011915,-0.034824,-17.219732,-0.010362,0.051695,1.05E-4,0.0,1.0,784.40863,
6.61998,-88.019142,-86.825699,2.511972,0.089199,2.511972,0.089199,-89.999855,-90.0,2.286253,7.35E-4,-0.019997,297.862915,289.615112,0.011731,-0.030165,-13.676702,-0.004826,0.051278,1.53E-4,0.0,1.0,1004.476013,
6.738717,-88.02282,-86.829369,2.494861,0.083163,2.494861,0.083163,-89.999855,-90.0,2.286258,0.002323,0.020634,297.861572,291.575684,0.012137,-0.027514,-18.385366,-0.001274,0.050239,2.38E-4,0.0,1.0,1165.152954,
7.01333,-88.027168,-86.833725,2.498043,0.070916,2.498043,0.070916,-89.999855,-90.0,2.286524,0.008742,0.081027,297.858948,294.323212,0.014896,-0.024187,-15.137535,-0.001188,0.049897,3.05E-4,0.0,1.0,1401.287964,
7.266834,-88.029419,-86.835976,2.510297,0.061312,2.510297,0.061312,-89.999855,-90.0,2.286863,0.017205,0.117404,297.855988,296.012085,0.018121,-0.022461,-13.748652,-0.001013,0.049961,4.36E-4,0.0,1.0,1545.092651,
7.753096,-88.032005,-86.838562,2.534277,0.046197,2.534277,0.046197,-89.999855,-90.0,2.287605,0.038789,0.172136,297.848358,298.311096,0.023135,-0.020716,-13.990646,-8.76E-4,0.050206,5.84E-4,0.0,1.0,1730.869629,
7.941961,-88.032684,-86.839241,2.54282,0.041234,2.54282,0.041234,-89.999855,-90.0,2.287915,0.048848,0.192066,297.844513,299.011597,0.025316,-0.020403,-16.930941,-8.76E-4,0.050206,5.84E-4,0.0,1.0,1784.151367,
7.941961,-88.032684,-86.839241,2.54282,0.041234,2.54282,0.041234,-89.999855,-90.0,2.287915,0.048848,0.192066,297.844513,299.011597,0.025316,-0.020403,-16.930941,-8.76E-4,0.050206,5.84E-4,0.0,1.0,1784.151367,
9.330053,-88.035461,-86.84201,2.590061,0.015532,2.590061,0.015532,-89.999855,-90.0,2.290514,0.148333,0.315734,297.800873,302.519836,0.031753,-0.021786,-17.800917,-5.89E-4,0.050856,0.001158,0.0,1.0,2021.39209,
10.108954,-88.035698,-86.842255,2.60718,0.006711,2.60718,0.006711,-89.999855,-90.0,2.292214,0.222682,0.380783,297.766022,303.726776,0.030093,-0.024315,-18.683369,-2.22E-4,0.051801,0.00334,0.0,1.0,2091.630127,
10.672456,-88.035561,-86.842117,2.61607,0.002196,2.61607,0.002196,-89.999855,-90.0,2.293569,0.284582,0.428616,297.738434,304.373596,0.029254,-0.026389,-18.175592,-9.6E-5,0.052144,0.005083,0.0,1.0,2127.727051,
11.550889,-88.034927,-86.841484,2.626858,-0.002519,2.626858,-0.002519,-89.999855,-90.0,2.295909,0.394628,0.504853,297.693146,305.069733,0.028158,-0.029681,-15.667077,-3.1E-5,0.052321,0.006462,0.0,1.0,2167.62793,
12.153049,-88.034241,-86.84079,2.633058,-0.004527,2.633058,-0.004527,-89.999855,-90.0,2.297684,0.47962,0.557241,297.660309,305.354004,0.02751,-0.032003,-12.375391,3.6E-5,0.052537,0.008726,0.0,1.0,2186.787109,
13.073466,-88.032829,-86.839378,2.640774,-0.006152,2.640774,-0.006152,-89.999855,-90.0,2.300681,0.62462,0.638368,297.61087,305.518799,0.026564,-0.035038,6.024806,6.5E-5,0.052661,0.010368,0.0,1.0,2207.193848,
13.721113,-88.031586,-86.838142,2.645509,-0.006536,2.645509,-0.006536,-89.999855,-90.0,2.303004,0.737617,0.695579,297.576752,305.455414,0.026022,-0.03683,14.240518,8.8E-5,0.052815,0.01284,0.0,1.0,2216.886475,
14.661167,-88.029427,-86.835983,2.651437,-0.006057,2.651437,-0.006057,-89.999855,-90.0,2.306701,0.917824,0.779956,297.531982,305.122192,0.025369,-0.03837,12.190888,9.3E-5,0.05291,0.014546,0.0,1.0,2227.759521,
15.265186,-88.027832,-86.834381,2.655063,-0.005244,2.655063,-0.005244,-89.999855,-90.0,2.309286,1.043603,0.834622,297.506104,304.768646,0.02509,-0.038795,19.062155,8.7E-5,0.053029,0.016785,0.0,1.0,2233.548584,
16.214426,-88.024971,-86.831528,2.660486,-0.003628,2.660486,-0.003628,-89.999855,-90.0,2.313683,1.256821,0.920807,297.472626,304.012939,0.024836,-0.038256,7.949499,7.5E-5,0.053101,0.018079,0.0,1.0,2241.175537,
16.849266,-88.022835,-86.829391,2.6642,-0.002339,2.6642,-0.002339,-89.999855,-90.0,2.316855,1.409847,0.978554,297.454407,303.383575,0.024886,-0.037302,18.711924,5.2E-5,0.05321,0.019753,0.0,1.0,2245.474854,
17.803389,-88.019272,-86.825829,2.669677,-2.88E-4,2.669677,-2.88E-4,-89.999855,-90.0,2.321975,1.655343,1.065309,297.433838,302.272858,0.025164,-0.034966,11.995261,3.3E-5,0.053284,0.020663,0.0,1.0,2251.010986,
18.467182,-88.016548,-86.823105,2.673604,0.001313,2.673604,0.001313,-89.999855,-90.0,2.325788,1.836857,1.126975,297.423248,301.398102,0.025483,-0.032967,12.952703,4.0E-6,0.053394,0.021692,0.0,1.0,2254.344238,
19.423758,-88.012276,-86.818832,2.679208,0.003826,2.679208,0.003826,-89.999855,-90.0,2.331647,2.113725,1.215874,297.412231,300.013885,0.026038,-0.029786,7.310704,-1.9E-5,0.053472,0.022221,0.0,1.0,2258.581787,
20.034355,-88.009315,-86.815872,2.682886,0.005617,2.682886,0.005617,-89.999855,-90.0,2.33562,2.299971,1.269066,297.406464,299.065826,0.026361,-0.027797,10.38094,-5.5E-5,0.053584,0.022772,0.0,1.0,2261.015137,
21.017498,-88.004196,-86.810753,2.688776,0.008814,2.688776,0.008814,-89.999855,-90.0,2.342385,2.614496,1.359003,297.39743,297.461456,0.02664,-0.024951,10.213106,-8.0E-5,0.053658,0.023061,0.0,1.0,2264.588623,
21.601643,-88.000946,-86.807495,2.692405,0.010934,2.692405,0.010934,-89.999855,-90.0,2.346627,2.81003,1.414572,297.390961,296.473541,0.026626,-0.023639,14.139073,-1.26E-4,0.053776,0.023512,0.0,1.0,2266.556152,
22.584364,-87.99511,-86.801666,2.698425,0.014809,2.698425,0.014809,-89.999855,-90.0,2.354129,3.15282,1.502232,297.376984,294.7789,0.026103,-0.022169,17.305883,-1.56E-4,0.053848,0.023836,0.0,1.0,2269.665527,
23.247719,-87.990913,-86.79747,2.702656,0.017675,2.702656,0.017675,-89.999855,-90.0,2.35946,3.394092,1.563262,297.364471,293.624664,0.025448,-0.021782,13.349837,-2.12E-4,0.053969,0.024535,0.0,1.0,2271.655762,
24.175732,-87.984695,-86.791245,2.708524,0.021874,2.708524,0.021874,-89.999855,-90.0,2.367278,3.744585,1.648509,297.343048,292.017761,0.024008,-0.021903,17.885075,-2.53E-4,0.054053,0.02516,0.0,1.0,2274.32959,
24.811281,-87.980194,-86.786751,2.712706,0.024893,2.712706,0.024893,-89.999855,-90.0,2.372879,3.993283,1.707094,297.325684,290.933777,0.02281,-0.02239,15.169432,-3.12E-4,0.05417,0.026231,0.0,1.0,2276.104004,
25.790119,-87.972893,-86.779449,2.719175,0.029549,2.719175,0.029549,-89.999855,-90.0,2.381895,4.389631,1.797265,297.296478,289.311188,0.020789,-0.023415,13.58322,-3.56E-4,0.054254,0.0271,0.0,1.0,2278.769287,
26.397696,-87.968124,-86.774681,2.723925,0.032452,2.723925,0.032452,-89.999855,-90.0,2.387765,4.643721,1.888877,297.277069,288.342102,0.01953,-0.02417,11.532342,-4.22E-4,0.054384,0.02856,0.0,1.0,2280.392578,
27.372959,-87.959991,-86.766548,2.736053,0.043135,2.736053,0.043135,-89.999855,-90.0,2.39829,5.0645,2.162506,297.246338,286.86322,0.017685,-0.02501,13.555273,-4.64E-4,0.054479,0.02953,0.0,1.0,2282.963623,
27.978203,-87.954597,-86.761154,2.740907,0.046378,2.740907,0.046378,-89.999855,-90.0,2.405298,5.333347,2.21945,297.227448,286.001465,0.016114,-0.025514,14.699652,-6.16E-4,0.054721,0.031067,0.0,1.0,2284.542236,
28.950264,-87.945374,-86.75193,2.747264,0.050627,2.747264,0.050627,-89.999855,-90.0,2.416962,5.777196,2.315985,297.199921,284.720398,0.014512,-0.025787,7.536881,-6.63E-4,0.054818,0.032011,0.0,1.0,2287.058838,
29.553164,-87.939316,-86.745872,2.751563,0.053219,2.751563,0.053219,-89.999855,-90.0,2.424466,6.059978,2.378891,297.184174,283.995239,0.013816,-0.025734,13.140935,-7.23E-4,0.054945,0.033388,0.0,1.0,2288.611816,
30.521713,-87.929092,-86.735649,2.758651,0.057232,2.758651,0.057232,-89.999855,-90.0,2.436952,6.525603,2.476297,297.161591,282.951965,0.013182,-0.025216,11.884593,-7.6E-4,0.055031,0.034175,0.0,1.0,2291.09668,
31.148626,-87.92215,-86.728706,2.76348,0.05996,2.76348,0.05996,-89.999855,-90.0,2.445324,6.834507,2.541045,297.147919,282.360382,0.012929,-0.024779,19.466362,-8.18E-4,0.055173,0.035304,0.0,1.0,2292.70166,
32.061646,-87.911613,-86.71817,2.770389,0.063974,2.770389,0.063974,-89.999855,-90.0,2.457919,7.294388,2.638519,297.129059,281.622192,0.012653,-0.024049,19.736254,-8.57E-4,0.05527,0.035988,0.0,1.0,2295.035156,
32.685444,-87.904091,-86.710648,2.775273,0.066934,2.775273,0.066934,-89.999855,-90.0,2.466819,7.616003,2.698946,297.115784,281.202881,0.012405,-0.02367,18.916992,-9.14E-4,0.055408,0.036931,0.0,1.0,2296.631348,
33.620087,-87.892403,-86.698959,2.782465,0.071547,2.782465,0.071547,-89.999855,-90.0,2.48057,8.107683,2.795347,297.094482,280.707214,0.011764,-0.023388,14.332315,-9.56E-4,0.055505,0.037595,0.0,1.0,2299.02124,
34.242085,-87.884331,-86.690887,2.787857,0.074864,2.787857,0.074864,-89.999855,-90.0,2.490041,8.441468,2.915833,297.078308,280.465118,0.011078,-0.023535,14.871807,-0.001022,0.055649,0.03866,0.0,1.0,2300.612305,
35.171528,-87.871696,-86.678246,2.801904,0.07996,2.801904,0.07996,-89.999855,-90.0,2.505874,8.950843,3.297956,297.051117,280.231689,0.00949,-0.024189,13.165707,-0.001069,0.055757,0.039468,0.0,1.0,2302.996338,
35.815643,-87.862389,-86.668945,2.806884,0.083701,2.806884,0.083701,-89.999855,-90.0,2.517447,9.31053,3.362771,297.029663,280.158417,0.00813,-0.024988,19.522232,-0.001142,0.056038,0.040828,0.0,1.0,2304.649658,
36.741051,-87.84832,-86.654877,2.813193,0.089031,2.813193,0.089031,-89.999855,-90.0,2.534529,9.836763,3.463996,296.996857,280.174957,0.005794,-0.026279,11.992964,-0.001196,0.056138,0.041901,0.0,1.0,2307.029053,
37.330875,-87.838951,-86.6455,2.817667,0.092506,2.817667,0.092506,-89.999855,-90.0,2.545713,10.177938,3.531457,296.974731,280.257019,0.00414,-0.027195,18.856361,-0.001272,0.056264,0.043541,0.0,1.0,2308.548096,
38.251884,-87.823723,-86.63028,2.824854,0.097665,2.824854,0.097665,-89.999855,-90.0,2.563653,10.719461,3.637271,296.940125,280.48941,0.001766,-0.028442,17.614292,-0.001322,0.056353,0.044647,0.0,1.0,2310.924316,
38.864315,-87.813202,-86.619759,2.829859,0.101082,2.829859,0.101082,-89.999855,-90.0,2.575908,11.085419,3.708517,296.917023,280.709503,3.2E-4,-0.029185,18.101059,-0.001395,0.056497,0.046378,0.0,1.0,2312.507324,
39.805897,-87.796455,-86.603012,2.837252,0.105966,2.837252,0.105966,-89.999855,-90.0,2.595251,11.657072,3.799191,296.883301,281.140381,-0.001432,-0.029879,20.416815,-0.001444,0.056597,0.047533,0.0,1.0,2314.946777,
40.41457,-87.785255,-86.591812,2.851434,0.110926,2.851434,0.110926,-89.999855,-90.0,2.608226,12.032565,4.050847,296.862244,281.472839,-0.002284,-0.03012,12.116783,-0.001514,0.056745,0.049219,0.0,1.0,2316.528076,
41.32436,-87.767731,-86.574287,2.860349,0.118104,2.860349,0.118104,-89.999855,-90.0,2.629866,12.602463,4.411935,296.832794,282.0383,-0.003301,-0.030093,19.138338,-0.001585,0.057029,0.050272,0.0,1.0,2318.897705,
41.904018,-87.755989,-86.562546,2.862988,0.121091,2.862988,0.121091,-89.999855,-90.0,2.644084,12.97061,4.482779,296.814819,282.435272,-0.003769,-0.029993,15.155274,-0.001687,0.057207,0.051744,0.0,1.0,2320.4104,
42.833736,-87.736298,-86.542854,2.868656,0.125586,2.868656,0.125586,-89.999855,-90.0,2.667445,13.56922,4.602226,296.787506,283.120392,-0.004122,-0.029607,20.095718,-0.00173,0.05726,0.052643,0.0,1.0,2322.841553,
43.409977,-87.72361,-86.530167,2.873084,0.128576,2.873084,0.128576,-89.999855,-90.0,2.68228,13.945159,4.678061,296.770325,283.568848,-0.00428,-0.029436,16.644098,-0.001794,0.057373,0.054008,0.0,1.0,2324.705566,
44.334045,-87.70253,-86.509087,2.880404,0.133519,2.880404,0.133519,-89.999855,-90.0,2.706645,14.555852,4.797206,296.742004,284.314636,-0.004601,-0.0293,14.59723,-0.001837,0.057462,0.054868,0.0,1.0,2328.986816,
44.907051,-87.689003,-86.49556,2.89026,0.136778,2.89026,0.136778,-89.999855,-90.0,2.722764,14.939034,5.326679,296.722961,284.78717,-0.004997,-0.029457,16.198545,-0.001907,0.057608,0.056284,0.0,1.0,2332.162109,
45.802189,-87.666855,-86.473412,2.899759,0.143469,2.899759,0.143469,-89.999855,-90.0,2.749884,15.544081,5.493523,296.69101,285.529663,-0.006029,-0.029974,19.060337,-0.001954,0.057805,0.057236,0.0,1.0,2337.604248,
46.422791,-87.650742,-86.457298,2.904575,0.147262,2.904575,0.147262,-89.999855,-90.0,2.769116,15.967937,5.576493,296.666534,286.040924,-0.007098,-0.03068,10.68916,-0.00205,0.057995,0.058833,0.0,1.0,2341.599121,
47.316055,-87.626656,-86.433212,2.911255,0.152526,2.911255,0.152526,-89.999855,-90.0,2.797329,16.583426,5.701031,296.629242,286.760742,-0.009043,-0.031875,11.673184,-0.002104,0.058091,0.060057,0.0,1.0,2347.539063,
47.886372,-87.610756,-86.417313,2.915862,0.155965,2.915862,0.155965,-89.999855,-90.0,2.815684,16.97974,5.78236,296.604034,287.205383,-0.01053,-0.03277,20.713533,-0.002179,0.058225,0.061922,0.0,1.0,2351.407715,
48.778172,-87.585152,-86.391708,2.922971,0.160933,2.922971,0.160933,-89.999855,-90.0,2.844937,17.604742,5.909979,296.564575,287.869385,-0.012726,-0.033997,11.822177,-0.002228,0.058317,0.063182,0.0,1.0,2357.53418,
49.372089,-87.567619,-86.374176,2.930169,0.165334,2.930169,0.165334,-89.999855,-90.0,2.865106,18.024498,6.409607,296.538208,288.28595,-0.013492,-0.034673,17.739134,-0.002299,0.058459,0.065155,0.0,1.0,2361.649902,
50.260296,-87.540176,-86.346733,2.945929,0.179015,2.945929,0.179015,-89.999855,-90.0,2.899129,18.658596,6.941391,296.500641,288.864777,-0.015769,-0.035154,19.492516,-0.002362,0.058603,0.066473,0.0,1.0,2367.851563,
50.851971,-87.52095,-86.327507,2.950572,0.182131,2.950572,0.182131,-89.999855,-90.0,2.922425,19.084223,7.027408,296.476257,289.216492,-0.016718,-0.035459,19.954763,-0.002557,0.058919,0.068352,0.0,1.0,2371.998535,
51.738667,-87.490921,-86.297478,2.956466,0.186106,2.956466,0.186106,-89.999855,-90.0,2.957921,19.726858,7.163603,296.442291,289.688019,-0.01744,-0.035457,11.619073,-0.002602,0.059011,0.069571,0.0,1.0,2378.232178,
52.329166,-87.470192,-86.276749,2.96096,0.188741,2.96096,0.188741,-89.999855,-90.0,2.981975,20.158001,7.259034,296.420563,289.962799,-0.017543,-0.035321,12.06041,-0.002659,0.059129,0.071269,0.0,1.0,2382.394775,
53.213909,-87.438156,-86.244705,2.967805,0.192349,2.967805,0.192349,-89.999855,-90.0,3.018655,20.808661,7.4031,296.389465,290.312744,-0.017155,-0.034918,12.81786,-0.002696,0.059219,0.072356,0.0,1.0,2388.646729,
53.803078,-87.416214,-86.222763,2.972538,0.19482,2.972538,0.19482,-89.999855,-90.0,3.04351,21.244986,7.500004,296.36853,290.50351,-0.016711,-0.034729,13.278517,-0.002748,0.059356,0.073911,0.0,1.0,2392.81958,
54.685848,-87.382492,-86.189049,2.979292,0.198323,2.979292,0.198323,-89.999855,-90.0,3.081392,21.903175,7.642932,296.336487,290.724884,-0.015913,-0.034579,13.918348,-0.002783,0.059451,0.074957,0.0,1.0,2399.085449,
55.27372,-87.359512,-86.166061,2.983892,0.200768,2.983892,0.200768,-89.999855,-90.0,3.107047,22.344362,7.7393,296.31366,290.829224,-0.015468,-0.034738,14.317874,-0.002833,0.059586,0.076559,0.0,1.0,2403.26709,
56.154396,-87.324341,-86.13089,2.990503,0.204219,2.990503,0.204219,-89.999855,-90.0,3.146121,23.009605,7.88454,296.27771,290.921692,-0.014962,-0.035202,14.902156,-0.002868,0.059678,0.077701,0.0,1.0,2409.546631,
56.741089,-87.300415,-86.106972,2.995113,0.206608,2.995113,0.206608,-89.999855,-90.0,3.172569,23.455341,7.977592,296.251923,290.941498,-0.014836,-0.035768,19.018101,-0.002917,0.05981,0.079498,0.0,1.0,2413.736816,
57.619987,-87.263901,-86.070457,3.000531,0.211043,3.000531,0.211043,-89.999855,-90.0,3.212472,24.127186,8.012963,296.211884,290.910675,-0.01476,-0.036695,19.133776,-0.002952,0.059902,0.080788,0.0,1.0,2420.028809,
58.205227,-87.239197,-86.045753,3.004961,0.213181,3.004961,0.213181,-89.999855,-90.0,3.239362,24.577175,8.110604,296.184082,290.851501,-0.01483,-0.037434,18.372223,-0.003015,0.060011,0.08279,0.0,1.0,2424.227783,
59.081879,-87.201591,-86.008148,3.011485,0.215827,3.011485,0.215827,-89.999855,-90.0,3.280301,25.255186,8.253967,296.142975,290.708282,-0.014704,-0.03831,12.930098,-0.003045,0.060099,0.08418,0.0,1.0,2430.532715,
59.665054,-87.176086,-85.982643,3.020135,0.215702,3.020135,0.215702,-89.999855,-90.0,3.309054,25.709143,8.802197,296.115906,290.578827,-0.014505,-0.038816,14.571159,-0.003083,0.06023,0.086235,0.0,1.0,2434.739746,
60.538219,-87.136826,-85.943382,3.030728,0.216974,3.030728,0.216974,-89.999855,-90.0,3.353862,26.392883,9.578671,296.077759,290.338135,-0.013258,-0.039057,18.002508,-0.003081,0.060403,0.087588,0.0,1.0,2441.080322,
61.118397,-87.109718,-85.916275,3.039506,0.217996,3.039506,0.217996,-89.999855,-90.0,3.386747,26.850512,9.912726,296.053619,290.149536,-0.012056,-0.038993,14.019817,-0.0031,0.060615,0.089496,0.0,1.0,2445.364014,
61.987839,-87.067375,-85.873932,3.045031,0.219111,3.045031,0.219111,-89.999855,-90.0,3.43668,27.539541,10.05284,296.019806,289.829498,-0.009278,-0.038542,16.198868,-0.003114,0.06079,0.090703,0.0,1.0,2451.847656,
62.566799,-87.038185,-85.844734,3.048682,0.219655,3.048682,0.219655,-89.999855,-90.0,3.470379,28.000566,10.156109,295.998016,289.594666,-0.006957,-0.038176,20.877024,-0.00313,0.060901,0.092394,0.0,1.0,2456.196045,
63.434166,-86.993134,-85.79969,3.054371,0.219861,3.054371,0.219861,-89.999855,-90.0,3.521582,28.694513,10.314612,295.966522,289.215912,-0.002769,-0.037519,15.527514,-0.003138,0.060974,0.093483,0.0,1.0,2462.743896,
Command: fly_strait
64.011429,-86.962311,-85.76886,3.062413,0.224531,3.062413,0.224531,-89.999855,-90.0,3.557049,29.158693,10.978772,295.945435,288.949127,3.83E-4,-0.037043,14.1118,-0.003141,0.061087,0.095058,0.0,1.0,2467.121094,
64.880173,-86.914543,-85.7211,3.068809,0.240242,3.068809,0.240242,-89.999855,-90.0,3.612413,29.857214,11.142802,295.824097,288.533173,-0.002263,-0.053038,14.909116,-0.003208,0.061248,0.0,0.0,1.0,2473.702637,
65.469574,-86.881752,-85.688309,3.068612,0.24381,3.068612,0.24381,-89.999855,-90.0,3.649731,30.324392,11.236458,295.51593,288.247711,-0.016885,-0.099061,15.369807,-0.003432,0.061376,0.006067,0.0,1.0,2478.121338,
66.365303,-86.831345,-85.637901,3.065032,0.227345,3.065032,0.227345,-89.999855,-90.0,3.706322,31.027439,11.394459,294.78952,287.807495,-0.064973,-0.200299,15.974757,-0.003483,0.061372,0.021475,0.0,1.0,2484.825439,
66.966255,-86.797005,-85.603554,3.063102,0.207654,3.063102,0.207654,-89.999855,-90.0,3.744571,31.497704,11.80291,294.217194,287.504395,-0.111136,-0.272716,16.339979,-0.003248,0.061301,0.057796,0.0,1.0,2489.345459,
Command_Fault: set /instrumentation/vertical-speed-indicator/serviceable false
67.86792,-86.743896,-85.550453,3.074636,0.167645,3.074636,0.167645,-89.999855,-90.0,3.807924,32.205536,12.95762,293.445862,287.031769,-0.185167,-0.352942,17.35074,-0.002966,0.061262,0.086412,0.0,1.0,2496.185303,
68.76815,-86.688225,-85.494781,3.0811,0.128511,3.0811,0.128511,-89.999855,-90.0,3.873317,32.91634,13.189815,292.971283,286.535248,-0.239838,-0.374237,17.713043,-0.002395,0.061493,0.124979,0.0,1.0,2503.076416,
69.366982,-86.649818,-85.456375,3.083594,0.09711,3.083594,0.09711,-89.999855,-90.0,3.918581,33.391781,14.002094,292.907654,286.192047,-0.258278,-0.346436,17.713043,-0.00202,0.061564,0.143112,0.0,1.0,2507.685303,
70.266525,-86.589767,-85.396317,3.047393,-0.006412,3.047393,-0.006412,-89.999855,-90.0,3.991382,34.107292,14.900559,293.202087,285.666168,-0.250481,-0.250521,17.713043,-0.001387,0.061672,0.151889,0.0,1.0,2514.624268,
70.854324,-86.547974,-85.35453,3.01452,-0.080859,3.01452,-0.080859,-89.999855,-90.0,4.040839,34.585796,14.713216,293.612213,285.315582,-0.220553,-0.161344,17.713043,-4.92E-4,0.061288,0.144519,0.0,1.0,2519.247803,
71.704536,-86.483421,-85.289978,3.000023,-0.120409,3.000023,-0.120409,-89.999855,-90.0,4.112722,35.30545,14.118092,294.385864,284.805542,-0.145533,-0.018818,17.713043,0.001155,0.06029,0.116661,0.0,1.0,2526.101074,
72.253914,-86.439606,-85.246162,2.999506,-0.058503,2.999506,-0.058503,-89.999855,-90.0,4.162162,35.786247,15.727142,294.864532,284.485321,-0.085025,0.059617,17.713043,0.001729,0.059959,0.09109,0.0,1.0,2530.580811,
73.074287,-86.371025,-85.177582,2.901668,0.215925,2.901668,0.215925,-89.999855,-90.0,4.24878,36.50856,18.140734,295.342377,284.047974,0.002221,0.128568,17.713043,8.36E-4,0.05999,0.054045,0.0,1.0,2537.185547,
73.633057,-86.322601,-85.129158,2.796386,0.470004,2.796386,0.470004,-89.999855,-90.0,4.30843,36.990738,17.490376,295.406708,283.790771,0.04999,0.129802,17.713043,-0.001455,0.058976,0.035841,0.0,1.0,2541.5625,
74.4953,-86.247437,-85.053993,2.697914,0.762846,2.697914,0.762846,-89.999855,-90.0,4.392029,37.715023,16.192938,295.11026,283.460815,0.092947,0.068327,17.713043,-0.006714,0.055928,0.026936,0.0,1.0,2548.179443,
75.082626,-86.196632,-85.003189,2.667699,0.790092,2.667699,0.790092,-89.999855,-90.0,4.446689,38.199665,16.660946,294.709106,283.277039,0.100938,-0.00289,17.713043,-0.010898,0.053958,0.041759,0.0,1.0,2552.654053,
75.971039,-86.118919,-84.925476,2.632402,0.4654,2.632402,0.4654,-79.999855,-80.0,4.537344,38.929794,20.323505,294.02536,283.05014,0.086985,-0.116065,17.713043,-0.011287,0.053354,0.061816,0.0,1.0,2559.469727,
76.560585,-86.064178,-84.870735,2.647387,0.040209,2.647387,0.040209,-79.999855,-80.0,4.614287,39.417625,26.198549,293.658295,282.928131,0.066755,-0.171837,17.713043,-0.008881,0.052781,0.084929,0.0,1.0,2564.065918,
77.430908,-85.969978,-84.776527,2.744904,-0.737179,2.744904,-0.737179,-79.999855,-80.0,4.783895,40.150925,42.84539,293.401733,282.784912,0.03678,-0.201602,17.713043,-5.74E-4,0.052948,0.114357,0.0,1.0,2570.99707,
77.992722,-85.891373,-84.697929,2.857584,-1.214031,2.857584,-1.214031,-79.999855,-80.0,4.954536,40.640587,59.593391,293.46936,282.714844,0.024678,-0.180267,17.713043,0.010531,0.054898,0.127185,0.0,1.0,2575.611572,
78.787903,-85.731567,-84.538124,3.066714,-1.617609,3.066714,-1.617609,-79.999855,-80.0,5.331545,41.375526,91.390266,293.870422,282.64798,0.026144,-0.098852,17.713043,0.017343,0.057152,0.123804,0.0,1.0,2582.442139,
79.278503,-85.585045,-84.391594,3.219453,-1.610486,3.219453,-1.610486,-79.999855,-80.0,5.67768,41.865215,115.49752,294.233215,282.629517,0.041312,-0.030866,17.713043,0.02194,0.059866,0.111926,0.0,1.0,2586.877197,
79.955925,-85.285103,-84.09166,3.452089,-1.223207,3.452089,-1.223207,-79.999855,-80.0,6.353845,42.59827,154.268555,294.710907,282.640411,0.077308,0.055329,17.713043,0.023007,0.064389,0.085611,0.0,1.0,2593.055176,
80.380081,-85.021111,-83.827667,3.58248,-0.793848,3.58248,-0.793848,-79.999855,-80.0,6.912839,43.085358,179.993393,294.87439,282.671295,0.103174,0.08443,17.713043,0.017474,0.069042,0.061726,0.0,1.0,2596.397705,
80.999535,-84.515388,-83.321945,3.700936,-0.140449,3.700936,-0.140449,-79.999855,-80.0,7.902768,43.812706,213.743301,294.783539,282.745911,0.132071,0.069959,17.713043,0.011341,0.07165,0.053552,0.0,1.0,2600.522705,
81.408737,-84.101311,-82.907867,3.754289,0.162967,3.754289,0.162967,-79.999855,-80.0,8.648889,44.29512,232.665497,294.525269,282.808838,0.137932,0.027738,17.713043,0.004888,0.073401,0.054332,0.0,1.0,2602.866699,
81.963524,-83.364845,-82.171402,3.849482,0.296229,3.849482,0.296229,-79.999855,-80.0,9.876657,45.014793,257.208405,293.998383,282.911865,0.124275,-0.055527,17.713043,-0.002328,0.075086,0.071008,0.0,1.0,2605.959229,
82.310837,-82.799126,-81.605682,3.921855,0.154277,3.921855,0.154277,-79.999855,-80.0,10.760412,45.491879,272.390961,293.678833,282.979858,0.103961,-0.10343,17.713043,-0.004232,0.07699,0.097353,0.0,1.0,2607.789795,
82.816879,-81.843063,-80.64962,4.022394,-0.284259,4.022394,-0.284259,-79.999855,-80.0,12.17864,46.20327,294.00766,293.455963,283.072296,0.070189,-0.13011,17.713043,-0.002204,0.078437,0.11333,0.0,1.0,2610.293457,
83.138962,-81.136803,-79.943359,4.099366,-0.592778,4.099366,-0.592778,-79.999855,-80.0,13.182597,46.674492,307.836945,293.524719,283.125092,0.055461,-0.111662,17.713043,0.004061,0.080448,0.124474,0.0,1.0,2611.839355,
83.587425,-79.978279,-78.784836,4.226732,-0.838171,4.226732,-0.838171,-79.999855,-80.0,14.779514,47.376152,331.274933,293.907745,283.190918,0.053047,-0.039245,17.713043,0.008468,0.081987,0.121036,0.0,1.0,2614.00415,
83.856667,-79.140343,-77.946899,4.334843,-0.793788,4.334843,-0.793788,-79.999855,-80.0,15.915948,47.840027,350.349396,294.258606,283.227264,0.065957,0.021982,17.713043,0.011974,0.084535,0.101884,0.0,1.0,2615.350586,
84.219841,-77.780945,-76.587502,4.499362,-0.409101,4.499362,-0.409101,-79.999855,-80.0,17.751076,48.529133,383.042206,294.700623,283.272583,0.099211,0.094991,17.713043,0.01134,0.086697,0.084341,0.0,1.0,2617.230957,
84.445236,-76.802467,-75.609024,4.602672,-0.030416,4.602672,-0.030416,-79.999855,-80.0,19.062922,48.983654,402.904419,294.844696,283.29657,0.122122,0.116095,17.713043,0.005844,0.089987,0.062241,0.0,1.0,2618.402344,
84.783257,-75.223839,-74.030396,4.681552,0.490281,4.681552,0.490281,-69.999855,-70.0,21.140446,49.657757,425.685699,294.754303,283.320221,0.14561,0.094565,17.713043,4.35E-4,0.092053,0.055037,0.0,1.0,2620.06958,
85.015831,-74.10006,-72.906616,4.700818,0.700463,4.700818,0.700463,-69.999855,-70.0,22.578964,50.102062,436.708038,294.526337,283.325073,0.147164,0.052985,17.713043,-0.007004,0.093631,0.059557,0.0,1.0,2621.143555,
85.372955,-72.316612,-71.123169,4.720281,0.677782,4.720281,0.677782,-69.999855,-70.0,24.797453,50.761135,449.724457,294.104706,283.310852,0.129136,-0.020489,17.713043,-0.010007,0.094016,0.070955,0.0,1.0,2622.723877,
85.612404,-71.068672,-69.875229,4.748789,0.470506,4.748789,0.470506,-69.999855,-70.0,26.309956,51.195782,457.512695,293.878845,283.284576,0.108749,-0.058222,17.713043,-0.009683,0.094406,0.092036,0.0,1.0,2623.762695,
85.965614,-69.117722,-67.924278,4.812814,0.019731,4.812814,0.019731,-69.999855,-70.0,28.63014,51.840755,470.565674,293.785583,283.217865,0.078358,-0.071662,17.713043,-0.006722,0.094976,0.10333,0.0,1.0,2625.298584,
86.190422,-67.768013,-66.57457,4.870716,-0.255185,4.870716,-0.255185,-69.999855,-70.0,30.216236,52.265991,480.961578,293.908539,283.155884,0.067251,-0.049805,17.713043,-2.82E-4,0.096256,0.107993,0.0,1.0,2626.302734,
86.499771,-65.672333,-64.478889,4.96871,-0.428212,4.96871,-0.428212,-69.999855,-70.0,32.666695,52.896358,499.145874,294.289581,283.04068,0.069673,0.014321,17.713043,0.003645,0.097414,0.101845,0.0,1.0,2627.762451,
86.685448,-64.227928,-63.034485,5.038355,-0.34659,5.038355,-0.34659,-59.999859,-60.0,34.353592,53.311337,512.53833,294.574982,282.952301,0.083493,0.060298,17.713043,0.005856,0.098696,0.089935,0.0,1.0,2628.69458,
86.94281,-61.986706,-60.793262,5.139867,-0.001595,5.139867,-0.001595,-59.999859,-60.0,36.971035,53.925491,534.087585,294.883087,282.807251,0.111893,0.105947,17.713043,0.004951,0.100767,0.068523,0.0,1.0,2630.024414,
87.110268,-60.441563,-59.248119,5.193592,0.290601,5.193592,0.290601,-59.999859,-60.0,38.776558,54.329227,548.622437,294.936279,282.703827,0.128679,0.109602,17.713043,2.3E-5,0.102797,0.053117,0.0,1.0,2630.872559,
87.368217,-58.04488,-56.851433,5.245178,0.615026,5.245178,0.615026,-59.999859,-60.0,41.571789,54.926289,568.271667,294.763611,282.538757,0.140113,0.072447,17.713043,-0.004151,0.103872,0.050458,0.0,1.0,2632.111084,
87.545639,-56.394413,-55.20097,5.278919,0.681428,5.278919,0.681428,-59.999859,-60.0,43.485661,55.31879,579.438782,294.536011,282.421112,0.13461,0.030243,17.713043,-0.008786,0.104904,0.059091,0.0,1.0,2632.927246,
87.815872,-53.842209,-52.648762,5.330192,0.498582,5.330192,0.498582,-49.999859,-50.0,46.423046,55.899597,594.919189,294.200897,282.230774,0.110881,-0.029384,17.713043,-0.009735,0.105578,0.070471,0.0,1.0,2634.147949,
87.995445,-52.091652,-50.898209,5.371754,0.246048,5.371754,0.246048,-49.999859,-50.0,48.423698,56.281662,605.132935,294.070221,282.093811,0.091431,-0.051933,17.713043,-0.007123,0.106604,0.087227,0.0,1.0,2634.960205,
88.255775,-49.394875,-48.201431,5.442558,-0.155302,5.442558,-0.155302,-49.999859,-50.0,51.490349,56.84713,621.259888,294.11264,281.874176,0.068326,-0.04432,17.713043,-0.003515,0.107435,0.093761,0.0,1.0,2636.17041,
88.416435,-47.550522,-46.357079,5.504928,-0.341336,5.504928,-0.341336,-49.999859,-50.0,53.58123,57.218933,633.002563,294.287567,281.720398,0.063744,-0.015223,17.713043,0.002219,0.108851,0.09164,0.0,1.0,2636.963379,
88.630745,-44.713898,-43.520451,5.604279,-0.363302,5.604279,-0.363302,-39.999859,-40.0,56.795471,57.768539,652.430664,294.646881,281.484009,0.074147,0.042999,17.713043,0.004876,0.110099,0.082893,0.0,1.0,2638.113037,
88.757347,-42.77494,-41.581497,5.673711,-0.219893,5.673711,-0.219893,-39.999859,-40.0,58.994053,58.129326,666.318909,294.862305,281.325775,0.089168,0.076055,17.713043,0.00519,0.112086,0.064928,0.0,1.0,2638.844727,
88.936958,-39.791965,-38.598522,5.751049,0.127192,5.751049,0.127192,-39.999859,-40.0,62.379745,58.6618,687.112793,295.001282,281.091461,0.113492,0.092803,17.713043,0.003141,0.113474,0.054157,0.0,1.0,2639.891113,
89.057556,-37.75238,-36.558937,5.793638,0.348437,5.793638,0.348437,-39.999859,-40.0,64.692436,59.010967,699.874084,294.945587,280.938232,0.122951,0.078959,17.713043,-0.001817,0.115021,0.047208,0.0,1.0,2640.563965,
89.245728,-34.616486,-33.423042,5.841048,0.495454,5.841048,0.495454,-29.999857,-30.0,68.236572,59.526196,716.781799,294.692322,280.712219,0.121555,0.030611,17.713043,-0.004978,0.115873,0.049992,0.0,1.0,2641.555664,
89.375313,-32.476044,-31.2826,5.873389,0.441395,5.873389,0.441395,-29.999857,-30.0,70.643089,59.864204,726.633118,294.484192,280.563049,0.110006,-0.006579,17.713043,-0.007078,0.116821,0.062656,0.0,1.0,2642.212891,
89.571762,-29.194105,-28.00066,5.921591,0.16205,5.921591,0.16205,-29.999857,-30.0,74.312035,60.363331,740.396118,294.274414,280.339905,0.084493,-0.04286,17.713043,-0.006306,0.117468,0.073062,0.0,1.0,2643.197998,
89.700226,-26.960815,-25.767372,5.962005,-0.076621,5.962005,-0.076621,-29.999857,-30.0,76.795609,60.690937,749.454102,294.258026,280.191559,0.069588,-0.045477,17.713043,-0.002315,0.118432,0.083551,0.0,1.0,2643.852539,
89.879707,-23.545929,-22.352486,6.031815,-0.339549,6.031815,-0.339549,-19.999857,-20.0,80.579422,61.174587,763.839783,294.433594,279.971771,0.058873,-0.015589,17.713043,0.001095,0.11924,0.08437,0.0,1.0,2644.821289,
89.985397,-21.227011,-20.033566,6.089315,-0.392383,6.089315,-0.392383,-19.999857,-20.0,83.143364,61.49173,774.280884,294.636749,279.829315,0.062691,0.017678,17.713043,0.004851,0.120636,0.075592,0.0,1.0,2645.44873,
90.123573,-17.68528,-16.491835,6.168069,-0.245601,6.168069,-0.245601,-19.999857,-20.0,87.05748,61.959217,790.956238,294.922943,279.626099,0.080886,0.062543,17.713043,0.005605,0.121786,0.065434,0.0,1.0,2646.3479,
90.207611,-15.281406,-14.087962,6.215974,-0.050331,6.215974,-0.050331,-19.999857,-20.0,89.713303,62.26527,802.11792,295.030914,279.499481,0.095365,0.077409,17.713043,0.003509,0.123361,0.051125,0.0,1.0,2646.917969,
90.334373,-11.610891,-10.417447,6.2631,0.241178,6.2631,0.241178,-9.999858,-10.0,93.764847,62.715904,817.629517,294.996185,279.324127,0.111061,0.065841,17.713043,7.19E-4,0.124319,0.045726,0.0,1.0,2647.738525,
90.4235,-9.121111,-7.927667,6.288544,0.357665,6.288544,0.357665,-9.999858,-10.0,96.505913,63.010822,826.508057,294.859802,279.216461,0.112052,0.039797,17.713043,-0.003445,0.125262,0.047463,0.0,1.0,2648.263184,
90.564621,-5.324774,-4.13133,6.319292,0.320343,6.319292,0.320343,-9.999858,-10.0,100.668785,63.445286,837.956726,294.596771,279.066559,0.099365,-0.007487,17.713043,-0.00511,0.125771,0.054282,0.0,1.0,2649.026855,
90.661819,-2.754953,-1.561508,6.342404,0.174461,6.342404,0.174461,1.42E-4,0.0,103.473824,63.729866,844.757446,294.456421,278.972961,0.085005,-0.031739,17.713043,-0.004576,0.126386,0.067433,0.0,1.0,2649.528076,
90.806534,1.269579,2.463023,6.381489,-0.122291,6.381489,-0.122291,1.42E-4,0.0,107.723328,64.149376,854.776245,294.408722,278.840729,0.06392,-0.039286,17.713043,-0.002492,0.126848,0.074451,0.0,1.0,2650.272217,
90.897202,4.039751,5.233195,6.417117,-0.292175,6.417117,-0.292175,1.42E-4,0.0,110.584648,64.424179,861.838196,294.496704,278.758301,0.05672,-0.024258,17.713043,0.001747,0.12763,0.076836,0.0,1.0,2650.760254,
91.016823,8.246779,9.440225,6.477284,-0.374979,6.477284,-0.374979,10.000142,10.0,114.92337,64.828941,873.519897,294.743286,278.645416,0.05963,0.016681,17.713043,0.004174,0.128342,0.072437,0.0,1.0,2651.468262,
91.084625,11.085603,12.279047,6.521667,-0.305668,6.521667,-0.305668,10.000142,10.0,117.849663,65.093697,882.035828,294.918396,278.578796,0.069689,0.04451,17.713043,0.005357,0.129546,0.060107,0.0,1.0,2651.917236,
91.176201,15.395523,16.588966,6.572051,-0.064977,6.572051,-0.064977,20.000143,20.0,122.293472,65.483032,894.984314,295.068298,278.493896,0.089424,0.065713,17.713043,0.004367,0.130433,0.051352,0.0,1.0,2652.552246,
91.236725,18.303595,19.497038,6.598435,0.11378,6.598435,0.11378,20.000143,20.0,125.290703,65.737381,902.961487,295.058929,278.447449,0.099066,0.061147,17.713043,9.28E-4,0.131441,0.043857,0.0,1.0,2652.954834,
91.33403,22.717346,23.910791,6.622556,0.269003,6.622556,0.269003,20.000143,20.0,129.833038,66.111313,913.266418,294.895477,278.391418,0.102271,0.029513,17.713043,-0.001625,0.131969,0.044325,0.0,1.0,2653.542725,
91.404121,25.693089,26.886534,6.636612,0.261606,6.636612,0.261606,30.000143,30.0,132.887238,66.355721,918.923401,294.737183,278.361542,0.095395,0.001266,17.713043,-0.003843,0.132451,0.052498,0.0,1.0,2653.931396,
91.514473,30.203255,31.3967,6.657449,0.082195,6.657449,0.082195,30.000143,30.0,137.501434,66.715385,926.394043,294.552673,278.324677,0.076634,-0.030508,17.713043,-0.003737,0.132732,0.060413,0.0,1.0,2654.517334,
91.58847,33.238945,34.432388,6.676492,-0.093972,6.676492,-0.093972,30.000143,30.0,140.597717,66.950668,931.217102,294.515472,278.304169,0.064287,-0.036511,17.713043,-0.001174,0.133149,0.069638,0.0,1.0,2654.909912,
91.692719,37.832817,39.02626,6.713305,-0.310334,6.713305,-0.310334,40.000141,40.0,145.273483,67.296951,939.005005,294.618835,278.278839,0.053597,-0.018396,17.713043,0.001342,0.13353,0.071498,0.0,1.0,2655.495361,
91.753342,40.921204,42.114651,6.746295,-0.369602,6.746295,-0.369602,40.000141,40.0,148.413467,67.523323,944.875916,294.764069,278.266113,0.055107,0.005765,17.713043,0.004433,0.134266,0.06633,0.0,1.0,2655.876465,
91.829613,45.592033,46.785477,6.794045,-0.282055,6.794045,-0.282055,50.000141,50.0,153.162582,67.855988,954.596375,294.986237,278.254822,0.068127,0.041347,17.713043,0.00528,0.134926,0.059068,0.0,1.0,2656.422119,
91.87397,48.73172,49.925163,6.823432,-0.141125,6.823432,-0.141125,50.000141,50.0,156.35611,68.073097,961.275696,295.079346,278.253082,0.079628,0.054901,17.713043,0.004029,0.135881,0.04796,0.0,1.0,2656.766113,
91.940285,53.480579,54.674023,6.850026,0.085367,6.850026,0.085367,50.000141,50.0,161.187057,68.391762,970.558472,295.069458,278.258942,0.093223,0.049349,17.713043,0.002016,0.136469,0.043304,0.0,1.0,2657.257813,
91.988335,56.672592,57.866039,6.862076,0.183913,6.862076,0.183913,60.000141,60.0,164.431396,68.599655,975.720154,294.971924,278.267456,0.095072,0.030796,17.713043,-0.00122,0.137001,0.043799,0.0,1.0,2657.57666,
92.067772,61.498142,62.691589,6.873959,0.170736,6.873959,0.170736,60.000141,60.0,169.32692,68.904984,982.037109,294.770447,278.28418,0.086391,-0.005179,17.713043,-0.002627,0.137242,0.048676,0.0,1.0,2658.053223,
92.124519,64.738625,65.932068,6.883147,0.066324,6.883147,0.066324,60.000141,60.0,172.606598,69.104385,985.584717,294.65741,278.296204,0.075446,-0.024521,17.713043,-0.002439,0.137479,0.058749,0.0,1.0,2658.373779,
92.210571,69.6315,70.824944,6.90208,-0.158201,6.90208,-0.158201,70.000145,70.0,177.547791,69.397522,990.778015,294.610413,278.313293,0.058705,-0.031787,17.713043,-9.47E-4,0.137663,0.064401,0.0,1.0,2658.859375,
Command_Fault: set /instrumentation/vertical-speed-indicator/serviceable true
92.264427,72.913368,74.106812,6.921914,-0.290387,6.921914,-0.290387,70.000145,70.0,180.856873,69.589012,994.593811,294.672211,278.323669,0.052713,-0.020999,17.713043,0.00226,0.138042,0.066751,0.0,1.0,2659.182861,
92.333824,77.864662,79.058105,6.958168,-0.358353,6.958168,-0.358353,80.000145,80.0,185.846481,69.870293,1001.239136,294.857208,278.338379,0.054545,0.010087,4441.093262,0.004148,0.138438,0.063661,0.0,1.0,2659.656982,
92.371521,81.18438,82.377823,6.985714,-0.307344,6.985714,-0.307344,80.000145,80.0,189.192535,70.053757,1006.276001,294.990967,278.348389,0.062359,0.0316,4274.665039,0.005119,0.139163,0.054411,0.0,1.0,2659.959717,
92.420433,86.192886,87.38633,7.016345,-0.12338,7.016345,-0.12338,90.000145,90.0,194.244095,70.322777,1014.058044,295.105408,278.364838,0.077978,0.048163,4029.130615,0.004391,0.139714,0.047723,0.0,1.0,2660.388916,
92.452698,89.551613,90.745056,7.030895,0.013939,7.030895,0.013939,90.000145,90.0,197.63266,70.498009,1018.832153,295.096924,278.376648,0.085668,0.044695,3868.406494,0.001763,0.140327,0.042001,0.0,1.0,2660.661621,
92.506584,94.619232,95.812683,7.040936,0.131778,7.040936,0.131778,90.000145,90.0,202.742844,70.754883,1024.766235,294.968384,278.394379,0.088259,0.020261,3632.185303,-1.99E-4,0.140618,0.042426,0.0,1.0,2661.060791,
92.547043,98.016624,99.210068,7.045649,0.123996,7.045649,0.123996,100.000145,100.0,206.164169,70.92231,1027.816406,294.845276,278.404877,0.082823,-0.001456,3478.20459,-0.001883,0.140819,0.048853,0.0,1.0,2661.326172,
92.612389,103.137085,104.330528,7.054046,-0.017266,7.054046,-0.017266,100.000145,100.0,211.313416,71.16803,1031.689575,294.703827,278.41626,0.068032,-0.025479,3252.91626,-0.001771,0.140913,0.055008,0.0,1.0,2661.729248,
92.656868,106.568336,107.761787,7.063748,-0.153585,7.063748,-0.153585,110.000145,110.0,214.756729,71.328354,1034.216919,294.677643,278.420074,0.058437,-0.029481,3106.858398,2.47E-4,0.141081,0.06208,0.0,1.0,2662.001709,
92.718605,111.737198,112.930649,7.08587,-0.316205,7.08587,-0.316205,110.000145,110.0,219.938553,71.563667,1038.526367,294.76236,278.420013,0.050496,-0.014398,2894.487061,0.002194,0.141275,0.06339,0.0,1.0,2662.409912,
92.753166,115.197159,116.390602,7.106783,-0.356089,7.106783,-0.356089,110.000145,110.0,223.406143,71.717072,1041.98645,294.876404,278.416748,0.052135,0.004723,2757.748779,0.004517,0.141717,0.059154,0.0,1.0,2662.676514,
92.794357,120.408188,121.601639,7.13693,-0.278594,7.13693,-0.278594,120.000145,120.0,228.631088,71.941856,1047.903931,295.045105,278.408752,0.062975,0.031915,2560.605225,0.005087,0.142136,0.053452,0.0,1.0,2663.058838,
92.817291,123.896713,125.090157,7.15477,-0.165329,7.15477,-0.165329,120.000145,120.0,232.131165,72.088112,1051.993286,295.110931,278.402191,0.072145,0.041517,2434.928711,0.00398,0.142739,0.045017,0.0,1.0,2663.299805,
92.851974,129.151978,130.345428,7.168863,0.008247,7.168863,0.008247,130.000137,130.0,237.405945,72.302132,1057.544189,295.091156,278.390869,0.082479,0.035463,2255.839355,0.002362,0.143095,0.041725,0.0,1.0,2663.64502,
92.878319,132.670502,133.863953,7.173727,0.078261,7.173727,0.078261,130.000137,130.0,240.93631,72.44133,1060.469116,295.008728,278.381958,0.083409,0.020174,2143.192139,-1.18E-4,0.143377,0.042714,0.0,1.0,2663.869629,
92.924034,137.969696,139.163147,7.177044,0.054729,7.177044,0.054729,140.000137,140.0,246.247742,72.64518,1063.815308,294.849915,278.365021,0.075766,-0.007765,1985.085693,-0.001118,0.143475,0.046835,0.0,1.0,2664.207275,
92.957687,141.515686,142.709122,7.180308,-0.033613,7.180308,-0.033613,140.000137,140.0,249.796936,72.777939,1065.592773,294.76651,278.350464,0.066937,-0.021813,1887.313232,-7.82E-4,0.143541,0.054776,0.0,1.0,2664.435547,
93.008804,146.852325,148.045776,7.190574,-0.209523,7.190574,-0.209523,150.000137,150.0,255.131638,72.972542,1068.263306,294.742554,278.323029,0.054158,-0.025059,1752.660767,4.8E-4,0.143606,0.058946,0.0,1.0,2664.783691,
93.039978,150.420914,151.614365,7.203084,-0.306209,7.203084,-0.306209,150.000137,150.0,258.696106,73.099304,1070.396362,294.799194,278.301239,0.050163,-0.015115,1671.143066,0.002993,0.143811,0.060144,0.0,1.0,2665.016113,
93.077972,155.78923,156.982681,7.226775,-0.342467,7.226775,-0.342467,160.000137,160.0,264.057922,73.28492,1074.369507,294.948486,278.264923,0.052927,0.010057,1561.497192,0.004374,0.144062,0.057312,0.0,1.0,2665.356689,
93.097115,159.378494,160.571945,7.244374,-0.29138,7.244374,-0.29138,160.000137,160.0,267.64447,73.405594,1077.483276,295.049042,278.23941,0.059702,0.026248,1496.848022,0.004892,0.144535,0.049847,0.0,1.0,2665.574219,
93.120964,164.778702,165.972153,7.262348,-0.139898,7.262348,-0.139898,160.000137,160.0,273.044312,73.581924,1082.246826,295.123505,278.200806,0.072141,0.036783,1412.344116,0.004163,0.144887,0.04482,0.0,1.0,2665.882813,
93.137222,168.390121,169.583557,7.269688,-0.035492,7.269688,-0.035492,170.000137,170.0,276.656738,73.696396,1085.037109,295.104584,278.175232,0.07767,0.032159,1364.036621,0.001999,0.145247,0.041097,0.0,1.0,2666.079834,
93.166451,173.824127,175.017563,7.27263,0.041081,7.27263,0.041081,170.000137,170.0,282.09079,73.863625,1088.27832,294.991547,278.136719,0.078375,0.011279,1302.833252,5.07E-4,0.145394,0.042043,0.0,1.0,2666.369629,
93.18985,177.457504,178.65094,7.272973,0.021823,7.272973,0.021823,180.000137,180.0,285.72113,73.972282,1089.784424,294.894226,278.110352,0.073297,-0.005628,1268.927002,-5.87E-4,0.145453,0.047694,0.0,1.0,2666.563965,
93.228981,182.921967,184.115417,7.27544,-0.102143,7.27544,-0.102143,180.000137,180.0,291.174774,74.131248,1091.581787,294.794678,278.068726,0.061199,-0.022199,1227.191162,-3.12E-4,0.145459,0.05256,0.0,1.0,2666.861328,
93.255455,186.573517,187.766968,7.280709,-0.209528,7.280709,-0.209528,190.000137,190.0,294.815491,74.234642,1092.815063,294.786652,278.039368,0.054082,-0.023093,1204.697144,0.001459,0.145509,0.057538,0.0,1.0,2667.063232,
93.290749,192.062393,193.255829,7.295297,-0.323395,7.295297,-0.323395,190.000137,190.0,300.285339,74.38591,1095.189453,294.868744,277.993622,0.049297,-0.008545,1177.697632,0.002993,0.145614,0.057939,0.0,1.0,2667.366211,
93.309097,195.729019,196.92247,7.309273,-0.340119,7.309273,-0.340119,200.000137,200.0,303.939484,74.484177,1097.28125,294.961914,277.962891,0.051667,0.007072,1163.522217,0.00462,0.145906,0.053835,0.0,1.0,2667.563965,
93.329056,201.240372,202.433807,7.328284,-0.260392,7.328284,-0.260392,200.000137,200.0,309.435181,74.627609,1100.948608,295.085846,277.918243,0.061259,0.026951,1146.990479,0.004859,0.146185,0.049176,0.0,1.0,2667.847412,
93.339691,204.922638,206.116074,7.338457,-0.165996,7.338457,-0.165996,200.000137,200.0,313.109344,74.720558,1103.436157,295.124664,277.890259,0.068431,0.032366,1138.617065,0.00372,0.146566,0.042979,0.0,1.0,2668.026855,
93.35701,210.458725,211.652161,7.344365,-0.037603,7.344365,-0.037603,210.000137,210.0,318.635162,74.856041,1106.63147,295.088593,277.85144,0.075448,0.024339,1129.27063,0.002371,0.146769,0.041039,0.0,1.0,2668.285645,
93.371643,214.157898,215.351334,7.344842,0.004149,7.344842,0.004149,210.000137,210.0,322.326691,74.943825,1108.150391,295.014893,277.827362,0.075082,0.011031,1124.789551,5.37E-4,0.146887,0.042842,0.0,1.0,2668.455811,
93.398857,219.71843,220.91188,7.343694,-0.03633,7.343694,-0.03633,220.000137,220.0,327.871704,75.071907,1109.690308,294.890961,277.792938,0.067671,-0.010409,1120.090454,-5.9E-5,0.146897,0.046527,0.0,1.0,2668.713867,
93.419456,223.432495,224.625931,7.344195,-0.115594,7.344195,-0.115594,220.000137,220.0,331.572021,75.155037,1110.451782,294.834991,277.770538,0.060471,-0.019635,1118.003906,5.19E-4,0.146874,0.052724,0.0,1.0,2668.889648,
Command: turn_+45
93.450264,229.01265,230.206085,7.35039,-0.252656,7.35039,-0.252656,230.000137,230.0,337.127411,75.276451,1111.737549,294.836395,277.737366,0.051205,-0.018592,1116.023193,0.001651,0.146884,0.055522,0.0,1.0,2669.158691,
93.467606,232.737106,233.930542,7.359153,-0.324822,7.359153,-0.324822,230.000137,230.0,340.835236,75.355232,1112.96167,294.902985,277.715851,0.04323,-0.006647,1115.233887,0.001203,0.147008,0.1,0.0,1.0,2669.338135,
93.477455,238.333618,239.527069,7.383778,-0.362878,7.383778,-0.362878,240.000137,240.0,346.406311,75.469986,1115.603638,295.223083,277.686279,0.04226,0.045719,1114.823364,0.001547,0.147183,0.1,0.0,1.0,2669.595947,
93.467102,242.070236,243.263672,7.409856,-0.25867,7.409856,-0.25867,240.000137,240.0,350.129486,75.544044,1118.355835,295.525818,277.670441,0.055239,0.092688,1114.918579,0.001728,0.147676,0.1,0.0,1.0,2669.747314,
93.42794,247.685471,248.878922,7.443816,0.119842,7.443816,0.119842,250.000137,250.0,355.734894,75.651062,1123.812988,295.967285,277.65686,0.087627,0.156726,1115.588013,0.001232,0.148197,0.1,0.0,1.0,2669.926758,
93.393082,251.437454,252.630905,7.45839,0.483817,7.45839,0.483817,250.000137,250.0,359.48761,75.719513,1127.65979,296.18866,277.656586,0.111659,0.18486,1116.397705,-5.71E-4,0.148876,0.1,0.0,1.0,2670.012939,
93.341827,257.080566,258.274017,7.459964,1.077622,7.459964,1.077622,260.000153,260.0,365.138855,75.817734,1132.359253,296.362946,277.671112,0.141838,0.198285,1118.152588,-0.002304,0.149168,0.1,0.0,1.0,2670.104004,
93.31385,260.853241,262.046692,7.454906,1.446441,7.454906,1.446441,260.000153,260.0,368.916901,75.880318,1134.221924,296.38266,277.690674,0.154182,0.190518,1119.634155,-0.005132,0.149199,0.1,0.0,1.0,2670.151367,
93.283974,266.526978,267.720428,7.446333,1.866447,7.446333,1.866447,270.000153,270.0,374.591614,75.970177,1135.322632,296.327576,277.733215,0.159323,0.164574,1122.157471,-0.006888,0.149098,0.1,0.0,1.0,2670.221191,
93.271202,270.31781,271.511261,7.440583,2.047305,7.440583,2.047305,270.000153,270.0,378.375916,76.027634,1135.146118,296.280731,277.769043,0.155248,0.145919,1123.921509,-0.008888,0.148927,0.1,0.0,1.0,2670.273682,
93.259445,276.013214,277.206665,7.433187,2.179931,7.433187,2.179931,280.000153,280.0,384.049133,76.110512,1134.061157,296.265533,277.831726,0.143153,0.127217,1126.494141,-0.009749,0.148812,0.1,0.0,1.0,2670.366699,
93.254135,279.81424,281.00769,7.42811,2.210467,7.42811,2.210467,280.000153,280.0,387.827698,76.163742,1133.109985,296.317291,277.878754,0.134606,0.124854,1128.068237,-0.010381,0.148664,0.1,0.0,1.0,2670.437744,
93.245575,285.518951,286.712402,7.422811,2.23152,7.422811,2.23152,280.000153,280.0,393.489807,76.24073,1131.837158,296.496216,277.956879,0.125827,0.136956,1130.117065,-0.010526,0.148562,0.1,0.0,1.0,2670.553223,
Command_Fault: set /instrumentation/vertical-speed-indicator/serviceable false
93.237251,289.322937,290.516388,7.420691,2.262348,7.420691,2.262348,290.000153,290.0,397.261627,76.290192,1131.321899,296.670044,278.014557,0.124136,0.152882,1131.252319,-0.010626,0.148456,0.1,0.0,1.0,2670.631836,
93.218933,295.0289,296.222351,7.420162,2.365994,7.420162,2.365994,290.000153,290.0,402.917542,76.361572,1131.177856,296.972748,278.110901,0.127786,0.181446,1131.752075,-0.010773,0.148414,0.1,0.0,1.0,2670.744873,
93.203178,298.832672,300.026123,7.420224,2.476764,7.420224,2.476764,300.000153,300.0,406.688538,76.407257,1131.442871,297.177338,278.182587,0.13312,0.19938,1131.752075,-0.011267,0.148403,0.1,0.0,1.0,2670.813965,
93.176788,304.53833,305.731781,7.419257,2.684779,7.419257,2.684779,300.000153,300.0,412.34729,76.4729,1132.03186,297.455627,278.302551,0.142507,0.219363,1131.752075,-0.011794,0.148404,0.1,0.0,1.0,2670.906982,
93.159103,308.341187,309.534637,7.417519,2.835087,7.417519,2.835087,310.000153,310.0,416.121277,76.514763,1132.338257,297.613159,278.391174,0.147948,0.226898,1131.752075,-0.012785,0.148385,0.1,0.0,1.0,2670.963379,
93.135391,314.047882,315.241333,7.413533,3.041222,7.413533,3.041222,310.000153,310.0,421.783417,76.574791,1132.411743,297.810364,278.536987,0.152975,0.230391,1131.752075,-0.0135,0.14835,0.1,0.0,1.0,2671.044189,
93.122032,317.852509,319.045959,7.409929,3.154964,7.409929,3.154964,320.000153,320.0,425.557709,76.613052,1132.130981,297.925476,278.642395,0.153839,0.22943,1131.752075,-0.014482,0.148271,0.1,0.0,1.0,2671.098633,
93.105652,323.55896,324.752411,7.404149,3.2764,7.404149,3.2764,320.000153,320.0,431.216339,76.667976,1131.273193,298.095886,278.811981,0.15205,0.226883,1131.752075,-0.015024,0.148199,0.1,0.0,1.0,2671.184082,
93.096375,327.36026,328.553711,7.399609,3.329659,7.399609,3.329659,330.000153,330.0,434.985962,76.703049,1130.492065,298.21994,278.932129,0.14964,0.22651,1131.752075,-0.015602,0.148083,0.1,0.0,1.0,2671.244873,
93.084503,333.063782,334.257202,7.393191,3.380382,7.393191,3.380382,330.000153,330.0,440.635101,76.753494,1129.20813,298.43457,279.122284,0.145873,0.22989,1131.752075,-0.015856,0.147992,0.1,0.0,1.0,2671.341797,
93.076759,336.863953,338.057404,7.388745,3.406788,7.388745,3.406788,340.000153,340.0,444.397705,76.785736,1128.386719,298.598328,279.255402,0.144077,0.234966,1131.752075,-0.016097,0.147864,0.1,0.0,1.0,2671.40918,
93.064293,342.560394,343.753845,7.383351,3.45077,7.383351,3.45077,340.000153,340.0,450.036835,76.832108,1127.338501,298.869141,279.464417,0.143197,0.245641,1131.752075,-0.016223,0.147775,0.1,0.0,1.0,2671.512207,
93.055107,346.355286,347.548737,7.379944,3.489396,7.379944,3.489396,350.000153,350.0,453.793671,76.861717,1126.79895,299.059692,279.609924,0.143828,0.25364,1131.752075,-0.016432,0.147667,0.1,0.0,1.0,2671.581055,
93.040146,352.043488,353.236908,7.37587,3.562498,7.37587,3.562498,350.000153,350.0,459.425995,76.904205,1126.183716,299.348236,279.837372,0.146052,0.264886,1131.752075,-0.016616,0.147599,0.1,0.0,1.0,2671.682861,
93.029762,355.832947,357.026398,7.373122,3.619301,7.373122,3.619301,360.000153,360.0,463.179382,76.931267,1125.856812,299.536621,279.994995,0.147871,0.270999,1131.752075,-0.016964,0.147517,0.1,0.0,1.0,2671.749512,
93.014366,361.513428,362.706879,7.369345,3.706395,7.369345,3.706395,360.000153,360.0,468.807434,76.970032,1125.372314,299.80835,280.23996,0.150278,0.277414,1131.752075,-0.017235,0.147462,0.1,0.0,1.0,2671.848145,
93.004662,365.298096,366.491516,7.366507,3.761417,7.366507,3.761417,360.000153,360.0,472.558075,76.994698,1125.004028,299.982513,280.408569,0.15131,0.280019,1131.752075,-0.017649,0.147387,0.1,0.0,1.0,2671.913818,
92.991394,370.971619,372.16507,7.362324,3.830726,7.362324,3.830726,370.000153,370.0,478.181427,77.029991,1124.33374,300.237671,280.668549,0.151808,0.282263,1131.752075,-0.017912,0.14733,0.1,0.0,1.0,2672.013428,
92.983398,374.751648,375.945099,7.359134,3.867509,7.359134,3.867509,370.000153,370.0,481.928314,77.052452,1123.809204,300.407379,280.846069,0.151521,0.283343,1131.752075,-0.018242,0.147246,0.1,0.0,1.0,2672.081055,
92.97245,380.418091,381.611542,7.354563,3.908341,7.354563,3.908341,380.000153,380.0,487.545166,77.08461,1122.944336,300.667297,281.117737,0.150568,0.285327,1131.752075,-0.018417,0.147183,0.1,0.0,1.0,2672.185303,
92.965614,384.193237,385.386688,7.351232,3.929191,7.351232,3.929191,380.000153,380.0,491.287292,77.105087,1122.351318,300.846344,281.30191,0.149863,0.287272,1131.752075,-0.018611,0.147091,0.1,0.0,1.0,2672.256348,
92.955612,389.85199,391.045441,7.346785,3.955535,7.346785,3.955535,390.000153,390.0,496.89682,77.134422,1121.493652,301.124603,281.582092,0.149108,0.291248,1131.752075,-0.01871,0.147025,0.1,0.0,1.0,2672.365234,
92.948929,393.621796,394.815247,7.343734,3.973099,7.343734,3.973099,390.000153,390.0,500.634216,77.153084,1120.971191,301.315582,281.771088,0.148939,0.294436,1131.752075,-0.018836,0.146936,0.1,0.0,1.0,2672.438721,
92.938766,399.272522,400.465942,7.339868,4.002059,7.339868,4.002059,400.000153,400.0,506.237244,77.17981,1120.274536,301.607117,282.057312,0.149209,0.299472,1131.752075,-0.01892,0.146875,0.1,0.0,1.0,2672.550049,
92.931854,403.037018,404.230438,7.337264,4.023945,7.337264,4.023945,400.000153,400.0,509.970795,77.196793,1119.867798,301.802673,282.249634,0.149647,0.302657,1131.752075,-0.019057,0.146797,0.1,0.0,1.0,2672.624268,
92.916328,408.679932,409.873383,7.333924,4.058752,7.333924,4.058752,410.000153,410.0,515.568665,77.221077,1119.277222,302.09491,282.539825,0.150275,0.306734,1131.752075,-0.019162,0.146745,0.1,0.0,1.0,2672.734863,
92.898094,412.439423,413.632874,7.331702,4.078909,7.331702,4.078909,410.000153,410.0,519.298645,77.236504,1118.704346,302.289886,282.7341,0.14981,0.309106,1131.752075,-0.019327,0.146678,0.1,0.0,1.0,2672.799316,
92.872276,418.074799,419.26825,7.327863,4.095972,7.327863,4.095972,420.000153,420.0,524.889465,77.258591,1117.626831,302.589722,283.026184,0.148271,0.31316,1131.752075,-0.019423,0.146634,0.1,0.0,1.0,2672.884277,
92.85582,421.828949,423.0224,7.324158,4.100832,7.324158,4.100832,420.000153,420.0,528.613464,77.272659,1116.795776,302.797455,283.22113,0.147179,0.316654,1131.752075,-0.019505,0.146557,0.1,0.0,1.0,2672.935547,
92.831795,427.455627,428.649048,7.318189,4.105113,7.318189,4.105113,430.000153,430.0,534.194031,77.292824,1115.442993,303.121857,283.513794,0.146054,0.323207,1131.752075,-0.019528,0.146483,0.1,0.0,1.0,2673.008301,
92.815948,431.20343,432.396851,7.313854,4.109964,7.313854,4.109964,430.000153,430.0,537.910583,77.305679,1114.525513,303.344971,283.709045,0.145827,0.328165,1131.752075,-0.019548,0.146364,0.1,0.0,1.0,2673.054932,
92.792274,436.819794,438.013245,7.308186,4.124149,7.308186,4.124149,440.000153,440.0,543.479736,77.324112,1113.202515,303.685059,284.002228,0.146259,0.335676,1131.752075,-0.019571,0.146277,0.1,0.0,1.0,2673.122314,
92.776604,440.560394,441.753815,7.304184,4.138622,7.304184,4.138622,440.000153,440.0,547.188965,77.335854,1112.366333,303.912109,284.197968,0.146907,0.340232,1131.752075,-0.019639,0.146164,0.1,0.0,1.0,2673.16626,
92.753532,446.165619,447.35907,7.298687,4.165281,7.298687,4.165281,450.000153,450.0,552.74762,77.352676,1111.136963,304.249237,284.492035,0.148051,0.345801,1131.752075,-0.019708,0.146084,0.1,0.0,1.0,2673.231201,
92.738655,449.898651,451.092072,7.294686,4.184328,7.294686,4.184328,450.000153,450.0,556.450012,77.36338,1110.313599,304.47049,284.688446,0.148711,0.348544,1131.752075,-0.019835,0.145974,0.1,0.0,1.0,2673.274658,
92.717407,455.492432,456.685883,7.289082,4.210236,7.289082,4.210236,450.000153,450.0,561.998291,77.378731,1109.038696,304.797516,284.983459,0.149308,0.351368,1131.752075,-0.019925,0.145894,0.1,0.0,1.0,2673.340576,
92.704025,459.217743,460.411194,7.284947,4.224369,7.284947,4.224369,460.000153,460.0,565.693604,77.388512,1108.158936,305.013489,285.180389,0.149394,0.352643,1131.752075,-0.020049,0.145782,0.1,0.0,1.0,2673.385498,
92.685112,464.799774,465.993225,7.27912,4.239176,7.27912,4.239176,460.000153,460.0,571.230896,77.402557,1106.796753,305.337158,285.475983,0.149138,0.354172,1131.752075,-0.020116,0.145699,0.1,0.0,1.0,2673.455322,
92.673195,468.51712,469.710571,7.274862,4.245413,7.274862,4.245413,470.000153,470.0,574.91864,77.411537,1105.876465,305.55423,285.673126,0.148815,0.355202,1131.752075,-0.020187,0.145582,0.1,0.0,1.0,2673.503662,
92.656166,474.086975,475.280426,7.269029,4.250912,7.269029,4.250912,470.000153,470.0,580.444458,77.424469,1104.505005,305.883423,285.968964,0.148311,0.357049,1131.752075,-0.020216,0.145497,0.1,0.0,1.0,2673.578857,
92.645264,477.796082,478.989532,7.264888,4.253502,7.264888,4.253502,480.000153,480.0,584.124634,77.432762,1103.618286,306.105438,286.16626,0.148062,0.358513,1131.752075,-0.020242,0.145381,0.1,0.0,1.0,2673.630859,
92.62944,483.353485,484.546936,7.259391,4.257765,7.259391,4.257765,480.000153,480.0,589.639404,77.444725,1102.345093,306.44165,286.462402,0.147912,0.360947,1131.752075,-0.020255,0.145298,0.1,0.0,1.0,2673.710938,
92.619179,487.054291,488.247742,7.255568,4.261645,7.255568,4.261645,490.000153,490.0,593.3125,77.452408,1101.544556,306.667023,286.660004,0.147962,0.362588,1131.752075,-0.020275,0.145188,0.1,0.0,1.0,2673.765625,
92.604172,492.599426,493.792877,7.250548,4.269259,7.250548,4.269259,490.000153,490.0,598.817261,77.463509,1100.40564,307.005463,286.956757,0.148197,0.364848,1131.752075,-0.020294,0.145111,0.1,0.0,1.0,2673.849854,
92.59446,496.292175,497.485626,7.247053,4.275275,7.247053,4.275275,500.000153,500.0,602.484009,77.470657,1099.686279,307.230591,287.154877,0.148398,0.366109,1131.752075,-0.02033,0.145011,0.1,0.0,1.0,2673.907227,
92.580399,501.825531,503.018982,7.242406,4.284515,7.242406,4.284515,500.000153,500.0,607.979736,77.481003,1098.645142,307.566895,287.452484,0.148663,0.367568,1131.752075,-0.020358,0.144941,0.1,0.0,1.0,2673.994873,
92.567032,507.352142,508.545563,7.237602,4.292827,7.237602,4.292827,510.000153,510.0,613.470398,77.490936,1097.639282,307.901611,287.750641,0.148799,0.368555,1131.752075,-0.020402,0.144848,0.1,0.0,1.0,2674.084717,
92.558556,511.032867,512.226318,7.234716,4.297214,7.234716,4.297214,510.000153,510.0,617.128052,77.497353,1096.984985,308.124268,287.949707,0.148801,0.369036,1131.752075,-0.02043,0.144783,0.1,0.0,1.0,2674.14624,
92.546432,516.548645,517.742126,7.230121,4.301917,7.230121,4.301917,520.000122,520.0,622.610535,77.506691,1096.023071,308.458221,288.248749,0.148697,0.369636,1131.752075,-0.020463,0.144694,0.1,0.0,1.0,2674.240234,
92.538719,520.222412,521.415833,7.227367,4.303856,7.227367,4.303856,520.000122,520.0,626.262817,77.512741,1095.400879,308.681335,288.448425,0.148586,0.370036,1131.752075,-0.020479,0.144632,0.1,0.0,1.0,2674.304443,
92.527618,525.727966,526.921387,7.22302,4.305628,7.22302,4.305628,530.000122,530.0,631.737488,77.521584,1094.498413,309.017029,288.748352,0.14842,0.370708,1131.752075,-0.020495,0.144547,0.1,0.0,1.0,2674.402588,
92.520493,529.39502,530.58844,7.220448,4.306429,7.220448,4.306429,530.000122,530.0,635.384827,77.527336,1093.924683,309.241608,288.948608,0.148336,0.371216,1131.752075,-0.020501,0.144488,0.1,0.0,1.0,2674.469482,
92.510162,534.890808,536.084229,7.216424,4.307687,7.216424,4.307687,530.000122,530.0,640.852356,77.535767,1093.105835,309.579376,289.249451,0.148279,0.372024,1131.752075,-0.020507,0.144409,0.1,0.0,1.0,2674.571533,
92.503517,538.551514,539.744995,7.214065,4.308766,7.214065,4.308766,540.000122,540.0,644.495117,77.54126,1092.591064,309.804901,289.450348,0.148282,0.372559,1131.752075,-0.020511,0.144354,0.1,0.0,1.0,2674.640625,
92.493881,544.038147,545.231628,7.210386,4.310822,7.210386,4.310822,540.000122,540.0,649.956177,77.549347,1091.859375,310.14325,289.752197,0.148332,0.373283,1131.752075,-0.020518,0.144281,0.1,0.0,1.0,2674.74585,
92.487671,547.692993,548.886475,7.208226,4.312375,7.208226,4.312375,550.000122,550.0,653.59491,77.554634,1091.398315,310.368683,289.953766,0.148376,0.37369,1131.752075,-0.020524,0.144231,0.1,0.0,1.0,2674.816895,
92.478699,553.171143,554.364563,7.204841,4.314708,7.204841,4.314708,550.000122,550.0,659.050232,77.562439,1090.738281,310.706421,290.256653,0.14843,0.374162,1131.752075,-0.020535,0.144165,0.1,0.0,1.0,2674.925049,
92.472954,556.820496,558.013916,7.202839,4.31606,7.202839,4.31606,560.000122,560.0,662.685242,77.566299,1090.318481,310.931335,290.458893,0.148446,0.374398,1131.752075,-0.020543,0.144118,0.1,0.0,1.0,2674.998291,
92.464676,562.29071,563.484131,7.199687,4.317592,7.199687,4.317592,560.000122,560.0,668.135315,77.571449,1089.712891,311.268463,290.762726,0.148434,0.37466,1131.752075,-0.020553,0.144057,0.1,0.0,1.0,2675.109375,
92.459389,565.934998,567.128479,7.197816,4.31821,7.197816,4.31821,570.000122,570.0,671.767029,77.574875,1089.326538,311.493195,290.965607,0.148405,0.374804,1131.752075,-0.020558,0.144014,0.1,0.0,1.0,2675.184326,
92.451813,571.397888,572.591309,7.194871,4.318604,7.194871,4.318604,570.000122,570.0,677.212219,77.580025,1088.770752,311.830444,291.270294,0.148343,0.375006,1131.752075,-0.020563,0.143956,0.1,0.0,1.0,2675.29834,
92.44696,575.037476,576.230896,7.193129,4.318592,7.193129,4.318592,570.000122,570.0,680.84082,77.583473,1088.418579,312.055481,291.473694,0.148298,0.37515,1131.752075,-0.020564,0.143916,0.1,0.0,1.0,2675.375244,
