airspeed_indicator_indicated_speed_kt,altimeter_indicated_altitude_ft,altimeter_pressure_alt_ft,attitude_indicator_indicated_pitch_deg,attitude_indicator_indicated_roll_deg,attitude_indicator_internal_pitch_deg,attitude_indicator_internal_roll_deg,encoder_indicated_altitude_ft,encoder_pressure_alt_ft,gps_indicated_altitude_ft,gps_indicated_ground_speed_kt,gps_indicated_vertical_speed,indicated_heading_deg,magnetic_compass_indicated_heading_deg,slip_skid_ball_indicated_slip_skid,turn_indicator_indicated_turn_rate,vertical_speed_indicator_indicated_speed_fpm,flight_aileron,flight_elevator,flight_rudder,flight_flaps,engine_throttle,engine_rpm,
Command: takeoff
6.326338,-87.959633,-86.76619,2.974432,1.37278,2.590859,0.094206,-89.999855,-90.0,2.286452,0.0,0.006364,297.868652,274.229492,0.012311,-0.054288,-20.31789,-0.0,0.0,0.0,0.0,0.0,600.112854,
6.372205,-87.981766,-86.788322,2.933202,1.234581,2.591236,0.094695,-89.999855,-90.0,2.286485,0.0,0.002077,297.867279,278.051636,0.012249,-0.045925,-13.330367,-0.019611,0.051817,0.0,0.0,1.0,608.491028,
6.408131,-87.991951,-86.798508,2.776553,0.736715,2.583943,0.094682,-89.999855,-90.0,2.286468,3.4E-5,-0.011489,297.866394,280.335541,0.012129,-0.04156,-12.046087,-0.017637,0.051825,6.9E-5,0.0,1.0,672.630005,
6.468388,-88.003677,-86.810234,2.584099,0.214911,2.547392,0.092554,-89.999855,-90.0,2.286335,2.19E-4,-0.043042,297.864929,283.610901,0.011903,-0.036011,-17.527163,-0.010525,0.051679,1.13E-4,0.0,1.0,846.82196,
6.542909,-88.010269,-86.816826,2.51124,0.088567,2.51124,0.088567,-89.999855,-90.0,2.286215,7.37E-4,-0.019461,297.863708,285.886078,0.011918,-0.032599,-12.306317,-0.00307,0.050948,1.86E-4,0.0,1.0,1004.505066,
6.735415,-88.017738,-86.824287,2.492438,0.078821,2.492438,0.078821,-89.999855,-90.0,2.286276,0.003812,0.04244,297.861633,289.031982,0.013169,-0.028414,-10.876628,-0.001265,0.050225,2.47E-4,0.0,1.0,1245.724976,
6.931075,-88.021629,-86.828186,2.497333,0.070283,2.497333,0.070283,-89.999855,-90.0,2.286485,0.008763,0.082367,297.859741,291.024719,0.014793,-0.026085,-17.169331,-0.001126,0.049849,3.51E-4,0.0,1.0,1401.535889,
7.329457,-88.026176,-86.832733,2.517082,0.055648,2.517082,0.055648,-89.999855,-90.0,2.28704,0.023133,0.138875,297.854858,293.828186,0.019187,-0.023381,-14.725946,-0.001004,0.049947,4.46E-4,0.0,1.0,1611.624268,
7.666516,-88.028496,-86.835045,2.533606,0.045499,2.533606,0.045499,-89.999855,-90.0,2.287565,0.038858,0.176323,297.849152,295.558685,0.024567,-0.022196,-13.50759,-7.95E-4,0.050342,6.9E-4,0.0,1.0,1731.286743,
8.250539,-88.031029,-86.837585,2.557815,0.031327,2.557815,0.031327,-89.999855,-90.0,2.288553,0.072859,0.227338,297.836121,297.863281,0.030239,-0.02141,-13.42172,-6.5E-4,0.050672,9.75E-4,0.0,1.0,1874.82019,
8.72635,-88.032326,-86.838882,2.573992,0.022238,2.573992,0.022238,-89.999855,-90.0,2.28943,0.10642,0.273395,297.82193,299.339539,0.034917,-0.021666,-18.821217,-4.48E-4,0.051156,0.001627,0.0,1.0,1956.174683,
9.481157,-88.033554,-86.840111,2.593776,0.011441,2.593776,0.011441,-89.999855,-90.0,2.290954,0.169963,0.33687,297.79425,301.202209,0.032511,-0.023069,-13.337787,-3.18E-4,0.05148,0.002336,0.0,1.0,2046.585083,
9.481157,-88.033554,-86.840111,2.593776,0.011441,2.593776,0.011441,-89.999855,-90.0,2.290954,0.169963,0.33687,297.79425,301.202209,0.032511,-0.023069,-13.337787,-3.18E-4,0.05148,0.002336,0.0,1.0,2046.585083,
10.85463,-88.034592,-86.841148,2.618721,-1.4E-5,2.618721,-1.4E-5,-89.999855,-90.0,2.294208,0.316432,0.450321,297.729828,303.553345,0.029595,-0.027691,-17.805859,-1.63E-4,0.051876,0.00372,0.0,1.0,2141.9646,
11.437871,-88.034294,-86.840851,2.626359,-0.00316,2.626359,-0.00316,-89.999855,-90.0,2.295798,0.391804,0.500565,297.696716,304.254791,0.028722,-0.03028,-16.62801,0.0,0.052374,0.006941,0.0,1.0,2167.12793,
12.34418,-88.033379,-86.839935,2.634817,-0.006116,2.634817,-0.006116,-89.999855,-90.0,2.298508,0.52235,0.581626,297.646942,305.030304,0.027604,-0.033638,-12.405643,4.5E-5,0.052527,0.008597,0.0,1.0,2194.391113,
12.985855,-88.032448,-86.839005,2.63996,-0.007189,2.63996,-0.007189,-89.999855,-90.0,2.300629,0.625375,0.637564,297.612122,305.375946,0.026996,-0.035709,-5.397514,8.7E-5,0.052696,0.011086,0.0,1.0,2207.617676,
13.920412,-88.030708,-86.837265,2.646381,-0.007697,2.646381,-0.007697,-89.999855,-90.0,2.304033,0.791419,0.7205,297.565247,305.603302,0.026182,-0.03776,14.308754,1.03E-4,0.052799,0.012827,0.0,1.0,2220.780273,
14.548134,-88.029289,-86.835846,2.65034,-0.007373,2.65034,-0.007373,-89.999855,-90.0,2.306536,0.913573,0.777377,297.536499,305.58374,0.025798,-0.038553,7.276392,1.1E-4,0.052928,0.01517,0.0,1.0,2227.642822,
15.494596,-88.026787,-86.833344,2.655835,-0.006165,2.655835,-0.006165,-89.999855,-90.0,2.310644,1.113687,0.862591,297.500244,305.310791,0.025393,-0.038487,6.933813,1.05E-4,0.053007,0.016608,0.0,1.0,2236.269775,
16.128099,-88.024872,-86.831429,2.659539,-0.005078,2.659539,-0.005078,-89.999855,-90.0,2.313623,1.258156,0.920941,297.480011,304.975677,0.025347,-0.037837,17.464413,8.8E-5,0.053117,0.01842,0.0,1.0,2241.112061,
17.080898,-88.021637,-86.828194,2.664971,-0.003239,2.664971,-0.003239,-89.999855,-90.0,2.318451,1.491097,1.00716,297.456573,304.261261,0.025478,-0.035873,7.515199,7.3E-5,0.053191,0.019432,0.0,1.0,2247.303711,
17.690887,-88.019341,-86.825897,2.668545,-0.001906,2.668545,-0.001906,-89.999855,-90.0,2.321764,1.64992,1.062462,297.445099,303.682709,0.02572,-0.034223,19.090364,4.6E-5,0.053299,0.020604,0.0,1.0,2250.717529,
18.673433,-88.015282,-86.821831,2.674232,4.36E-4,2.674232,4.36E-4,-89.999855,-90.0,2.327467,1.921387,1.152399,297.431702,302.57431,0.026203,-0.031094,14.873078,2.7E-5,0.053371,0.021178,0.0,1.0,2255.523926,
19.311071,-88.012398,-86.818954,2.678052,0.002149,2.678052,0.002149,-89.999855,-90.0,2.331414,2.107777,1.21095,297.424896,301.75174,0.02654,-0.029026,16.273479,-6.0E-6,0.053485,0.021847,0.0,1.0,2258.282471,
20.267963,-88.007721,-86.814278,2.683701,0.004987,2.683701,0.004987,-89.999855,-90.0,2.337697,2.402172,1.29814,297.415863,300.388977,0.026903,-0.026108,14.257398,-3.1E-5,0.053561,0.022188,0.0,1.0,2262.016357,
20.90645,-88.004372,-86.810928,2.687567,0.007103,2.687567,0.007103,-89.999855,-90.0,2.342129,2.608082,1.358936,297.409393,299.408661,0.026981,-0.024473,17.531336,-7.1E-5,0.053674,0.022639,0.0,1.0,2264.293945,
21.863028,-87.998985,-86.805534,2.693337,0.010595,2.693337,0.010595,-89.999855,-90.0,2.349141,2.93103,1.446628,297.397705,297.854889,0.026739,-0.022627,18.597807,-1.01E-4,0.053751,0.022963,0.0,1.0,2267.468262,
22.473312,-87.995316,-86.801872,2.697173,0.013034,2.697173,0.013034,-89.999855,-90.0,2.353851,3.145997,1.500088,297.388031,296.82309,0.026304,-0.02193,12.278391,-1.51E-4,0.053867,0.023547,0.0,1.0,2269.377197,
23.455151,-87.989044,-86.795601,2.70331,0.017207,2.70331,0.017207,-89.999855,-90.0,2.361802,3.505554,1.591834,297.368744,295.123779,0.025201,-0.021523,17.348734,-1.86E-4,0.053943,0.024031,0.0,1.0,2272.300537,
24.065189,-87.984924,-86.791481,2.707281,0.019955,2.707281,0.019955,-89.999855,-90.0,2.366979,3.737396,1.646365,297.354065,294.055725,0.024207,-0.021722,12.863604,-2.46E-4,0.054066,0.024995,0.0,1.0,2274.046143,
25.045321,-87.977928,-86.784485,2.713646,0.024463,2.713646,0.024463,-89.999855,-90.0,2.375682,4.123383,1.736034,297.327515,292.341675,0.02241,-0.022445,8.464861,-2.85E-4,0.054146,0.025729,0.0,1.0,2276.768311,
25.680294,-87.973152,-86.779709,2.717973,0.02746,2.717973,0.02746,-89.999855,-90.0,2.381575,4.382123,1.794585,297.30838,291.245056,0.021113,-0.023155,19.250284,-3.49E-4,0.054273,0.027057,0.0,1.0,2278.489746,
26.631275,-87.965614,-86.772171,2.726804,0.033473,2.726804,0.033473,-89.999855,-90.0,2.391015,4.78222,2.009027,297.279175,289.642426,0.019491,-0.024106,18.407116,-3.92E-4,0.054359,0.028014,0.0,1.0,2281.023193,
27.263952,-87.960281,-86.766838,2.734727,0.040725,2.734727,0.040725,-89.999855,-90.0,2.397933,5.056731,2.158922,297.25946,288.612762,0.018115,-0.024642,18.975105,-4.78E-4,0.054536,0.029474,0.0,1.0,2282.686768,
28.185598,-87.951981,-86.758537,2.741539,0.045362,2.741539,0.045362,-89.999855,-90.0,2.408653,5.467884,2.250869,297.23233,287.18219,0.016014,-0.025184,9.735933,-5.82E-4,0.054695,0.03046,0.0,1.0,2285.085938,
28.815605,-87.945946,-86.752502,2.745829,0.048126,2.745829,0.048126,-89.999855,-90.0,2.416258,5.757045,2.310257,297.215057,286.258331,0.015054,-0.025312,14.391252,-6.48E-4,0.054831,0.031816,0.0,1.0,2286.716309,
29.759769,-87.936394,-86.74295,2.75249,0.052017,2.75249,0.052017,-89.999855,-90.0,2.428064,6.201484,2.406994,297.192139,284.972412,0.01416,-0.025009,9.575037,-6.88E-4,0.054917,0.03268,0.0,1.0,2289.145508,
30.388039,-87.929718,-86.736275,2.757234,0.054668,2.757234,0.054668,-89.999855,-90.0,2.436205,6.504717,2.471441,297.178131,284.188232,0.013811,-0.024644,16.987617,-7.43E-4,0.05505,0.033826,0.0,1.0,2290.756348,
31.354952,-87.918945,-86.725502,2.764512,0.05876,2.764512,0.05876,-89.999855,-90.0,2.449175,6.982738,2.572364,297.158264,283.103394,0.013494,-0.023881,18.636868,-7.81E-4,0.055145,0.034526,0.0,1.0,2293.230225,
31.980444,-87.911659,-86.718216,2.769397,0.0616,2.769397,0.0616,-89.999855,-90.0,2.457862,7.299451,2.635136,297.145355,282.484497,0.013284,-0.02346,16.400116,-8.39E-4,0.05529,0.035519,0.0,1.0,2294.829834,
32.917152,-87.900299,-86.706856,2.776544,0.066005,2.776544,0.066005,-89.999855,-90.0,2.471294,7.784015,2.731605,297.125275,281.686493,0.0128,-0.023014,7.962333,-8.8E-4,0.055388,0.036165,0.0,1.0,2297.223633,
33.540909,-87.892456,-86.699013,2.781429,0.069171,2.781429,0.069171,-89.999855,-90.0,2.480517,8.113209,2.80074,297.110413,281.243164,0.012263,-0.022988,8.560663,-9.43E-4,0.055531,0.037169,0.0,1.0,2298.817139,
34.447083,-87.8806,-86.687157,2.792121,0.073911,2.792121,0.073911,-89.999855,-90.0,2.494538,8.601824,3.375064,297.086487,280.725037,0.011055,-0.023306,15.849422,-9.88E-4,0.055629,0.037912,0.0,1.0,2301.137451,
35.092663,-87.871719,-86.678276,2.800547,0.077542,2.800547,0.077542,-89.999855,-90.0,2.505851,8.956853,3.296114,297.066986,280.447784,0.009896,-0.023889,19.534624,-0.001056,0.055842,0.039108,0.0,1.0,2302.792969,
36.020897,-87.858208,-86.664764,2.807363,0.082796,2.807363,0.082796,-89.999855,-90.0,2.522586,9.47661,3.397439,297.036224,280.181976,0.007821,-0.025032,9.345131,-0.001108,0.056011,0.040083,0.0,1.0,2305.174805,
36.611786,-87.849159,-86.655716,2.811719,0.086274,2.811719,0.086274,-89.999855,-90.0,2.533541,9.813786,3.459608,297.014832,280.092468,0.006224,-0.025949,15.329681,-0.001183,0.056147,0.041621,0.0,1.0,2306.695313,
37.535156,-87.834396,-86.640953,2.818719,0.091481,2.818719,0.091481,-89.999855,-90.0,2.551117,10.349265,3.564786,296.980621,280.072723,0.00376,-0.027314,10.102461,-0.001232,0.056234,0.042691,0.0,1.0,2309.073486,
38.149296,-87.824173,-86.63073,2.823673,0.094973,2.823673,0.094973,-89.999855,-90.0,2.56313,10.711336,3.635998,296.957367,280.137268,0.002173,-0.028189,9.035615,-0.001307,0.056374,0.044402,0.0,1.0,2310.657959,
39.094162,-87.807869,-86.614426,2.831215,0.09998,2.831215,0.09998,-89.999855,-90.0,2.582112,11.277217,3.750119,296.922852,280.350159,1.35E-4,-0.029155,12.526995,-0.001357,0.056473,0.045564,0.0,1.0,2313.099609,
39.704403,-87.796936,-86.603493,2.836113,0.103201,2.836113,0.103201,-89.999855,-90.0,2.594713,11.649108,3.797851,296.901184,280.556396,-9.83E-4,-0.029603,13.121793,-0.001428,0.056624,0.04729,0.0,1.0,2314.682373,
40.592102,-87.780502,-86.587059,2.855067,0.110536,2.855067,0.110536,-89.999855,-90.0,2.61411,12.198017,4.271787,296.871613,280.943848,-0.002021,-0.029774,16.581203,-0.001474,0.056722,0.048373,0.0,1.0,2316.98877,
41.198772,-87.768723,-86.575279,2.85961,0.115063,2.85961,0.115063,-89.999855,-90.0,2.628665,12.578769,4.408216,296.852295,281.262878,-0.002774,-0.029762,9.352012,-0.001579,0.057101,0.049852,0.0,1.0,2318.568848,
42.131435,-87.749695,-86.556252,2.86354,0.119629,2.86354,0.119629,-89.999855,-90.0,2.651625,13.172445,4.522237,296.824677,281.828217,-0.003318,-0.029443,13.047112,-0.001644,0.057192,0.050818,0.0,1.0,2321.00293,
42.709499,-87.737373,-86.54393,2.867296,0.122503,2.867296,0.122503,-89.999855,-90.0,2.666203,13.545442,4.596933,296.807953,282.218262,-0.003496,-0.029213,20.051144,-0.001709,0.057271,0.052199,0.0,1.0,2322.514893,
43.611492,-87.717415,-86.523972,2.874172,0.127022,2.874172,0.127022,-89.999855,-90.0,2.689504,14.135116,4.714203,296.782043,282.876831,-0.003655,-0.028851,13.044461,-0.00175,0.057346,0.053035,0.0,1.0,2325.523682,
44.211361,-87.703674,-86.510231,2.879116,0.130358,2.879116,0.130358,-89.999855,-90.0,2.705364,14.532066,4.795532,296.763672,283.341736,-0.003883,-0.028824,14.544649,-0.001815,0.057483,0.05433,0.0,1.0,2328.347412,
45.108074,-87.682327,-86.488884,2.892833,0.13591,2.892833,0.13591,-89.999855,-90.0,2.731053,15.133029,5.395279,296.734192,284.066254,-0.004584,-0.029067,14.884683,-0.001862,0.057582,0.055249,0.0,1.0,2333.3396,
45.680149,-87.668083,-86.47464,2.898655,0.140365,2.898655,0.140365,-89.999855,-90.0,2.74845,15.520348,5.491848,296.713226,284.539948,-0.005236,-0.029535,19.019428,-0.001942,0.057857,0.056723,0.0,1.0,2336.834961,
46.599369,-87.644119,-86.450676,2.905367,0.145821,2.905367,0.145821,-89.999855,-90.0,2.776998,16.148758,5.61307,296.676819,285.308136,-0.007119,-0.030635,10.971623,-0.002005,0.057973,0.057771,0.0,1.0,2342.755615,
47.220009,-87.627304,-86.433861,2.910166,0.149607,2.910166,0.149607,-89.999855,-90.0,2.796654,16.576979,5.70016,296.650177,285.824677,-0.008574,-0.031615,15.054802,-0.002083,0.058107,0.059592,0.0,1.0,2346.888916,
48.088062,-87.602966,-86.409523,2.916991,0.15461,2.916991,0.15461,-89.999855,-90.0,2.824682,17.181236,5.824263,296.61203,286.534576,-0.010895,-0.032934,12.513735,-0.002137,0.058203,0.060924,0.0,1.0,2352.783203,
48.707348,-87.585083,-86.39164,2.922088,0.158164,2.922088,0.158164,-89.999855,-90.0,2.845074,17.616146,5.91822,296.584351,287.026337,-0.012426,-0.033835,18.270262,-0.002209,0.05834,0.062831,0.0,1.0,2357.043213,
49.598354,-87.558571,-86.365128,2.937093,0.171538,2.937093,0.171538,-89.999855,-90.0,2.876273,18.247089,6.814641,296.546265,287.703186,-0.013869,-0.034462,15.980368,-0.002259,0.058442,0.064215,0.0,1.0,2363.2229,
50.190613,-87.54007,-86.346626,2.945134,0.176231,2.945134,0.176231,-89.999855,-90.0,2.899316,18.670687,6.948157,296.521393,288.12912,-0.01526,-0.034888,13.122101,-0.002451,0.058742,0.066119,0.0,1.0,2367.360596,
51.078461,-87.510963,-86.31752,2.951217,0.180449,2.951217,0.180449,-89.999855,-90.0,2.934389,19.310387,7.075241,296.486633,288.723053,-0.01647,-0.035079,11.337896,-0.002518,0.058903,0.067363,0.0,1.0,2373.584961,
51.669792,-87.490776,-86.297333,2.955517,0.183185,2.955517,0.183185,-89.999855,-90.0,2.958142,19.739643,7.167891,296.4646,289.08551,-0.016861,-0.035024,19.012396,-0.002578,0.059024,0.069101,0.0,1.0,2377.743408,
52.555805,-87.45948,-86.266029,2.962271,0.186889,2.962271,0.186889,-89.999855,-90.0,2.994362,20.387577,7.310685,296.433594,289.573944,-0.016794,-0.034639,19.715475,-0.002617,0.05911,0.070203,0.0,1.0,2383.990967,
53.145847,-87.437981,-86.244537,2.96703,0.189402,2.96703,0.189402,-89.999855,-90.0,3.018908,20.822153,7.406952,296.413116,289.860413,-0.016483,-0.034397,20.160538,-0.00267,0.059245,0.071753,0.0,1.0,2388.161377,
54.029926,-87.404884,-86.211441,2.973868,0.192951,2.973868,0.192951,-89.999855,-90.0,3.056326,21.477819,7.550785,296.382324,290.228271,-0.015755,-0.034096,20.778648,-0.002706,0.059341,0.072777,0.0,1.0,2394.424072,
54.618694,-87.382286,-86.188843,2.978542,0.195433,2.978542,0.195433,-89.999855,-90.0,3.08167,21.917389,7.645813,296.360565,290.431061,-0.015294,-0.034126,21.163246,-0.002756,0.059477,0.074316,0.0,1.0,2398.60376,
55.500851,-87.347649,-86.154205,2.985318,0.198996,2.985318,0.198996,-89.999855,-90.0,3.12028,22.580305,7.788372,296.32608,290.670349,-0.014758,-0.034447,21.707767,-0.002792,0.059571,0.075404,0.0,1.0,2404.879883,
56.088291,-87.324081,-86.130638,2.989967,0.201471,2.989967,0.201471,-89.999855,-90.0,3.14642,23.024551,7.885343,296.301147,290.786438,-0.014615,-0.034953,22.05419,-0.002843,0.059706,0.077129,0.0,1.0,2409.068359,
56.968441,-87.288055,-86.094612,2.99625,0.205206,2.99625,0.205206,-89.999855,-90.0,3.186175,23.694252,7.967844,296.261993,290.895874,-0.014568,-0.035872,18.903763,-0.002878,0.059799,0.078375,0.0,1.0,2415.35791,
57.823063,-87.252388,-86.058945,3.001858,0.209347,3.001858,0.209347,-89.999855,-90.0,3.225081,24.349051,8.062705,296.221771,290.929443,-0.01484,-0.036973,17.139929,-0.002932,0.059925,0.080333,0.0,1.0,2421.481201,
58.432812,-87.226486,-86.033043,3.006365,0.211358,3.006365,0.211358,-89.999855,-90.0,3.253267,24.818918,8.162457,296.193298,290.910919,-0.014935,-0.037621,20.972395,-0.002977,0.059999,0.081709,0.0,1.0,2425.858398,
59.017464,-87.201324,-86.007881,3.010888,0.213243,3.010888,0.213243,-89.999855,-90.0,3.280668,25.271626,8.362428,296.165924,290.861145,-0.014904,-0.038202,21.208549,-0.003019,0.060127,0.083768,0.0,1.0,2430.064209,
59.89238,-87.162834,-85.969391,3.02197,0.213628,3.02197,0.213628,-89.999855,-90.0,3.324198,25.953585,8.850432,296.127014,290.730743,-0.014411,-0.038665,19.091438,-0.003046,0.060218,0.085136,0.0,1.0,2436.37793,
60.474609,-87.136505,-85.943054,3.030846,0.214797,3.030846,0.214797,-89.999855,-90.0,3.354383,26.410089,9.897654,296.102142,290.608917,-0.013575,-0.038751,15.159266,-0.003052,0.060439,0.087082,0.0,1.0,2440.610596,
61.345257,-87.095436,-85.901993,3.040863,0.216136,3.040863,0.216136,-89.999855,-90.0,3.403872,27.097517,9.963573,296.067657,290.378204,-0.01149,-0.038434,22.100479,-0.003069,0.060617,0.088326,0.0,1.0,2447.045654,
61.925163,-87.066971,-85.873528,3.044339,0.216789,3.044339,0.216789,-89.999855,-90.0,3.437262,27.557526,10.060913,296.045502,290.195282,-0.009521,-0.038133,14.622672,-0.003088,0.060817,0.09005,0.0,1.0,2451.373779,
62.794025,-87.022873,-85.82943,3.049381,0.217293,3.049381,0.217293,-89.999855,-90.0,3.487972,28.250023,10.214057,296.013733,289.882477,-0.005849,-0.037507,13.847534,-0.003097,0.060887,0.091158,0.0,1.0,2457.902832,
63.372604,-86.992653,-85.79921,3.053253,0.2175,3.053253,0.2175,-89.999855,-90.0,3.522215,28.713291,10.32024,295.992493,289.651611,-0.003026,-0.03717,14.248857,-0.003104,0.060988,0.092746,0.0,1.0,2462.272461,
Command: fly_strait
64.238754,-86.946068,-85.752625,3.064425,0.222635,3.064425,0.222635,-89.999855,-90.0,3.576091,29.4105,11.050119,295.960754,289.277496,0.001644,-0.036589,14.408082,-0.003107,0.061065,0.093808,0.0,1.0,2468.843506,
64.816383,-86.913994,-85.720551,3.068677,0.229251,3.068677,0.229251,-89.999855,-90.0,3.613111,29.876791,11.152081,295.920288,289.012848,0.002529,-0.040435,14.926016,-0.00318,0.061288,0.0,0.0,1.0,2473.232422,
65.697197,-86.864517,-85.671074,3.069461,0.240617,3.069461,0.240617,-89.999855,-90.0,3.669258,30.578449,11.294439,295.532562,288.597748,-0.0138,-0.098506,15.599411,-0.003275,0.061374,0.002023,0.0,1.0,2479.855225,
66.293274,-86.830727,-85.637283,3.06741,0.231549,3.06741,0.231549,-89.999855,-90.0,3.707096,31.047712,11.398713,295.069916,288.30957,-0.041336,-0.164326,15.992401,-0.003437,0.061389,0.02141,0.0,1.0,2484.317627,
67.1931,-86.778931,-85.585487,3.071656,0.201988,3.071656,0.201988,-89.999855,-90.0,3.765878,31.753922,12.78679,294.243042,287.858154,-0.105272,-0.270639,16.607719,-0.003308,0.061348,0.044542,0.0,1.0,2491.087402,
67.793495,-86.743195,-85.549751,3.075037,0.176056,3.075037,0.176056,-89.999855,-90.0,3.808804,32.226322,12.939063,293.703735,287.54248,-0.153318,-0.330207,17.372654,-0.002886,0.061433,0.085886,0.0,1.0,2495.641602,
68.694588,-86.6875,-85.494049,3.078594,0.132059,3.078594,0.132059,-89.999855,-90.0,3.874088,32.937389,13.16898,293.122864,287.044678,-0.214953,-0.371546,18.385105,-0.002515,0.061501,0.112851,0.0,1.0,2502.520996,
69.292412,-86.649109,-85.455666,3.082577,0.102247,3.082577,0.102247,-89.999855,-90.0,3.919038,33.41301,13.962368,292.956116,286.697113,-0.24176,-0.360661,21.294333,-0.001887,0.061572,0.141895,0.0,1.0,2509.43042,
70.193352,-86.589081,-85.395638,3.042417,-0.019351,3.042417,-0.019351,-89.999855,-90.0,3.99243,34.128723,15.121667,293.109589,286.15799,-0.250717,-0.284644,23.403612,-0.001461,0.061652,0.150232,0.0,1.0,2514.054688,
71.080307,-86.525711,-85.332268,2.98375,-0.152053,2.98375,-0.152053,-89.999855,-90.0,4.067431,34.847149,14.679251,293.685242,285.612,-0.215038,-0.155307,19.788801,2.76E-4,0.060848,0.142558,0.0,1.0,2521.000244,
71.650864,-86.482239,-85.288788,2.977138,-0.178746,2.977138,-0.178746,-89.999855,-90.0,4.115273,35.327415,14.10955,294.194366,285.254913,-0.168954,-0.05947,18.581865,0.001672,0.059971,0.125134,0.0,1.0,2525.587646,
72.478035,-86.416061,-85.22261,2.985201,-0.102461,2.985201,-0.102461,-89.999855,-90.0,4.188925,36.049358,16.240805,294.940582,284.745819,-0.081624,0.065327,16.343918,0.002554,0.059543,0.088319,0.0,1.0,2532.335693,
73.023918,-86.370308,-85.176865,2.929893,0.077447,2.929893,0.077447,-89.999855,-90.0,4.246854,36.531429,18.162775,295.285858,284.432312,-0.022071,0.116273,17.215477,0.002172,0.059763,0.06245,0.0,1.0,2536.749512,
73.859169,-86.297508,-85.104065,2.768545,0.458195,2.768545,0.458195,-89.999855,-90.0,4.337244,37.25547,17.413635,295.441925,284.011536,0.051723,0.128787,18.670263,-0.001106,0.058598,0.033745,0.0,1.0,2543.324219,
74.431969,-86.247108,-85.053665,2.701949,0.675484,2.701949,0.675484,-89.999855,-90.0,4.393109,37.738811,16.338747,295.272858,283.767303,0.084116,0.092092,25.010305,-0.004682,0.056409,0.02579,0.0,1.0,2547.730713,
75.015961,-86.196167,-85.002716,2.666665,0.774782,2.666665,0.774782,-89.999855,-90.0,4.447694,38.223907,16.500734,294.922363,283.552032,0.099299,0.027971,25.174589,-0.00965,0.054039,0.034395,0.0,1.0,2552.184814,
75.902359,-86.118507,-84.925064,2.635256,0.570678,2.635256,0.570678,-79.999855,-80.0,4.536627,38.954342,19.905643,294.239319,283.279175,0.093582,-0.087518,17.804207,-0.011068,0.053333,0.05192,0.0,1.0,2558.970947,
Command_Fault: set /instrumentation/airspeed-indicator/serviceable false
76.784966,-86.03511,-84.84166,2.66692,-0.029578,2.66692,-0.029578,-79.999855,-80.0,4.658483,39.686634,29.875546,293.642029,283.059601,0.065176,-0.179741,18.820414,-0.008153,0.052705,0.086072,0.0,1.0,2565.855469,
76.784966,-85.970963,-84.777519,2.734766,-0.550514,2.734766,-0.550514,-79.999855,-80.0,4.777149,40.175842,41.555157,293.43869,282.939697,0.042813,-0.204692,21.290438,-0.002935,0.052934,0.107501,0.0,1.0,2570.472412,
76.784966,-85.848167,-84.654724,2.899032,-1.282521,2.899032,-1.282521,-79.999855,-80.0,5.046832,40.910786,67.086563,293.499084,282.797455,0.021557,-0.179166,29.272877,0.007864,0.054695,0.126103,0.0,1.0,2577.387939,
76.784966,-85.737923,-84.544479,3.036163,-1.583733,3.036163,-1.583733,-79.999855,-80.0,5.306622,41.40107,88.299789,293.758545,282.727905,0.020438,-0.125724,37.374943,0.015218,0.056765,0.126543,0.0,1.0,2581.945801,
76.784966,-85.509827,-84.316383,3.278958,-1.635854,3.278958,-1.635854,-79.999855,-80.0,5.839806,42.136013,124.797104,294.311035,282.662994,0.040741,-0.022177,53.740997,0.022625,0.060723,0.11011,0.0,1.0,2588.600342,
76.784966,-85.304146,-84.110703,3.425867,-1.388088,3.425867,-1.388088,-79.999855,-80.0,6.300765,42.625004,150.620865,294.647491,282.646179,0.065575,0.038629,67.311035,0.023985,0.063982,0.091972,0.0,1.0,2592.685791,
76.784966,-84.897697,-83.704254,3.616753,-0.753647,3.616753,-0.753647,-79.999855,-80.0,7.151796,43.355934,188.380615,294.918549,282.657837,0.105386,0.087025,90.828148,0.01983,0.068517,0.065663,0.0,1.0,2597.595459,
76.784966,-84.553696,-83.360252,3.697264,-0.299171,3.697264,-0.299171,-79.999855,-80.0,7.819457,43.841007,210.711578,294.873718,282.686493,0.126543,0.080051,107.988663,0.014068,0.071256,0.054512,0.0,1.0,2600.283936,
76.784966,-83.922066,-82.728622,3.793671,0.202956,3.793671,0.202956,-79.999855,-80.0,8.950258,44.564762,240.083939,294.50592,282.751373,0.137537,0.020527,134.599411,0.004274,0.073945,0.054352,0.0,1.0,2603.746582,
76.784966,-83.423439,-82.229996,3.850839,0.306596,3.850839,0.306596,-79.999855,-80.0,9.780521,45.044556,256.99884,294.15332,282.802734,0.129631,-0.035573,152.384048,-0.0011,0.075292,0.065042,0.0,1.0,2605.794189,
76.784966,-82.562164,-81.368721,3.952851,0.124444,3.952851,0.124444,-79.999855,-80.0,11.125931,45.760044,280.293976,293.666382,282.881165,0.101666,-0.108975,178.452454,-0.00438,0.077017,0.090372,0.0,1.0,2608.594482,
76.784966,-81.915031,-80.721588,4.022569,-0.161594,4.022569,-0.161594,-79.999855,-80.0,12.085907,46.234135,294.933624,293.496033,282.929321,0.078553,-0.130292,195.285355,-0.003248,0.078367,0.107698,0.0,1.0,2610.292969,
76.784966,-80.839676,-79.646233,4.141897,-0.617063,4.141897,-0.617063,-79.999855,-80.0,13.615605,46.940567,316.448212,293.560242,282.990692,0.054482,-0.108696,219.647995,0.002308,0.080451,0.123236,0.0,1.0,2612.640869,
76.784966,-80.05529,-78.861847,4.226265,-0.79871,4.226265,-0.79871,-79.999855,-80.0,14.698182,47.408031,332.776672,293.801453,283.024048,0.050911,-0.062272,235.390854,0.006847,0.082038,0.123299,0.0,1.0,2614.095459,
76.784966,-78.77787,-77.584427,4.388438,-0.763717,4.388438,-0.763717,-79.999855,-80.0,16.434717,48.103233,362.062714,294.311584,283.06488,0.067357,0.027631,258.879028,0.01141,0.084525,0.107965,0.0,1.0,2616.126221,
76.784966,-77.856552,-76.663109,4.511714,-0.52552,4.511714,-0.52552,-79.999855,-80.0,17.680225,48.562195,384.498871,294.628967,283.08725,0.088923,0.080502,274.938416,0.01091,0.087769,0.082459,0.0,1.0,2617.382324,
76.784966,-76.36367,-75.170219,4.65146,0.025387,4.65146,0.025387,-79.999855,-80.0,19.681519,49.243156,413.871796,294.868591,283.113556,0.125148,0.116231,300.073639,0.007507,0.090234,0.066589,0.0,1.0,2619.137207,
76.784966,-75.293442,-74.099998,4.707239,0.397585,4.707239,0.397585,-69.999855,-70.0,21.087511,49.691933,428.51413,294.827911,283.124847,0.142006,0.105536,317.163849,-3.63E-4,0.093029,0.054608,0.0,1.0,2620.242188,
76.784966,-73.580879,-72.387436,4.728725,0.727252,4.728725,0.727252,-69.999855,-70.0,23.275822,50.357311,445.400116,294.512299,283.12796,0.147832,0.047065,342.20459,-0.00568,0.094145,0.056642,0.0,1.0,2621.84082,
76.784966,-72.373108,-71.179665,4.741574,0.741634,4.741574,0.741634,-69.999855,-70.0,24.77553,50.795879,453.85376,294.220886,283.11795,0.137044,-0.003665,358.01004,-0.010389,0.094575,0.072423,0.0,1.0,2622.884277,
76.784966,-70.473236,-69.279793,4.785568,0.452986,4.785568,0.452986,-69.999855,-70.0,27.07501,51.446522,465.701202,293.874573,283.080231,0.1067,-0.061743,379.902802,-0.010595,0.094831,0.086993,0.0,1.0,2624.42749,
76.784966,-69.153389,-67.959946,4.830169,0.145514,4.830169,0.145514,-69.999855,-70.0,28.642269,51.875557,474.488831,293.790283,283.038483,0.086008,-0.074636,393.28891,-0.006471,0.095711,0.104309,0.0,1.0,2625.441895,
76.784966,-67.099869,-65.906425,4.908089,-0.26813,4.908089,-0.26813,-69.999855,-70.0,31.05335,52.511902,489.950562,293.947357,282.951569,0.066244,-0.045976,411.94162,-0.002079,0.096603,0.108524,0.0,1.0,2626.934326,
76.784966,-65.683266,-64.489822,4.976198,-0.413401,4.976198,-0.413401,-69.999855,-70.0,32.706764,52.931133,501.880585,294.201569,282.879639,0.066529,-0.00324,423.750061,0.00383,0.098162,0.10067,0.0,1.0,2627.900879,
76.784966,-63.486755,-62.293312,5.081793,-0.323742,5.081793,-0.323742,-59.999859,-60.0,35.266907,53.552025,521.927734,294.635315,282.756104,0.085453,0.066814,441.088898,0.005906,0.099524,0.087959,0.0,1.0,2629.289063,
76.784966,-61.973396,-60.779953,5.150993,-0.098119,5.150993,-0.098119,-59.999859,-60.0,37.031223,53.960396,536.259583,294.858551,282.666199,0.104744,0.100338,452.673157,0.004625,0.101636,0.066272,0.0,1.0,2630.168945,
76.784966,-59.627319,-58.433876,5.222764,0.332759,5.222764,0.332759,-59.999859,-60.0,39.768341,54.564339,557.683472,294.950378,282.522858,0.13168,0.1077,470.352203,0.001402,0.10302,0.05511,0.0,1.0,2631.431152,
76.784966,-58.010506,-56.817059,5.262276,0.570278,5.262276,0.570278,-59.999859,-60.0,41.649967,54.961235,570.612427,294.840118,282.421753,0.139907,0.083993,482.447388,-0.004754,0.104455,0.050519,0.0,1.0,2632.248779,
76.784966,-55.506874,-54.313431,5.310812,0.676457,5.310812,0.676457,-59.999859,-60.0,44.548023,55.548225,587.664673,294.511444,282.259796,0.133533,0.022474,500.740112,-0.008147,0.105246,0.056032,0.0,1.0,2633.461182,
76.784966,-53.786819,-52.593376,5.346368,0.566815,5.346368,0.566815,-49.999859,-50.0,46.524906,55.934196,598.011902,294.275238,282.143372,0.118125,-0.019435,512.850708,-0.009664,0.106216,0.072466,0.0,1.0,2634.266846,
76.784966,-51.133423,-49.93998,5.403056,0.200089,5.403056,0.200089,-49.999859,-50.0,49.554146,56.505409,613.254211,294.073883,281.954224,0.088146,-0.054045,530.646118,-0.008097,0.106927,0.084276,0.0,1.0,2635.473877,
76.784966,-49.317234,-48.123787,5.452359,-0.080596,5.452359,-0.080596,-49.999859,-50.0,51.61647,56.881115,623.856079,294.092957,281.818787,0.072336,-0.050695,542.211853,-0.002858,0.108061,0.094344,0.0,1.0,2636.273926,
76.784966,-46.523552,-45.330109,5.539085,-0.356664,5.539085,-0.356664,-49.999859,-50.0,54.779736,57.436871,641.257813,294.341217,281.604889,0.063347,-0.00897,559.190247,0.001151,0.109047,0.09339,0.0,1.0,2637.453857,
76.784966,-44.614712,-43.421268,5.610018,-0.387565,5.610018,-0.387565,-39.999859,-40.0,56.939163,57.801991,654.108887,294.589264,281.458069,0.069695,0.031224,570.38031,0.005095,0.110782,0.080977,0.0,1.0,2638.215332,
76.784966,-41.679996,-40.486549,5.705415,-0.180129,5.705415,-0.180129,-39.999859,-40.0,60.262508,58.341202,674.734985,294.910675,281.236877,0.09211,0.080645,587.236572,0.005537,0.1122,0.068575,0.0,1.0,2639.305176,
76.784966,-39.674286,-38.480843,5.762654,0.056939,5.762654,0.056939,-39.999859,-40.0,62.535496,58.694874,688.524597,295.015747,281.091034,0.108403,0.094042,598.648743,0.002573,0.114108,0.052504,0.0,1.0,2639.99707,
76.784966,-36.58979,-35.396343,5.820768,0.383491,5.820768,0.383491,-39.999859,-40.0,66.02874,59.216625,707.730042,294.944061,280.876312,0.124525,0.074899,616.095459,-8.13E-4,0.115253,0.04725,0.0,1.0,2640.998047,
76.784966,-34.482662,-33.289219,5.854536,0.498448,5.854536,0.498448,-29.999857,-30.0,68.407425,59.558746,718.875427,294.772614,280.735443,0.124127,0.042327,627.872437,-0.005478,0.116415,0.050835,0.0,1.0,2641.652588,
76.784966,-31.24782,-30.054377,5.898924,0.422351,5.898924,0.422351,-29.999857,-30.0,72.040596,60.063702,733.597595,294.46701,280.525604,0.107744,-0.012631,645.48877,-0.007121,0.117091,0.059407,0.0,1.0,2642.62915,
76.784966,-29.043873,-27.85043,5.932795,0.237025,5.932795,0.237025,-29.999857,-30.0,74.501556,60.395061,742.60376,294.315033,280.38562,0.090846,-0.038977,657.036926,-0.006034,0.117978,0.074687,0.0,1.0,2643.279785,
76.784966,-25.6707,-24.477257,5.987866,-0.11364,5.987866,-0.11364,-29.999857,-30.0,78.2491,60.884369,756.061646,294.282227,280.175262,0.067053,-0.044079,673.875366,-0.003386,0.118656,0.082286,0.0,1.0,2644.253174,
76.784966,-23.378889,-22.185446,6.035951,-0.305063,6.035951,-0.305063,-19.999857,-20.0,80.785454,61.205418,765.508179,294.397491,280.035919,0.059447,-0.024622,684.74707,0.001623,0.119757,0.083926,0.0,1.0,2644.894287,
76.784966,-19.878357,-18.684912,6.114714,-0.38548,6.114714,-0.38548,-19.999857,-20.0,84.652016,61.679047,780.880432,294.692627,279.832031,0.063756,0.023983,700.59967,0.004358,0.120719,0.078163,0.0,1.0,2645.828857,
76.784966,-17.502934,-16.30949,6.172214,-0.295253,6.172214,-0.295253,-19.999857,-20.0,87.273796,61.989342,791.884033,294.894379,279.701996,0.075571,0.055746,710.959595,0.005507,0.122294,0.063406,0.0,1.0,2646.424561,
76.784966,-13.876409,-12.682964,6.237796,-0.009722,6.237796,-0.009722,-9.999858,-10.0,91.276436,62.446365,808.52417,295.059692,279.519135,0.098093,0.078501,726.367432,0.004218,0.123444,0.053319,0.0,1.0,2647.273926,
76.784966,-11.416026,-10.222582,6.272843,0.196117,6.272843,0.196117,-9.999858,-10.0,93.989456,62.745415,818.784241,295.04248,279.406158,0.10882,0.071929,736.613708,1.39E-4,0.124756,0.045053,0.0,1.0,2647.816162,
76.784966,-7.662006,-6.468562,6.30733,0.368576,6.30733,0.368576,-9.999858,-10.0,98.119011,63.185741,832.166443,294.847839,279.249329,0.111949,0.034169,751.911194,-0.002802,0.125457,0.045914,0.0,1.0,2648.591309,
76.784966,-5.118393,-3.924948,6.328792,0.354348,6.328792,0.354348,-9.999858,-10.0,100.906097,63.473999,839.666992,294.664642,279.151917,0.103845,0.001349,761.972595,-0.005265,0.126147,0.055646,0.0,1.0,2649.093018,
76.784966,-1.245318,-0.051874,6.36026,0.141268,6.36026,0.141268,1.42E-4,0.0,105.130829,63.898808,849.767151,294.454681,279.014008,0.082173,-0.03498,776.659973,-0.005062,0.126576,0.064806,0.0,1.0,2649.835938,
76.784966,1.498978,2.692423,6.387276,-0.063987,6.387276,-0.063987,1.42E-4,0.0,107.974655,64.177109,856.305054,294.414734,278.926788,0.067976,-0.04152,786.092651,-0.002018,0.127205,0.075304,0.0,1.0,2650.326904,
76.784966,5.672426,6.86587,6.43618,-0.314334,6.43618,-0.314334,10.000142,10.0,112.282593,64.587273,866.733948,294.537476,278.803467,0.055578,-0.020221,799.650024,9.14E-4,0.127746,0.077301,0.0,1.0,2651.051758,
76.784966,8.488881,9.682325,6.478472,-0.382757,6.478472,-0.382757,10.000142,10.0,115.184822,64.855774,874.435303,294.706573,278.727509,0.05712,0.007769,808.32666,0.00449,0.128724,0.071164,0.0,1.0,2651.520508,
76.784966,12.76415,13.957595,6.539171,-0.28228,6.539171,-0.28228,10.000142,10.0,119.589012,65.250916,886.987122,294.964966,278.625671,0.071774,0.048942,820.94043,0.005468,0.129569,0.062709,0.0,1.0,2652.189209,
76.784966,15.648325,16.841768,6.576909,-0.119933,6.576909,-0.119933,20.000143,20.0,122.560432,65.509163,895.559326,295.07428,278.567139,0.084886,0.06475,829.179565,0.004033,0.130783,0.049789,0.0,1.0,2652.609375,
76.784966,20.026161,21.219604,6.612723,0.14265,6.612723,0.14265,20.000143,20.0,127.069901,65.888748,907.550232,295.066833,278.493774,0.100695,0.058765,841.403687,0.001713,0.131538,0.044324,0.0,1.0,2653.209229,
76.784966,22.978889,24.172333,6.630337,0.258702,6.630337,0.258702,20.000143,20.0,130.107056,66.136726,914.337402,294.956787,278.453674,0.103158,0.037615,849.47406,-0.002038,0.132254,0.044696,0.0,1.0,2653.597412,
76.784966,27.457218,28.650663,6.649362,0.248743,6.649362,0.248743,30.000143,30.0,134.701416,66.501411,922.838257,294.725555,278.403992,0.093749,-0.00394,861.368896,-0.003696,0.132607,0.050198,0.0,1.0,2654.175781,
76.784966,30.4737,31.667145,6.66362,0.131344,6.66362,0.131344,30.000143,30.0,137.786072,66.739899,927.712219,294.593475,278.376038,0.081374,-0.026693,869.0755,-0.003553,0.132987,0.06176,0.0,1.0,2654.562744,
76.784966,35.041168,36.234612,6.689644,-0.127137,6.689644,-0.127137,30.000143,30.0,142.442886,67.090919,934.827942,294.533539,278.339661,0.061903,-0.036239,880.178467,-0.001876,0.133272,0.068364,0.0,1.0,2655.146973,
76.784966,38.112839,39.306282,6.715118,-0.282763,6.715118,-0.282763,40.000141,40.0,145.567642,67.320518,939.915039,294.600494,278.318787,0.054507,-0.024615,887.24646,0.001816,0.133793,0.071361,0.0,1.0,2655.534912,
76.784966,42.758495,43.951939,6.760684,-0.370315,6.760684,-0.370315,40.000141,40.0,150.288925,67.658211,948.539673,294.810852,278.293457,0.055609,0.010636,897.386169,0.004039,0.134302,0.068013,0.0,1.0,2656.102783,
76.784966,45.88073,47.074173,6.795467,-0.31817,6.795467,-0.31817,50.000141,50.0,153.461685,67.878777,954.97406,294.966949,278.281555,0.064057,0.035696,903.902527,0.00529,0.135214,0.057495,0.0,1.0,2656.465088,
76.784966,50.602318,51.795761,6.835262,-0.111531,6.835262,-0.111531,50.000141,50.0,158.262314,68.202644,964.908813,295.107513,278.2724,0.081825,0.056136,913.454102,0.004545,0.135909,0.04969,0.0,1.0,2656.978271,
76.784966,53.775948,54.969391,6.855361,0.047852,6.855361,0.047852,50.000141,50.0,161.489426,68.413895,971.049561,295.105469,278.272034,0.091043,0.053322,919.737244,0.001593,0.136705,0.042662,0.0,1.0,2657.303467,
76.784966,58.575073,59.768517,6.871451,0.192843,6.871451,0.192843,60.000141,60.0,166.365631,68.723969,978.852966,294.966217,278.278442,0.095101,0.026419,929.06012,-6.84E-4,0.137107,0.042764,0.0,1.0,2657.778564,
76.784966,61.799397,62.992844,6.87968,0.192407,6.87968,0.192407,60.000141,60.0,169.635803,68.926338,982.983948,294.825928,278.285706,0.089565,0.001483,935.171387,-0.002755,0.137429,0.049727,0.0,1.0,2658.093506,
76.784966,66.670563,67.864006,6.892174,0.039434,6.892174,0.039434,70.000145,70.0,174.564636,69.223709,988.270203,294.657776,278.298065,0.07311,-0.027331,944.068726,-0.002749,0.137594,0.056741,0.0,1.0,2658.570557,
76.784966,69.939354,71.132797,6.904956,-0.115601,6.904956,-0.115601,70.000145,70.0,177.864685,69.417984,991.6521,294.6203,278.305969,0.061878,-0.0333,949.761108,-5.63E-4,0.137843,0.065149,0.0,1.0,2658.89209,
76.784966,74.872009,76.065453,6.932388,-0.309652,6.932388,-0.309652,70.000145,70.0,182.83699,69.703522,997.249817,294.706604,278.31662,0.051674,-0.017944,957.895996,0.001651,0.138099,0.067023,0.0,1.0,2659.374268,
76.784966,78.179222,79.372665,6.958078,-0.364794,6.958078,-0.364794,80.000145,80.0,186.168549,69.889938,1001.627625,294.833649,278.323334,0.052631,0.003332,963.066589,0.004424,0.138648,0.062707,0.0,1.0,2659.689209,
76.784966,83.167953,84.361397,6.995813,-0.289981,6.995813,-0.289981,80.000145,80.0,191.195541,70.163506,1009.055908,295.030609,278.33429,0.064013,0.035107,970.536316,0.005211,0.139162,0.056355,0.0,1.0,2660.140869,
76.784966,86.512772,87.706215,7.018855,-0.165617,7.018855,-0.165617,90.000145,90.0,194.567963,70.341782,1014.221863,295.113922,278.342804,0.074394,0.047402,975.39447,0.004143,0.139916,0.046507,0.0,1.0,2660.425781,
76.784966,91.55925,92.752693,7.03849,0.035994,7.03849,0.035994,90.000145,90.0,199.658051,70.60305,1021.366211,295.105713,278.357391,0.08698,0.042775,982.591919,0.002366,0.140377,0.042342,0.0,1.0,2660.83252,
76.784966,94.943077,96.136528,7.046293,0.124197,7.046293,0.124197,90.000145,90.0,203.069504,70.773247,1025.248169,295.018799,278.367615,0.088935,0.026378,987.345154,-5.14E-4,0.14077,0.042752,0.0,1.0,2661.09668,
76.784966,100.046875,101.240318,7.052744,0.112835,7.052744,0.112835,100.000145,100.0,208.208176,71.022842,1029.867676,294.838867,278.381409,0.081458,-0.005562,994.355103,-0.001774,0.140926,0.047098,0.0,1.0,2661.492432,
76.784966,103.466827,104.660271,7.05792,0.019902,7.05792,0.019902,100.000145,100.0,211.645523,71.185623,1032.393555,294.738007,278.388214,0.07171,-0.02271,998.89563,-0.001612,0.141055,0.056094,0.0,1.0,2661.759033,
76.784966,108.620453,109.813896,7.070993,-0.179646,7.070993,-0.179646,110.000145,110.0,216.81691,71.424583,1036.096436,294.696594,278.393219,0.056614,-0.028947,1005.423889,-2.84E-4,0.141158,0.061137,0.0,1.0,2662.164551,
76.784966,112.070808,113.264252,7.086164,-0.296403,7.086164,-0.296403,110.000145,110.0,220.27533,71.58046,1038.910278,294.752228,278.392975,0.051169,-0.019146,1009.565674,0.002566,0.14142,0.063208,0.0,1.0,2662.435303,
76.784966,117.267166,118.460609,7.115061,-0.354194,7.115061,-0.354194,120.000145,120.0,225.482513,71.809097,1043.986206,294.917206,278.388397,0.052778,0.008711,1015.487915,0.004234,0.141723,0.060426,0.0,1.0,2662.833008,
76.784966,120.745285,121.938728,7.137107,-0.306656,7.137107,-0.306656,120.000145,120.0,228.969162,71.958,1047.92334,295.035431,278.383484,0.05983,0.027802,1019.287537,0.00506,0.142301,0.052177,0.0,1.0,2663.08667,
76.784966,125.984032,127.177475,7.161024,-0.140933,7.161024,-0.140933,130.000137,130.0,234.224625,72.175964,1054.016724,295.134033,278.374786,0.07398,0.042131,1024.863525,0.004381,0.142742,0.046266,0.0,1.0,2663.446533,
76.784966,129.491364,130.684799,7.171883,-0.018935,7.171883,-0.018935,130.000137,130.0,237.744476,72.317711,1057.692383,295.123474,278.368317,0.080936,0.038641,1028.54248,0.002013,0.14322,0.041336,0.0,1.0,2663.675293,
76.784966,134.774643,135.968079,7.178234,0.082735,7.178234,0.082735,130.000137,130.0,243.045029,72.525139,1062.1427,295.005341,278.356934,0.083253,0.01644,1034.019043,2.7E-4,0.143438,0.041864,0.0,1.0,2664.010254,
76.784966,138.311096,139.504532,7.180417,0.07261,7.180417,0.07261,140.000137,140.0,246.589417,72.660118,1064.328369,294.894867,278.347321,0.078327,-0.002921,1037.615723,-0.001182,0.143565,0.047771,0.0,1.0,2664.233643,
76.784966,143.635284,144.828735,7.184947,-0.057001,7.184947,-0.057001,140.000137,140.0,251.918091,72.85791,1066.990845,294.771484,278.328247,0.065,-0.023702,1042.848022,-0.001037,0.143608,0.053294,0.0,1.0,2664.574219,
76.784966,147.196533,148.389984,7.191719,-0.178678,7.191719,-0.178678,150.000137,150.0,255.477707,72.986763,1068.731445,294.751678,278.312012,0.056461,-0.026596,1046.185425,8.14E-4,0.143699,0.059464,0.0,1.0,2664.804932,
76.784966,152.554413,153.747864,7.209158,-0.319463,7.209158,-0.319463,150.000137,150.0,260.829071,73.175598,1071.854126,294.831757,278.282654,0.049571,-0.012295,1050.933838,0.002553,0.143834,0.060454,0.0,1.0,2665.151611,
76.784966,156.13652,157.329971,7.226027,-0.350407,7.226027,-0.350407,160.000137,160.0,264.406342,73.2985,1074.487061,294.934509,278.260651,0.051241,0.00497,1053.940552,0.004564,0.144183,0.05645,0.0,1.0,2665.378174,
76.784966,161.525116,162.718567,7.25002,-0.27502,7.25002,-0.27502,160.000137,160.0,269.790405,73.478256,1079.080078,295.082031,278.225891,0.061217,0.028775,1058.280396,0.005006,0.144521,0.051312,0.0,1.0,2665.703125,
76.784966,165.128235,166.321671,7.263717,-0.172026,7.263717,-0.172026,160.000137,160.0,273.392822,73.594994,1082.251831,295.136322,278.202484,0.069468,0.036647,1061.108643,0.003929,0.145,0.043936,0.0,1.0,2665.907959,
76.784966,170.548676,171.742111,7.273145,-0.020173,7.273145,-0.020173,170.000137,170.0,278.815399,73.765495,1086.462646,295.111053,278.167694,0.078564,0.030072,1065.268311,0.002458,0.145274,0.041222,0.0,1.0,2666.202148,
76.784966,174.174362,175.367798,7.275464,0.037513,7.275464,0.037513,170.000137,170.0,282.440735,73.876183,1088.578979,295.033905,278.14447,0.079165,0.015934,1068.071655,2.88E-4,0.145463,0.042485,0.0,1.0,2666.394287,
76.784966,179.628662,180.822098,7.276,0.008462,7.276,0.008462,180.000137,180.0,287.889954,74.037994,1090.874878,294.891968,278.10849,0.071961,-0.008845,1072.19519,-5.36E-4,0.145509,0.046342,0.0,1.0,2666.684326,
76.784966,183.274445,184.467896,7.277368,-0.074089,7.277368,-0.074089,180.000137,180.0,291.528259,74.143196,1092.042358,294.820831,278.083099,0.063969,-0.020715,1074.85144,-1.21E-4,0.14552,0.053439,0.0,1.0,2666.881348,
76.784966,188.755753,189.949188,7.284797,-0.23074,7.284797,-0.23074,190.000137,190.0,296.992981,74.29715,1093.854004,294.806946,278.04248,0.052683,-0.022226,1078.639404,0.001058,0.145547,0.056996,0.0,1.0,2667.182617,
76.784966,192.417587,193.611038,7.294827,-0.312992,7.294827,-0.312992,190.000137,190.0,300.641754,74.397255,1095.415527,294.861969,278.014069,0.049395,-0.012557,1081.020996,0.003296,0.145696,0.05769,0.0,1.0,2667.384033,
76.784966,197.92128,199.114716,7.314151,-0.336134,7.314151,-0.336134,200.000137,200.0,306.126373,74.543556,1098.475098,294.997253,277.971008,0.052389,0.010264,1084.404053,0.004471,0.145897,0.054939,0.0,1.0,2667.679688,
76.784966,201.597855,202.791306,7.328248,-0.284862,7.328248,-0.284862,200.000137,200.0,309.792114,74.638466,1100.923584,295.084473,277.943054,0.058683,0.024302,1086.569214,0.004802,0.146283,0.048175,0.0,1.0,2667.868164,
76.784966,207.12468,208.31813,7.341772,-0.146459,7.341772,-0.146459,210.000137,210.0,315.306488,74.776848,1104.641113,295.142914,277.903564,0.069864,0.032396,1089.755005,0.004069,0.146565,0.043814,0.0,1.0,2668.136475,
76.784966,210.817596,212.011047,7.346539,-0.055338,7.346539,-0.055338,210.000137,210.0,318.992371,74.866478,1106.753174,295.119995,277.879211,0.074603,0.027322,1091.866455,0.002092,0.146835,0.040892,0.0,1.0,2668.308105,
Command_Fault: set /instrumentation/airspeed-indicator/serviceable true
76.784966,216.369507,217.562943,7.346982,0.004805,7.346982,0.004805,220.000137,220.0,324.532593,74.997139,1109.081665,295.013672,277.845093,0.074726,0.00792,1095.017822,7.91E-4,0.146931,0.042038,0.0,1.0,2668.562256,
93.398743,220.078644,221.272079,7.345936,-0.018748,7.345936,-0.018748,220.000137,220.0,328.231354,75.081856,1110.074951,294.927032,277.823364,0.069897,-0.007025,1097.084839,-6.9E-5,0.14694,0.047354,0.0,1.0,2668.733398,
93.430023,225.65271,226.846161,7.34674,-0.135121,7.34674,-0.135121,230.000137,230.0,333.784729,75.205559,1111.209106,294.844086,277.791229,0.058911,-0.020671,1100.072998,2.68E-4,0.146919,0.051686,0.0,1.0,2668.99585,
Command: turn_+45
93.450562,229.374817,230.568253,7.350698,-0.230733,7.350698,-0.230733,230.000137,230.0,337.490143,75.285851,1112.041992,294.842804,277.769897,0.05271,-0.020419,1101.96106,0.00193,0.146935,0.055833,0.0,1.0,2669.174561,
93.475525,234.966003,236.159439,7.363939,-0.34732,7.363939,-0.34732,230.000137,230.0,343.054596,75.403053,1113.812988,294.973175,277.738617,0.039233,0.002592,1104.621582,0.001099,0.147014,0.1,0.0,1.0,2669.442627,
93.480385,238.698654,239.89209,7.382806,-0.367737,7.382806,-0.367737,240.000137,240.0,346.770233,75.47892,1115.628296,295.211761,277.71936,0.040254,0.041339,1106.296509,0.001654,0.147279,0.1,0.0,1.0,2669.612793,
93.461136,244.306168,245.499619,7.420877,-0.18067,7.420877,-0.18067,240.000137,240.0,352.358704,75.588997,1119.944336,295.675415,277.696869,0.061651,0.112791,1108.73584,0.001751,0.147656,0.1,0.0,1.0,2669.83374,
93.43261,248.051453,249.244888,7.445521,0.094259,7.445521,0.094259,250.000137,250.0,356.098297,75.659653,1123.769897,295.969055,277.68866,0.084316,0.154963,1110.387939,8.6E-4,0.148418,0.1,0.0,1.0,2669.948242,
93.379433,253.682663,254.876099,7.460968,0.651441,7.460968,0.651441,250.000137,250.0,361.7323,75.761253,1129.490601,296.282562,277.689789,0.120458,0.193504,1113.043579,-4.49E-4,0.14891,0.1,0.0,1.0,2670.070313,
93.345345,257.446991,258.640442,7.46147,1.056566,7.46147,1.056566,260.000153,260.0,365.502563,75.826012,1132.418335,296.383881,277.70047,0.140217,0.199817,1114.976563,-0.003102,0.149219,0.1,0.0,1.0,2670.127197,
93.304642,263.108276,264.301727,7.453677,1.590963,7.453677,1.590963,260.000153,260.0,371.172363,75.918869,1135.042358,296.397095,277.730927,0.157478,0.185165,1118.039551,-0.005031,0.149229,0.1,0.0,1.0,2670.196289,
93.285805,266.893158,268.086578,7.447135,1.862563,7.447135,1.862563,270.000153,270.0,374.957031,75.978111,1135.588379,296.352203,277.759888,0.159884,0.166574,1120.203125,-0.007576,0.149074,0.1,0.0,1.0,2670.242432,
93.267891,272.582275,273.775696,7.439311,2.108701,7.439311,2.108701,270.000153,270.0,380.634338,76.063377,1135.147339,296.284729,277.813812,0.152829,0.138953,1123.380615,-0.008869,0.148943,0.1,0.0,1.0,2670.32251,
93.260742,276.38089,277.574341,7.433903,2.185556,7.433903,2.185556,280.000153,280.0,384.41684,76.11805,1134.338013,296.279846,277.855591,0.144255,0.127404,1125.360718,-0.010041,0.148786,0.1,0.0,1.0,2670.385742,
93.252884,282.083191,283.276642,7.426964,2.221771,7.426964,2.221771,280.000153,280.0,390.084778,76.197075,1132.877563,296.37149,277.925751,0.131575,0.126016,1127.952881,-0.010407,0.148678,0.1,0.0,1.0,2670.493408,
93.247139,285.887543,287.080963,7.423125,2.233318,7.423125,2.233318,290.000153,290.0,393.859528,76.247871,1132.035156,296.500641,277.977539,0.125994,0.135598,1129.469482,-0.01058,0.148539,0.1,0.0,1.0,2670.571045,
93.233948,291.594788,292.788208,7.420794,2.285077,7.420794,2.285077,290.000153,290.0,399.517548,76.321289,1131.322266,296.770569,278.063721,0.124139,0.160684,1131.3302,-0.010635,0.148463,0.1,0.0,1.0,2670.688477,
93.221146,295.399475,296.592926,7.420506,2.359812,7.420506,2.359812,290.000153,290.0,403.288483,76.368362,1131.294922,296.976624,278.127808,0.127048,0.180199,1132.319092,-0.010881,0.148416,0.1,0.0,1.0,2670.763184,
93.196899,301.10611,302.299561,7.420498,2.532222,7.420498,2.532222,300.000153,300.0,408.945923,76.436119,1131.726563,297.282043,278.235382,0.135415,0.206479,1133.501587,-0.011237,0.14841,0.1,0.0,1.0,2670.865234,
93.179008,304.910461,306.103912,7.419793,2.676219,7.419793,2.676219,300.000153,300.0,412.719055,76.479378,1132.135376,297.464996,278.31546,0.141799,0.219175,1134.139404,-0.012058,0.14841,0.1,0.0,1.0,2670.926025,
93.152832,310.617279,311.81073,7.417011,2.899259,7.417011,2.899259,310.000153,310.0,418.380981,76.54142,1132.55957,297.695648,278.448639,0.149771,0.229238,1134.941406,-0.012744,0.148396,0.1,0.0,1.0,2671.009521,
93.137222,314.422119,315.61557,7.414051,3.036608,7.414051,3.036608,310.000153,310.0,422.156281,76.580956,1132.561523,297.823395,278.546051,0.15289,0.230849,1135.397949,-0.013806,0.14834,0.1,0.0,1.0,2671.062988,
93.11763,320.129486,321.322937,7.408875,3.1989,7.408875,3.1989,320.000153,320.0,427.818054,76.63765,1132.074707,297.994202,278.704407,0.153831,0.228903,1135.976807,-0.01446,0.148281,0.1,0.0,1.0,2671.144531,
93.107025,323.934113,325.127563,7.404618,3.276365,7.404618,3.276365,320.000153,320.0,431.590637,76.673813,1131.454346,298.107574,278.817627,0.152388,0.227115,1136.285034,-0.015233,0.148178,0.1,0.0,1.0,2671.20166,
93.093803,329.639557,330.833008,7.398244,3.349813,7.398244,3.349813,330.000153,330.0,437.244904,76.725792,1130.248047,298.296906,278.998016,0.148653,0.226934,1136.608032,-0.015602,0.148092,0.1,0.0,1.0,2671.293701,
93.085945,333.44162,334.635071,7.393562,3.381265,7.393562,3.381265,330.000153,330.0,441.010895,76.759003,1129.375854,298.442749,279.124939,0.146113,0.229571,1136.718384,-0.015951,0.147965,0.1,0.0,1.0,2671.358643,
93.074196,339.141449,340.334869,7.387529,3.419769,7.387529,3.419769,340.000153,340.0,446.654541,76.806786,1128.152832,298.692535,279.32489,0.14357,0.237695,1136.716675,-0.016101,0.147871,0.1,0.0,1.0,2671.459961,
93.065758,342.938782,344.132233,7.383625,3.449665,7.383625,3.449665,340.000153,340.0,450.413849,76.837311,1127.471802,298.875549,279.464508,0.143115,0.24511,1136.607788,-0.016285,0.147751,0.1,0.0,1.0,2671.528809,
93.05172,348.630707,349.824127,7.379066,3.509156,7.379066,3.509156,350.000153,350.0,456.049072,76.881157,1126.682251,299.162842,279.683319,0.144242,0.257144,1136.304443,-0.016427,0.147673,0.1,0.0,1.0,2671.631592,
93.041595,352.422577,353.616028,7.376139,3.55973,7.376139,3.55973,350.000153,350.0,459.803986,76.909111,1126.292603,299.35553,279.835388,0.145825,0.264577,1136.027588,-0.01671,0.147581,0.1,0.0,1.0,2671.699219,
93.025917,358.106476,359.299927,7.372364,3.645115,7.372364,3.645115,360.000153,360.0,465.434174,76.949173,1125.803467,299.636993,280.072571,0.148581,0.273384,1135.534668,-0.016951,0.147523,0.1,0.0,1.0,2671.798828,
93.016479,361.577789,362.77124,7.369851,3.699198,7.369851,3.699198,360.000153,360.0,468.873688,76.97258,1125.509521,299.802368,280.222595,0.149932,0.277127,1135.203003,-0.017358,0.147447,0.1,0.0,1.0,2671.858887,
93.001617,367.251831,368.445282,7.365846,3.780297,7.365846,3.780297,370.000153,370.0,474.499817,77.009178,1124.943237,300.063049,280.475861,0.151519,0.28085,1134.512451,-0.017615,0.147397,0.1,0.0,1.0,2671.957031,
92.991051,371.345551,372.538971,7.362564,3.83,7.362564,3.83,370.000153,370.0,478.561218,77.034355,1124.443237,300.246796,280.664124,0.151875,0.282332,1133.93335,-0.018001,0.147317,0.1,0.0,1.0,2672.028809,
92.979576,377.014008,378.207458,7.358131,3.882331,7.358131,3.882331,380.000153,380.0,484.181396,77.067566,1123.639038,300.50177,280.931305,0.151364,0.283908,1133.334717,-0.018238,0.147251,0.1,0.0,1.0,2672.130615,
92.973351,380.633667,381.827087,7.354933,3.907538,7.354933,3.907538,380.000153,380.0,487.769897,77.087837,1123.079468,300.668243,281.105408,0.150679,0.285201,1132.942139,-0.018487,0.147163,0.1,0.0,1.0,2672.197266,
92.962479,386.456146,387.649597,7.35017,3.938256,7.35017,3.938256,390.000153,390.0,493.538849,77.11898,1122.161987,300.945526,281.390198,0.14963,0.288318,1132.450195,-0.018607,0.147099,0.1,0.0,1.0,2672.307373,
92.955818,390.228394,391.421844,7.34691,3.955543,7.34691,3.955543,390.000153,390.0,497.278381,77.138252,1121.589233,301.131989,281.577637,0.149144,0.291072,1131.997925,-0.018754,0.147003,0.1,0.0,1.0,2672.379883,
92.945961,395.884277,397.077728,7.342794,3.98177,7.342794,3.98177,400.000153,400.0,502.884277,77.16584,1120.810303,301.419525,281.862061,0.148947,0.295928,1131.359619,-0.018836,0.146938,0.1,0.0,1.0,2672.490479,
92.939247,399.651947,400.845398,7.340024,4.001475,7.340024,4.001475,400.000153,400.0,506.619537,77.183388,1120.357544,301.61438,282.053528,0.149166,0.29931,1130.896484,-0.018961,0.146856,0.1,0.0,1.0,2672.564453,
92.928932,405.299255,406.492706,7.336486,4.034391,7.336486,4.034391,400.000153,400.0,512.219727,77.208488,1119.754395,301.907837,282.342987,0.149859,0.304014,1130.167114,-0.019055,0.1468,0.1,0.0,1.0,2672.676025,
92.916855,409.060181,410.253632,7.334087,4.057843,7.334087,4.057843,410.000153,410.0,515.951599,77.224426,1119.340942,302.102661,282.537109,0.150219,0.306675,1129.59729,-0.019211,0.14673,0.1,0.0,1.0,2672.748535,
92.888657,414.69989,415.893341,7.330911,4.084427,7.330911,4.084427,410.000153,410.0,521.546021,77.247215,1118.409302,302.397156,282.829437,0.149351,0.310413,1128.874146,-0.019323,0.146682,0.1,0.0,1.0,2672.841309,
92.871674,418.45697,419.650391,7.327916,4.094047,7.327916,4.094047,420.000153,420.0,525.272766,77.261719,1117.659546,302.599121,283.024811,0.14831,0.313351,1128.374512,-0.01945,0.146618,0.1,0.0,1.0,2672.895996,
92.847168,424.088104,425.281555,7.322369,4.100497,7.322369,4.100497,420.000153,420.0,530.857849,77.282494,1116.37854,302.91449,283.318298,0.146846,0.319015,1127.588501,-0.019495,0.146558,0.1,0.0,1.0,2672.971436,
92.831192,427.838989,429.03244,7.318005,4.10388,7.318005,4.10388,430.000153,430.0,534.577515,77.295738,1115.460083,303.132843,283.51413,0.14625,0.323595,1127.033081,-0.019526,0.146447,0.1,0.0,1.0,2673.019043,
92.807411,433.460144,434.653595,7.31215,4.113406,7.31215,4.113406,430.000153,430.0,540.151245,77.314728,1114.094238,303.469116,283.808167,0.146141,0.33109,1126.143311,-0.019542,0.14636,0.1,0.0,1.0,2673.087891,
92.791626,437.203949,438.3974,7.308053,4.124512,7.308053,4.124512,440.000153,440.0,543.863403,77.32682,1113.22583,303.696045,284.004486,0.146546,0.336002,1125.510864,-0.019588,0.146243,0.1,0.0,1.0,2673.132324,
92.768196,442.814026,444.007477,7.302514,4.147815,7.302514,4.147815,440.000153,440.0,549.42627,77.344154,1111.971069,304.035553,284.299408,0.147581,0.34248,1124.507324,-0.019641,0.146161,0.1,0.0,1.0,2673.19751,
92.752914,446.550262,447.743713,7.298513,4.16632,7.298513,4.16632,450.000153,450.0,553.13147,77.355186,1111.149536,304.259216,284.496338,0.148333,0.345918,1123.806274,-0.019752,0.14605,0.1,0.0,1.0,2673.240723,
92.730865,452.148834,453.342285,7.292943,4.194072,7.292943,4.194072,450.000153,450.0,558.68396,77.370979,1109.895508,304.589569,284.792267,0.149228,0.349656,1122.714478,-0.01984,0.14597,0.1,0.0,1.0,2673.305664,
92.716896,455.87735,457.070801,7.28885,4.210719,7.28885,4.210719,460.000153,460.0,562.382141,77.381042,1109.034668,304.806824,284.989777,0.149547,0.35135,1121.963501,-0.019972,0.145859,0.1,0.0,1.0,2673.349609,
92.697113,461.464233,462.657684,7.283078,4.229928,7.283078,4.229928,460.000153,460.0,567.923889,77.395477,1107.694946,305.130615,285.286346,0.149578,0.353156,1120.805786,-0.020051,0.145777,0.1,0.0,1.0,2673.41748,
92.684685,465.184814,466.378265,7.278833,4.238843,7.278833,4.238843,460.000153,460.0,571.614624,77.404694,1106.779663,305.346649,285.484161,0.149363,0.354171,1120.013916,-0.020143,0.145662,0.1,0.0,1.0,2673.4646,
92.667007,470.759613,471.953064,7.272947,4.247021,7.272947,4.247021,470.000153,470.0,577.144958,77.417953,1105.395142,305.673279,285.780945,0.148876,0.35582,1118.796753,-0.020185,0.145577,0.1,0.0,1.0,2673.537598,
92.655762,474.471985,475.665436,7.268724,4.250376,7.268724,4.250376,470.000153,470.0,580.828064,77.426437,1104.485962,305.893463,285.978851,0.148561,0.357126,1117.966553,-0.020224,0.145459,0.1,0.0,1.0,2673.588135,
92.639511,480.034332,481.227783,7.263064,4.254423,7.263064,4.254423,480.000153,480.0,586.347046,77.438683,1103.165649,306.227417,286.275726,0.14825,0.359411,1116.696655,-0.02024,0.145374,0.1,0.0,1.0,2673.66626,
92.629028,483.738373,484.931824,7.259106,4.257603,7.259106,4.257603,480.000153,480.0,590.022827,77.446533,1102.32959,306.451935,286.473755,0.148192,0.361051,1115.83667,-0.020259,0.145261,0.1,0.0,1.0,2673.719971,
92.613693,489.288269,490.48172,7.253902,4.264021,7.253902,4.264021,490.000153,490.0,595.531372,77.457878,1101.140015,306.790131,286.770935,0.148312,0.363467,1114.534424,-0.020274,0.145182,0.1,0.0,1.0,2673.80249,
92.603745,492.984161,494.177582,7.250287,4.269474,7.250287,4.269474,490.000153,490.0,599.2005,77.465164,1100.39209,307.015594,286.969269,0.148484,0.36491,1113.663086,-0.020305,0.145078,0.1,0.0,1.0,2673.858887,
92.589279,498.522003,499.715454,7.245508,4.278588,7.245508,4.278588,500.000153,500.0,604.699707,77.475716,1099.317505,307.352844,287.267059,0.148777,0.366682,1112.360107,-0.020331,0.145006,0.1,0.0,1.0,2673.945068,
92.579994,502.210083,503.403503,7.242154,4.284742,7.242154,4.284742,500.000153,500.0,608.362915,77.482506,1098.62915,307.576752,287.465851,0.148937,0.367574,1111.498657,-0.020374,0.14491,0.1,0.0,1.0,2674.003906,
92.566643,507.736542,508.929993,7.237653,4.292856,7.237653,4.292856,510.000153,510.0,613.853455,77.492355,1097.62085,307.911407,287.764343,0.149064,0.368548,1110.223511,-0.020404,0.144843,0.1,0.0,1.0,2674.09375,
92.558182,511.417206,512.610657,7.23446,4.297203,7.23446,4.297203,510.000153,510.0,617.511047,77.498718,1096.965454,308.134033,287.963593,0.149062,0.369024,1109.387329,-0.020442,0.144753,0.1,0.0,1.0,2674.155273,
92.546066,516.932861,518.126282,7.230156,4.301739,7.230156,4.301739,520.000122,520.0,622.993347,77.507973,1096.002441,308.468079,288.262817,0.148956,0.369635,1108.156616,-0.020463,0.144689,0.1,0.0,1.0,2674.249268,
92.538361,520.606506,521.799927,7.227113,4.303667,7.227113,4.303667,520.000122,520.0,626.64563,77.513977,1095.380005,308.691223,288.462524,0.148847,0.370043,1107.352905,-0.020484,0.144603,0.1,0.0,1.0,2674.313477,
92.52726,526.111877,527.305298,7.22305,4.305424,7.22305,4.305424,530.000122,530.0,632.120178,77.522743,1094.478027,309.027039,288.762421,0.148686,0.370731,1106.173706,-0.020494,0.144542,0.1,0.0,1.0,2674.411865,
92.520134,529.778809,530.97229,7.220204,4.306268,7.220204,4.306268,530.000122,530.0,635.767456,77.528442,1093.905029,309.251648,288.962585,0.148606,0.371242,1105.405762,-0.020502,0.144461,0.1,0.0,1.0,2674.478516,
92.509804,535.274475,536.467896,7.216449,4.3076,7.216449,4.3076,530.000122,530.0,641.234863,77.536797,1093.086914,309.589447,289.263275,0.148552,0.372055,1104.282471,-0.020506,0.144404,0.1,0.0,1.0,2674.580566,
92.503166,538.935059,540.12854,7.213839,4.308733,7.213839,4.308733,540.000122,540.0,644.877563,77.542244,1092.572876,309.814941,289.463989,0.148558,0.372584,1103.553711,-0.020512,0.144329,0.1,0.0,1.0,2674.649658,
92.493523,544.42157,545.61499,7.210404,4.310831,7.210404,4.310831,540.000122,540.0,650.338562,77.550262,1091.841431,310.15329,289.765503,0.148607,0.373302,1102.492432,-0.020518,0.144277,0.1,0.0,1.0,2674.754883,
92.48732,548.076294,549.269775,7.208014,4.312407,7.208014,4.312407,550.000122,550.0,653.977234,77.555504,1091.380859,310.378662,289.966827,0.14865,0.373699,1101.807007,-0.020528,0.144208,0.1,0.0,1.0,2674.825928,
92.478355,553.55426,554.747681,7.20485,4.314711,7.20485,4.314711,550.000122,550.0,659.432434,77.56324,1090.720093,310.71637,290.269287,0.148701,0.374165,1100.813477,-0.020535,0.14416,0.1,0.0,1.0,2674.934326,
92.47261,557.203552,558.396973,7.202635,4.316053,7.202635,4.316053,560.000122,560.0,663.067444,77.566994,1090.300171,310.941254,290.471222,0.148715,0.374394,1100.174561,-0.020546,0.144097,0.1,0.0,1.0,2675.007324,
92.46434,562.673584,563.867004,7.199687,4.317529,7.199687,4.317529,560.000122,560.0,668.517334,77.572075,1089.694214,311.278412,290.774536,0.148701,0.374658,1099.251221,-0.020553,0.144053,0.1,0.0,1.0,2675.118408,
92.459053,566.31781,567.51123,7.197618,4.318132,7.197618,4.318132,570.000122,570.0,672.148987,77.57547,1089.307983,311.503113,290.977051,0.148672,0.374801,1098.658936,-0.02056,0.143994,0.1,0.0,1.0,2675.193359,
92.451477,571.780518,572.973938,7.194864,4.318503,7.194864,4.318503,570.000122,570.0,677.594055,77.580559,1088.751953,311.840424,291.281189,0.14861,0.37501,1097.804688,-0.020563,0.143952,0.1,0.0,1.0,2675.307373,
92.446632,575.419983,576.613403,7.192938,4.318489,7.192938,4.318489,570.000122,570.0,681.222656,77.583969,1088.400024,312.06546,291.484192,0.148566,0.375155,1097.257446,-0.020564,0.143897,0.1,0.0,1.0,2675.384277,
