airspeed_indicator_indicated_speed_kt,altimeter_indicated_altitude_ft,altimeter_pressure_alt_ft,attitude_indicator_indicated_pitch_deg,attitude_indicator_indicated_roll_deg,attitude_indicator_internal_pitch_deg,attitude_indicator_internal_roll_deg,encoder_indicated_altitude_ft,encoder_pressure_alt_ft,gps_indicated_altitude_ft,gps_indicated_ground_speed_kt,gps_indicated_vertical_speed,indicated_heading_deg,magnetic_compass_indicated_heading_deg,slip_skid_ball_indicated_slip_skid,turn_indicator_indicated_turn_rate,vertical_speed_indicator_indicated_speed_fpm,flight_aileron,flight_elevator,flight_rudder,flight_flaps,engine_throttle,engine_rpm,
Command: takeoff
6.513371,-87.980194,-86.786751,2.975025,1.373309,2.590907,0.092915,-89.999855,-90.0,2.28651,0.0,0.007771,297.868011,277.573883,0.012362,-0.051963,-14.981882,-0.0,0.0,0.0,0.0,0.0,600.205444,
6.606084,-87.995155,-86.801712,2.925411,1.208021,2.590788,0.092611,-89.999855,-90.0,2.286551,0.0,0.003417,297.86673,280.99707,0.012373,-0.044724,-8.978481,-0.019619,0.051818,0.0,0.0,1.0,610.098022,
6.673851,-88.00296,-86.809509,2.769286,0.713945,2.5827,0.091992,-89.999855,-90.0,2.286538,4.0E-5,-0.011288,297.865845,283.240967,0.012307,-0.040491,-8.866986,-0.017257,0.051816,6.4E-5,0.0,1.0,676.611694,
6.784831,-88.012177,-86.818733,2.57372,0.191727,2.542828,0.088755,-89.999855,-90.0,2.286405,2.44E-4,-0.041937,297.864288,286.509094,0.012278,-0.034976,-16.301485,-0.010199,0.051654,1.08E-4,0.0,1.0,858.935425,
6.889448,-88.017029,-86.823586,2.508365,0.084236,2.508365,0.084236,-89.999855,-90.0,2.286302,7.89E-4,-0.016681,297.863098,288.601624,0.012399,-0.031809,-14.938325,-0.002739,0.050857,1.86E-4,0.0,1.0,1011.358093,
7.130544,-88.022804,-86.829353,2.489443,0.073426,2.489443,0.073426,-89.999855,-90.0,2.286379,0.003994,0.045253,297.861084,291.579193,0.012201,-0.027744,-17.405321,-0.001203,0.050167,2.46E-4,0.0,1.0,1252.298828,
7.357279,-88.025818,-86.832375,2.493387,0.064107,2.493387,0.064107,-89.999855,-90.0,2.286598,0.009094,0.084812,297.859314,293.440186,0.011643,-0.02548,-19.162315,-0.001049,0.049789,3.46E-4,0.0,1.0,1407.33606,
7.804245,-88.029327,-86.835884,2.510805,0.048308,2.510805,0.048308,-89.999855,-90.0,2.287166,0.023775,0.141085,297.855042,296.020996,0.010458,-0.022781,-12.250607,-9.16E-4,0.049868,4.35E-4,0.0,1.0,1615.940308,
8.172311,-88.031105,-86.837662,2.525463,0.037324,2.525463,0.037324,-89.999855,-90.0,2.287701,0.039762,0.177898,297.850525,297.588776,0.010595,-0.021475,-6.81864,-6.9E-4,0.050216,6.48E-4,0.0,1.0,1734.551025,
8.592191,-88.032501,-86.839058,2.540329,0.026532,2.540329,0.026532,-89.999855,-90.0,2.288362,0.061829,0.218059,297.843964,299.026184,0.011233,-0.020623,-15.289145,-5.33E-4,0.050509,8.74E-4,0.0,1.0,1835.835205,
8.592191,-88.032501,-86.839058,2.540329,0.026532,2.540329,0.026532,-89.999855,-90.0,2.288362,0.061829,0.218059,297.843964,299.026184,0.011233,-0.020623,-15.289145,-5.33E-4,0.050509,8.74E-4,0.0,1.0,1835.835205,
10.103951,-88.035118,-86.841675,2.579778,-0.001206,2.579778,-0.001206,-89.999855,-90.0,2.291176,0.172184,0.342229,297.809082,302.505432,0.014876,-0.020714,-15.599546,-3.79E-4,0.050807,0.001202,0.0,1.0,2046.189209,
10.623968,-88.035278,-86.841827,2.589837,-0.007689,2.589837,-0.007689,-89.999855,-90.0,2.292293,0.220791,0.385339,297.79303,303.309509,0.016975,-0.021508,-16.26576,1.7E-5,0.051596,0.002946,0.0,1.0,2087.836182,
11.565701,-88.035042,-86.841591,2.602476,-0.016899,2.602476,-0.016899,-89.999855,-90.0,2.294538,0.322489,0.464155,297.763641,304.407593,0.020417,-0.022915,-15.260798,1.1E-4,0.051797,0.003749,0.0,1.0,2141.539551,
12.182503,-88.034584,-86.841141,2.609224,-0.021589,2.609224,-0.021589,-89.999855,-90.0,2.296175,0.398589,0.515571,297.743958,304.911926,0.02209,-0.023841,-13.111888,2.41E-4,0.05205,0.005218,0.0,1.0,2166.009277,
13.129602,-88.033493,-86.840042,2.617753,-0.027269,2.617753,-0.027269,-89.999855,-90.0,2.298963,0.530204,0.595694,297.715729,305.398254,0.024139,-0.024804,-5.004473,3.08E-4,0.052184,0.006203,0.0,1.0,2192.434326,
13.771621,-88.032501,-86.83905,2.622858,-0.030344,2.622858,-0.030344,-89.999855,-90.0,2.301048,0.629603,0.650963,297.698273,305.546783,0.025316,-0.025131,10.398624,3.9E-4,0.052355,0.007614,0.0,1.0,2204.869385,
14.745211,-88.030624,-86.837181,2.629567,-0.033915,2.629567,-0.033915,-89.999855,-90.0,2.304524,0.796054,0.734937,297.677032,305.516724,0.026907,-0.02474,18.95122,4.33E-4,0.052457,0.008487,0.0,1.0,2219.532471,
15.399623,-88.029129,-86.835686,2.633832,-0.035817,2.633832,-0.035817,-89.999855,-90.0,2.307078,0.91846,0.792584,297.666534,305.335876,0.027919,-0.023917,14.796217,4.84E-4,0.052591,0.009549,0.0,1.0,2227.407715,
16.387327,-88.026527,-86.833076,2.639894,-0.03835,2.639894,-0.03835,-89.999855,-90.0,2.311268,1.118951,0.878836,297.65799,304.839355,0.029465,-0.02168,15.117907,5.12E-4,0.052677,0.010074,0.0,1.0,2237.053467,
17.02109,-88.024628,-86.831184,2.643786,-0.039853,2.643786,-0.039853,-89.999855,-90.0,2.314173,1.257478,0.934674,297.657074,304.390411,0.030406,-0.019706,11.923476,5.48E-4,0.052798,0.010501,0.0,1.0,2242.145752,
18.043922,-88.02121,-86.827766,2.649939,-0.042183,2.649939,-0.042183,-89.999855,-90.0,2.31922,1.497047,1.025348,297.66275,303.473328,0.032395,-0.015778,16.151119,5.69E-4,0.052876,0.010547,0.0,1.0,2249.016602,
18.681065,-88.018852,-86.825409,2.653878,-0.043571,2.653878,-0.043571,-89.999855,-90.0,2.322592,1.656164,1.08122,297.670258,302.794006,0.033445,-0.013009,15.235129,6.03E-4,0.052999,0.010263,0.0,1.0,2252.645264,
19.707861,-88.014694,-86.821251,2.660088,-0.0457,2.660088,-0.0457,-89.999855,-90.0,2.328394,1.928148,1.171525,297.686829,301.549072,0.0356,-0.00839,10.114052,6.22E-4,0.053078,0.009888,0.0,1.0,2257.709473,
20.374599,-88.011749,-86.818306,2.664225,-0.046989,2.664225,-0.046989,-89.999855,-90.0,2.332407,2.114904,1.23021,297.699768,300.655273,0.036842,-0.005416,12.417371,6.53E-4,0.053202,0.009059,0.0,1.0,2260.5979,
21.347178,-88.007118,-86.813675,2.67017,-0.048697,2.67017,-0.048697,-89.999855,-90.0,2.33861,2.401465,1.316061,297.719208,299.253204,0.0383,-0.001511,9.624476,6.71E-4,0.053284,0.008412,0.0,1.0,2264.390869,
22.041969,-88.003563,-86.81012,2.67457,-0.049829,2.67457,-0.049829,-89.999855,-90.0,2.343297,2.616236,1.377626,297.732941,298.194885,0.039402,9.28E-4,14.876984,6.96E-4,0.053403,0.00744,0.0,1.0,2266.864258,
23.014568,-87.99823,-86.804787,2.680692,-0.051193,2.680692,-0.051193,-89.999855,-90.0,2.350216,2.930665,1.463309,297.750275,296.656921,0.040325,0.003625,15.862801,7.12E-4,0.053491,0.006754,0.0,1.0,2270.078369,
23.708714,-87.994179,-86.800735,2.6852,-0.052103,2.6852,-0.052103,-89.999855,-90.0,2.355415,3.16484,1.524842,297.761017,295.532745,0.040865,0.005067,10.535812,7.31E-4,0.053614,0.005887,0.0,1.0,2272.237549,
24.707926,-87.987968,-86.794525,2.691691,-0.053278,2.691691,-0.053278,-89.999855,-90.0,2.363275,3.515695,1.61498,297.773346,293.89975,0.041134,0.006405,16.075874,7.44E-4,0.053704,0.00535,0.0,1.0,2275.196777,
25.372892,-87.983597,-86.790154,2.696191,-0.05407,2.696191,-0.05407,-89.999855,-90.0,2.368761,3.758322,1.67199,297.779968,292.814819,0.041112,0.006949,12.209977,7.61E-4,0.053834,0.004733,0.0,1.0,2277.093994,
26.342951,-87.976868,-86.783424,2.702745,-0.055226,2.702745,-0.055226,-89.999855,-90.0,2.377114,4.124314,1.763367,297.787811,291.25766,0.040929,0.007371,18.98712,7.72E-4,0.053924,0.004402,0.0,1.0,2279.779785,
26.978292,-87.972229,-86.778786,2.707245,-0.05609,2.707245,-0.05609,-89.999855,-90.0,2.38283,4.372485,1.814583,297.792572,290.260834,0.040782,0.007563,17.218922,7.89E-4,0.054055,0.00401,0.0,1.0,2281.50415,
28.000126,-87.964386,-86.770943,2.71665,-0.056175,2.71665,-0.056175,-89.999855,-90.0,2.392621,4.784098,2.0309,297.80072,288.719543,0.040977,0.007964,17.665005,8.01E-4,0.054145,0.003772,0.0,1.0,2284.227539,
28.634058,-87.959221,-86.765778,2.724763,-0.05275,2.724763,-0.05275,-89.999855,-90.0,2.399288,5.047463,2.177378,297.806793,287.809143,0.041038,0.008417,17.516663,8.02E-4,0.054333,0.003365,0.0,1.0,2285.895996,
29.65222,-87.950348,-86.756905,2.732694,-0.053971,2.732694,-0.053971,-89.999855,-90.0,2.410743,5.48283,2.272407,297.818848,286.436371,0.040777,0.009282,10.081853,7.54E-4,0.054495,0.003061,0.0,1.0,2288.55127,
30.312548,-87.944237,-86.750793,2.737372,-0.055387,2.737372,-0.055387,-89.999855,-90.0,2.418437,5.772738,2.342246,297.828949,285.613953,0.041107,0.010128,15.170519,7.71E-4,0.054654,0.002458,0.0,1.0,2290.259277,
31.299231,-87.93457,-86.741127,2.744519,-0.057666,2.744519,-0.057666,-89.999855,-90.0,2.430375,6.218339,2.432652,297.847107,284.49176,0.042085,0.011708,11.499701,7.91E-4,0.054747,0.001953,0.0,1.0,2292.805176,
31.984175,-87.927528,-86.734077,2.749789,-0.059324,2.749789,-0.059324,-89.999855,-90.0,2.438951,6.53516,2.501889,297.861816,283.796631,0.043156,0.013,19.28195,8.24E-4,0.05489,0.001045,0.0,1.0,2294.564941,
32.968269,-87.916916,-86.723473,2.757315,-0.061565,2.757315,-0.061565,-89.999855,-90.0,2.451712,7.001673,2.598826,297.884399,282.92395,0.04467,0.01484,19.891954,8.47E-4,0.054996,3.1E-4,0.0,1.0,2297.089844,
33.595543,-87.909851,-86.716408,2.762283,-0.062984,2.762283,-0.062984,-89.999855,-90.0,2.460118,7.305907,2.658617,297.899384,282.448425,0.045498,0.015967,16.902884,8.8E-4,0.055146,-8.19E-4,0.0,1.0,2298.698975,
34.548588,-87.898705,-86.705261,2.769685,-0.064854,2.769685,-0.064854,-89.999855,-90.0,2.473289,7.77784,2.752238,297.921387,281.850281,0.04675,0.017347,8.124043,9.0E-4,0.055246,-0.001569,0.0,1.0,2301.143311,
35.234676,-87.890121,-86.696678,2.775299,-0.065978,2.775299,-0.065978,-89.999855,-90.0,2.483359,8.135228,2.816417,297.936768,281.5047,0.047668,0.018101,12.931273,9.26E-4,0.055394,-0.002669,0.0,1.0,2302.949219,
36.169804,-87.8778,-86.684357,2.78705,-0.065554,2.78705,-0.065554,-89.999855,-90.0,2.497936,8.639359,3.278562,297.952393,281.164429,0.048415,0.018115,8.131658,9.43E-4,0.055506,-0.003438,0.0,1.0,2305.414551,
36.791451,-87.869179,-86.675735,2.794629,-0.064177,2.794629,-0.064177,-89.999855,-90.0,2.508875,8.981264,3.309077,297.956787,281.025208,0.048065,0.017183,13.047079,9.36E-4,0.055741,-0.004219,0.0,1.0,2307.041992,
37.696606,-87.855934,-86.662491,2.800967,-0.060835,2.800967,-0.060835,-89.999855,-90.0,2.525193,9.487963,3.400588,297.95224,280.943817,0.046106,0.014283,13.914567,9.17E-4,0.055893,-0.004439,0.0,1.0,2309.400635,
38.317417,-87.846451,-86.653008,2.805314,-0.058045,2.805314,-0.058045,-89.999855,-90.0,2.536653,9.840807,3.469255,297.94162,280.968079,0.043577,0.01136,20.227375,8.69E-4,0.056019,-0.004211,0.0,1.0,2311.011719,
39.218063,-87.832016,-86.638573,2.811927,-0.053646,2.811927,-0.053646,-89.999855,-90.0,2.553778,10.362994,3.570949,297.917297,281.113525,0.038395,0.006247,14.707372,8.29E-4,0.056106,-0.00368,0.0,1.0,2313.354248,
39.886776,-87.8209,-86.627457,2.817145,-0.050393,2.817145,-0.050393,-89.999855,-90.0,2.566825,10.756592,3.648057,297.894531,281.300537,0.033721,0.002194,17.74287,7.66E-4,0.056239,-0.002464,0.0,1.0,2315.091309,
40.785156,-87.805397,-86.611954,2.82415,-0.046596,2.82415,-0.046596,-89.999855,-90.0,2.584826,11.293844,3.751861,297.863037,281.6492,0.02857,-0.002695,16.720381,7.2E-4,0.056343,-0.001326,0.0,1.0,2317.426758,
41.374531,-87.794899,-86.601456,2.828526,-0.044296,2.828526,-0.044296,-89.999855,-90.0,2.596887,11.651392,3.762882,297.844147,281.933258,0.025265,-0.005237,15.300703,6.66E-4,0.056483,2.49E-4,0.0,1.0,2318.960449,
42.320652,-87.777534,-86.584091,2.840885,-0.038682,2.840885,-0.038682,-89.999855,-90.0,2.617347,12.233815,4.428113,297.821747,282.47052,0.022275,-0.007496,9.450204,6.33E-4,0.056571,0.001193,0.0,1.0,2321.427002,
42.957962,-87.765221,-86.57177,2.847311,-0.033801,2.847311,-0.033801,-89.999855,-90.0,2.632573,12.63224,4.408049,297.813171,282.882324,0.020905,-0.007814,17.855352,5.53E-4,0.056818,0.002313,0.0,1.0,2323.102539,
43.848499,-87.747162,-86.553719,2.854996,-0.034092,2.854996,-0.034092,-89.999855,-90.0,2.654323,13.196438,4.531047,297.81073,283.51355,0.021468,-0.006838,17.625616,4.83E-4,0.056946,0.002742,0.0,1.0,2326.486816,
44.458477,-87.734291,-86.540848,2.860029,-0.033823,2.860029,-0.033823,-89.999855,-90.0,2.669576,13.587509,4.611672,297.814484,283.976624,0.023042,-0.005402,16.098537,4.87E-4,0.0571,0.002864,0.0,1.0,2329.537598,
45.398453,-87.713699,-86.520256,2.867401,-0.032835,2.867401,-0.032835,-89.999855,-90.0,2.693611,14.196892,4.736244,297.82489,284.726746,0.026944,-0.002765,10.710086,4.83E-4,0.057201,0.002676,0.0,1.0,2334.941162,
46.007618,-87.699898,-86.506447,2.872282,-0.031721,2.872282,-0.031721,-89.999855,-90.0,2.709535,14.596268,4.81305,297.831909,285.230011,0.029401,-0.001237,13.378147,4.69E-4,0.057348,0.002156,0.0,1.0,2338.736328,
46.895493,-87.679047,-86.485603,2.885555,-0.029173,2.885555,-0.029173,-89.999855,-90.0,2.734769,15.184313,5.402079,297.837372,285.976807,0.031958,-4.2E-5,10.6849,4.53E-4,0.057446,0.001805,0.0,1.0,2344.518799,
47.529484,-87.663429,-86.469986,2.891242,-0.025298,2.891242,-0.025298,-89.999855,-90.0,2.753713,15.608329,5.52933,297.835571,286.513,0.03296,-1.61E-4,10.187538,4.17E-4,0.057711,0.001532,0.0,1.0,2348.764893,
48.442574,-87.639969,-86.446526,2.897631,-0.020486,2.897631,-0.020486,-89.999855,-90.0,2.781615,16.22459,5.63836,297.822357,287.278473,0.031857,-0.001996,11.080505,3.61E-4,0.057825,0.001622,0.0,1.0,2354.984863,
49.05135,-87.623749,-86.430305,2.902027,-0.01699,2.902027,-0.01699,-89.999855,-90.0,2.800569,16.639071,5.724713,297.806488,287.778534,0.029716,-0.004178,11.722497,2.93E-4,0.057953,0.002283,0.0,1.0,2359.177734,
49.96455,-87.598625,-86.405182,2.908739,-0.011542,2.908739,-0.011542,-89.999855,-90.0,2.829538,17.266104,5.854644,297.774658,288.503906,0.024776,-0.00828,12.597292,2.43E-4,0.058041,0.003076,0.0,1.0,2365.512695,
50.573345,-87.58139,-86.387947,2.913473,-0.007872,2.913473,-0.007872,-89.999855,-90.0,2.849217,17.687586,5.943107,297.749756,288.965851,0.020741,-0.011245,15.887868,1.65E-4,0.058175,0.004668,0.0,1.0,2369.758057,
51.486183,-87.55481,-86.361366,2.926011,0.002908,2.926011,0.002908,-89.999855,-90.0,2.880064,18.324856,6.564827,297.712738,289.618439,0.01519,-0.014896,13.12008,1.12E-4,0.058269,0.005913,0.0,1.0,2376.150146,
52.093727,-87.536316,-86.342873,2.935941,0.010333,2.935941,0.010333,-89.999855,-90.0,2.903166,18.752981,6.985304,297.689941,290.022369,0.011063,-0.016789,11.592831,-4.2E-5,0.05852,0.007764,0.0,1.0,2380.423584,
53.00547,-87.507195,-86.313744,2.942221,0.014204,2.942221,0.014204,-89.999855,-90.0,2.938428,19.399944,7.114163,297.663544,290.575439,0.006741,-0.018141,19.444715,-1.48E-4,0.058719,0.008903,0.0,1.0,2386.849365,
53.613422,-87.486977,-86.293526,2.946393,0.016307,2.946393,0.016307,-89.999855,-90.0,2.962316,19.834364,7.212642,297.651978,290.906067,0.005205,-0.018006,15.833493,-2.03E-4,0.058844,0.010223,0.0,1.0,2391.143799,
54.525764,-87.455574,-86.262131,2.952964,0.018743,2.952964,0.018743,-89.999855,-90.0,2.998752,20.490543,7.356742,297.64386,291.341064,0.005113,-0.016398,16.516779,-2.33E-4,0.058928,0.010802,0.0,1.0,2397.599854,
55.134083,-87.433998,-86.240555,2.957593,0.020287,2.957593,0.020287,-89.999855,-90.0,3.023456,20.930958,7.455924,297.643005,291.588867,0.006274,-0.014765,16.983938,-2.68E-4,0.059059,0.011208,0.0,1.0,2401.914307,
56.0214,-87.401703,-86.20826,2.964002,0.022594,2.964002,0.022594,-89.999855,-90.0,3.060075,21.577374,7.600158,297.644501,291.888153,0.008803,-0.012266,13.595717,-2.9E-4,0.059152,0.01125,0.0,1.0,2408.220947,
56.655251,-87.378044,-86.184601,2.968614,0.02452,2.968614,0.02452,-89.999855,-90.0,3.086662,22.042042,7.703694,297.644714,292.056396,0.011278,-0.010855,18.037598,-3.23E-4,0.05928,0.011176,0.0,1.0,2412.736084,
57.568031,-87.343208,-86.149765,2.974914,0.027844,2.974914,0.027844,-89.999855,-90.0,3.125576,22.715357,7.852082,297.63916,292.232117,0.013847,-0.010008,18.603451,-3.5E-4,0.059372,0.011165,0.0,1.0,2419.253418,
Command_Fault: set /systems/pitot/serviceable false
58.176464,-87.319496,-86.126053,2.979199,0.030443,2.979199,0.030443,-89.999855,-90.0,3.151933,23.166918,7.951967,297.6297,292.306183,0.014691,-0.010425,20.441204,-3.98E-4,0.059498,0.011443,0.0,1.0,2423.608398,
58.533195,-87.283241,-86.089798,2.984456,0.035883,2.984456,0.035883,-89.999855,-90.0,3.191819,23.848169,7.99176,297.605927,292.354248,0.014216,-0.012433,18.710245,-4.35E-4,0.059584,0.011916,0.0,1.0,2430.154541,
58.537819,-87.25975,-86.066307,2.988572,0.038904,2.988572,0.038904,-89.999855,-90.0,3.217521,24.285803,8.096737,297.58493,292.346497,0.013016,-0.014488,22.219625,-5.13E-4,0.059689,0.013104,0.0,1.0,2434.345459,
58.545177,-87.222328,-86.028885,2.995167,0.043424,2.995167,0.043424,-89.999855,-90.0,3.258365,24.974407,8.238493,297.5466,292.276917,0.009537,-0.018147,17.471415,-5.56E-4,0.059771,0.014154,0.0,1.0,2440.943359,
58.550365,-87.19593,-86.002487,3.002178,0.045607,3.002178,0.045607,-89.999855,-90.0,3.287449,25.455124,8.898332,297.517944,292.189392,0.00601,-0.020715,21.373522,-6.2E-4,0.059903,0.016071,0.0,1.0,2445.592773,
58.558018,-87.156982,-85.963539,3.011136,0.048669,3.011136,0.048669,-89.999855,-90.0,3.331834,26.150854,8.947671,297.479523,292.010742,0.001664,-0.023444,13.08615,-6.52E-4,0.060044,0.017503,0.0,1.0,2452.353516,
58.563259,-87.130295,-85.936852,3.022506,0.051124,3.022506,0.051124,-89.999855,-90.0,3.363197,26.616894,9.937882,297.457581,291.85968,-8.14E-4,-0.024456,19.774408,-6.95E-4,0.060223,0.019424,0.0,1.0,2456.889648,
58.571453,-87.088539,-85.895096,3.030447,0.054487,3.030447,0.054487,-89.999855,-90.0,3.413279,27.319149,10.081379,297.433319,291.589935,-0.003211,-0.024417,19.099447,-7.3E-4,0.06045,0.020521,0.0,1.0,2463.720215,
58.577129,-87.059624,-85.86618,3.034282,0.05671,3.034282,0.05671,-89.999855,-90.0,3.447075,27.789383,10.185854,297.42276,291.384369,-0.003777,-0.023525,13.457692,-7.78E-4,0.060609,0.021735,0.0,1.0,2468.287109,
58.585915,-87.014877,-85.821434,3.040283,0.059876,3.040283,0.059876,-89.999855,-90.0,3.49844,28.497711,10.350453,297.41394,291.043121,-0.003086,-0.021272,16.814939,-8.1E-4,0.060686,0.022263,0.0,1.0,2475.150879,
58.591934,-86.984222,-85.790771,3.044697,0.062093,3.044697,0.062093,-89.999855,-90.0,3.533149,28.971848,10.462967,297.41037,290.797119,-0.001821,-0.019612,13.970564,-8.55E-4,0.060806,0.022704,0.0,1.0,2479.733154,
58.601196,-86.937035,-85.743584,3.055909,0.070607,3.055909,0.070607,-89.999855,-90.0,3.587363,29.685804,11.201421,297.404205,290.406403,7.17E-4,-0.017461,14.654336,-8.87E-4,0.060894,0.022882,0.0,1.0,2486.613525,
58.607567,-86.904564,-85.711121,3.060731,0.073078,3.060731,0.073078,-89.999855,-90.0,3.624901,30.163542,11.308809,297.396698,290.134827,0.002496,-0.016844,15.185296,-0.001009,0.061118,0.02319,0.0,1.0,2491.203369,
58.617401,-86.854454,-85.661011,3.065865,0.07609,3.065865,0.07609,-89.999855,-90.0,3.681881,30.882687,11.473543,297.377747,289.716705,0.004833,-0.017257,15.880046,-0.001044,0.061215,0.023566,0.0,1.0,2498.093018,
58.624123,-86.820206,-85.626762,3.069323,0.077042,3.069323,0.077042,-89.999855,-90.0,3.720431,31.36375,11.739033,297.3591,289.434052,0.005767,-0.018488,16.295164,-0.001087,0.061317,0.024513,0.0,1.0,2502.689697,
58.634514,-86.767197,-85.573753,3.060323,0.025393,3.060323,0.025393,-89.999855,-90.0,3.785134,32.087688,14.184213,297.322998,289.009583,0.005273,-0.022714,17.405539,-0.001101,0.061386,0.025446,0.0,1.0,2509.592041,
58.64185,-86.729721,-85.536278,3.017099,-0.073785,3.017099,-0.073785,-89.999855,-90.0,3.833902,32.571804,14.959044,297.295258,288.729645,0.004783,-0.027296,18.641333,-3.63E-4,0.061206,0.027251,0.0,1.0,2514.201416,
58.653568,-86.669838,-85.476395,2.920105,-0.290738,2.920105,-0.290738,-89.999855,-90.0,3.90989,33.30014,15.284424,297.256653,288.321106,0.005836,-0.034302,19.478491,0.001054,0.060342,0.028638,0.0,1.0,2521.135254,
58.661808,-86.627785,-85.434341,2.857577,-0.442991,2.857577,-0.442991,-89.999855,-90.0,3.960796,33.787102,15.191037,297.234985,288.060699,0.007782,-0.037908,24.051594,0.004153,0.058402,0.030568,0.0,1.0,2525.77002,
58.674637,-86.562325,-85.368881,2.792894,-0.639585,2.792894,-0.639585,-89.999855,-90.0,4.036361,34.519562,15.094736,297.206696,287.694855,0.011767,-0.041315,16.46122,0.006328,0.057152,0.031651,0.0,1.0,2532.732178,
58.68343,-86.517487,-85.324043,2.756013,-0.758598,2.756013,-0.758598,-89.999855,-90.0,4.08694,35.009167,15.208355,297.185822,287.470795,0.014768,-0.043436,22.956827,0.009137,0.055858,0.033066,0.0,1.0,2537.377197,
58.696911,-86.448723,-85.25528,2.704255,-0.929299,2.704255,-0.929299,-89.999855,-90.0,4.163477,35.745422,15.416801,297.143951,287.169006,0.0193,-0.047794,23.476028,0.010837,0.05512,0.034109,0.0,1.0,2544.347656,
58.706078,-86.40197,-85.208519,2.665833,-1.046525,2.665833,-1.046525,-89.999855,-90.0,4.215215,36.237431,15.569075,297.104736,286.992889,0.022036,-0.052259,23.800907,0.013276,0.054085,0.036203,0.0,1.0,2548.996582,
58.720078,-86.330551,-85.137108,2.616232,-1.219879,2.616232,-1.219879,-89.999855,-90.0,4.294368,36.977116,16.56394,297.026855,286.769257,0.025242,-0.061089,24.278837,0.01495,0.053317,0.038164,0.0,1.0,2555.973877,
58.729637,-86.281723,-85.08828,2.624271,-1.348327,2.624271,-1.348327,-89.999855,-90.0,4.352667,37.471291,18.93084,296.961487,286.648224,0.026354,-0.068751,24.908419,0.017427,0.052325,0.042058,0.0,1.0,2560.624756,
58.745071,-86.202446,-85.009003,2.72384,-1.555222,2.72384,-1.555222,-89.999855,-90.0,4.477654,38.21505,32.826214,296.850586,286.508362,0.028517,-0.08104,20.654482,0.019262,0.052485,0.045326,0.0,1.0,2567.581299,
58.757393,-86.138641,-84.945198,2.822601,-1.676765,2.822601,-1.676765,-79.999855,-80.0,4.613149,38.712898,48.567055,296.772003,286.441315,0.029863,-0.088529,21.632103,0.022217,0.054477,0.050871,0.0,1.0,2572.192871,
58.782429,-86.008255,-84.814812,2.975677,-1.804819,2.975677,-1.804819,-79.999855,-80.0,4.929314,39.460144,77.803665,296.661224,286.375549,0.031573,-0.0959,31.769133,0.023954,0.056452,0.0548,0.0,1.0,2579.045654,
58.805756,-85.886642,-84.693199,3.089734,-1.851456,3.089734,-1.851456,-79.999855,-80.0,5.225357,39.958286,99.208519,296.594635,286.351807,0.032874,-0.098165,41.253513,0.025783,0.059514,0.060339,0.0,1.0,2583.55542,
58.854282,-85.633987,-84.440544,3.256998,-1.857641,3.256998,-1.857641,-79.999855,-80.0,5.806695,40.704849,132.383301,296.512787,286.340363,0.035349,-0.096786,58.994171,0.026449,0.061795,0.063669,0.0,1.0,2590.191895,
58.897404,-85.409836,-84.216393,3.37816,-1.821193,3.37816,-1.821193,-79.999855,-80.0,6.28615,41.201706,154.463303,296.468048,286.345093,0.037655,-0.093523,72.690979,0.026538,0.06514,0.067761,0.0,1.0,2594.062256,
58.980541,-84.978233,-83.784782,3.54219,-1.715263,3.54219,-1.715263,-79.999855,-80.0,7.141925,41.944931,186.47937,296.414398,286.364166,0.042066,-0.085915,95.33506,0.026017,0.067563,0.069998,0.0,1.0,2598.782471,
59.049183,-84.622162,-83.428719,3.649087,-1.614241,3.649087,-1.614241,-79.999855,-80.0,7.798388,42.438583,206.707458,296.383209,286.381073,0.04558,-0.080079,111.35659,0.024504,0.070844,0.072681,0.0,1.0,2601.416748,
59.172886,-83.980545,-82.787102,3.784964,-1.438289,3.784964,-1.438289,-79.999855,-80.0,8.910001,43.175575,236.797546,296.339905,286.406708,0.051216,-0.071269,136.277405,0.023061,0.072982,0.07424,0.0,1.0,2604.844238,
59.269508,-83.479156,-82.285713,3.879585,-1.308558,3.879585,-1.308558,-79.999855,-80.0,9.732752,43.664185,256.117615,296.310425,286.420837,0.054984,-0.065934,153.285767,0.020547,0.075699,0.076405,0.0,1.0,2606.874756,
59.435886,-82.614876,-81.421432,4.01108,-1.118795,4.01108,-1.118795,-79.999855,-80.0,11.087313,44.392399,284.680267,296.266846,286.432404,0.060238,-0.058861,179.113495,0.018694,0.077592,0.077879,0.0,1.0,2609.648193,
59.561043,-81.963737,-80.770294,4.10183,-0.995112,4.10183,-0.995112,-79.999855,-80.0,12.068175,44.874409,303.092041,296.239288,286.43103,0.0634,-0.054523,196.34935,0.015983,0.080222,0.080058,0.0,1.0,2611.358887,
59.770103,-80.873863,-79.68042,4.220338,-0.828726,4.220338,-0.828726,-79.999855,-80.0,13.652431,45.591686,329.769104,296.206879,286.411469,0.067696,-0.047756,222.35672,0.014216,0.082037,0.081436,0.0,1.0,2613.765137,
59.923409,-80.072731,-78.879288,4.302603,-0.724809,4.302603,-0.724809,-79.999855,-80.0,14.784408,46.065754,348.986572,296.193146,286.384888,0.070345,-0.042695,239.56102,0.011839,0.084407,0.083057,0.0,1.0,2615.282715,
60.174232,-78.75808,-77.564636,4.434798,-0.586112,4.434798,-0.586112,-79.999855,-80.0,16.609442,46.770203,380.610107,296.186279,286.322388,0.074281,-0.034238,265.551331,0.010354,0.086052,0.083743,0.0,1.0,2617.453369,
Command_Fault: set /systems/pitot/serviceable true
60.355602,-77.804276,-76.610832,4.544167,-0.497331,4.544167,-0.497331,-79.999855,-80.0,17.916031,47.235104,402.13916,296.189056,286.264374,0.077125,-0.028227,283.242859,0.008373,0.088696,0.084087,0.0,1.0,2618.837158,
Command: fly_strait
85.228806,-76.254761,-75.061317,4.685441,-0.371298,4.685441,-0.371298,-79.999855,-80.0,19.999907,47.924908,429.520813,296.19989,286.151001,0.081886,-0.019418,310.26358,0.007105,0.090883,0.083948,0.0,1.0,2620.824463,
85.497269,-75.143707,-73.950256,4.755607,-0.280095,4.755607,-0.280095,-69.999855,-70.0,21.457638,48.379551,444.418457,296.192322,286.057281,0.093486,-0.017546,328.192993,0.005304,0.093709,0.0,0.0,1.0,2622.094971,
85.901764,-73.365829,-72.172386,4.804179,-0.156559,4.804179,-0.156559,-69.999855,-70.0,23.733931,49.053543,464.845581,295.887451,285.889191,0.105117,-0.062888,354.286163,0.004001,0.095112,3.78E-4,0.0,1.0,2623.938721,
86.175415,-72.110443,-70.917,4.829478,-0.201768,4.829478,-0.201768,-69.999855,-70.0,25.303608,49.497635,476.324341,295.530304,285.757477,0.096347,-0.115693,370.937073,0.002237,0.096084,0.015622,0.0,1.0,2625.141357,
86.588615,-70.13028,-68.936829,4.877201,-0.55202,4.877201,-0.55202,-69.999855,-70.0,27.72695,50.156235,492.50647,294.992462,285.527405,0.063649,-0.19011,394.526978,0.002882,0.09659,0.033479,0.0,1.0,2626.919678,
86.85862,-68.749794,-67.556351,4.924337,-0.921861,4.924337,-0.921861,-69.999855,-70.0,29.387964,50.590359,503.854828,294.747986,285.351196,0.037239,-0.217825,409.320892,0.007886,0.097544,0.060371,0.0,1.0,2628.0896,
87.250702,-66.593422,-65.399979,5.02047,-1.475642,5.02047,-1.475642,-69.999855,-70.0,31.956476,51.233871,523.526978,294.69577,285.053619,0.005301,-0.204239,430.401245,0.013169,0.098487,0.072595,0.0,1.0,2629.8125,
87.504478,-65.099602,-63.906155,5.102182,-1.724306,5.102182,-1.724306,-59.999859,-60.0,33.726868,51.657681,538.327576,294.860718,284.835785,-0.00186,-0.162401,444.009369,0.021081,0.100409,0.075206,0.0,1.0,2630.939453,
87.849327,-62.77335,-61.579903,5.230428,-1.738884,5.230428,-1.738884,-59.999859,-60.0,36.478951,52.285217,562.082153,295.262817,284.487244,0.010598,-0.07623,464.258453,0.024633,0.102044,0.066959,0.0,1.0,2632.582031,
88.053749,-61.164028,-59.970585,5.323387,-1.519611,5.323387,-1.519611,-59.999859,-60.0,38.381729,52.697758,579.154663,295.517731,284.244751,0.030746,-0.023712,477.86615,0.024841,0.104609,0.046854,0.0,1.0,2633.630371,
88.338867,-58.658733,-57.465286,5.428027,-0.979462,5.428027,-0.979462,-59.999859,-60.0,41.345486,53.307308,605.389648,295.680511,283.87149,0.065634,0.014609,498.729218,0.021709,0.106468,0.034108,0.0,1.0,2635.126221,
88.525795,-56.925694,-55.73225,5.482433,-0.605667,5.482433,-0.605667,-59.999859,-60.0,43.392021,53.707355,621.757324,295.598053,283.617798,0.08167,0.007109,512.998535,0.013992,0.108561,0.025969,0.0,1.0,2636.082031,
88.811539,-54.230778,-53.037334,5.538826,-0.265978,5.538826,-0.265978,-49.999859,-50.0,46.559341,54.298038,643.970459,295.238678,283.22995,0.086548,-0.043921,534.770508,0.008652,0.109649,0.030092,0.0,1.0,2637.478516,
89.005188,-52.371387,-51.17794,5.5796,-0.234278,5.5796,-0.234278,-49.999859,-50.0,48.729111,54.685772,657.271301,294.931519,282.965515,0.07573,-0.087898,549.339539,0.0038,0.110777,0.048061,0.0,1.0,2638.395752,
89.296295,-49.491173,-48.297729,5.647779,-0.473113,5.647779,-0.473113,-49.999859,-50.0,52.065231,55.258656,676.578674,294.583801,282.558716,0.047197,-0.133006,570.952576,0.003347,0.111592,0.063419,0.0,1.0,2639.76001,
89.486862,-47.512085,-46.318642,5.70624,-0.722092,5.70624,-0.722092,-49.999859,-50.0,54.343151,55.634888,689.775146,294.507019,282.281158,0.029478,-0.13646,585.101746,0.006759,0.112956,0.080804,0.0,1.0,2640.661621,
89.755753,-44.456985,-43.263538,5.806296,-1.010682,5.806296,-1.010682,-39.999859,-40.0,57.845478,56.190617,710.778381,294.667755,281.858887,0.016437,-0.095862,605.94812,0.010316,0.114125,0.084644,0.0,1.0,2641.993408,
89.915283,-42.362835,-41.169388,5.889483,-1.054936,5.889483,-1.054936,-39.999859,-40.0,60.240498,56.555161,725.855591,294.905579,281.577057,0.021901,-0.048819,619.677063,0.014438,0.116126,0.076607,0.0,1.0,2642.855713,
90.122192,-39.134304,-37.940861,6.005507,-0.82435,6.005507,-0.82435,-39.999859,-40.0,63.931194,57.09256,749.839172,295.272552,281.160919,0.047463,0.019984,640.233765,0.015071,0.11779,0.064716,0.0,1.0,2644.088623,
90.245186,-36.922478,-35.729034,6.076735,-0.528442,6.076735,-0.528442,-39.999859,-40.0,66.458549,57.444294,765.980713,295.425751,280.891418,0.069058,0.048283,654.032288,0.011776,0.12011,0.046367,0.0,1.0,2644.865234,
90.426033,-33.513733,-32.32029,6.146875,-0.059857,6.146875,-0.059857,-29.999857,-30.0,70.348221,57.961876,788.670898,295.403412,280.502655,0.095537,0.04607,674.95752,0.007549,0.121535,0.038707,0.0,1.0,2645.974365,
90.550812,-31.180555,-29.98711,6.18538,0.164965,6.18538,0.164965,-29.999857,-30.0,73.000267,58.300331,801.841614,295.231689,280.254333,0.101426,0.018418,689.001099,8.55E-4,0.122938,0.039824,0.0,1.0,2646.689941,
90.745659,-27.592428,-26.398983,6.234136,0.220889,6.234136,0.220889,-29.999857,-30.0,77.055061,58.798492,819.094421,294.870758,279.896759,0.09105,-0.039328,709.938843,-0.002357,0.123708,0.04841,0.0,1.0,2647.747559,
90.878685,-25.144049,-23.950603,6.270968,0.087681,6.270968,0.087681,-29.999857,-30.0,79.803452,59.124516,829.478882,294.658569,279.667328,0.074987,-0.071618,723.635986,-0.003156,0.124683,0.066457,0.0,1.0,2648.448242,
91.076958,-21.392048,-20.198605,6.329478,-0.252715,6.329478,-0.252715,-19.999857,-20.0,83.990036,59.604759,844.690552,294.542633,279.336029,0.049024,-0.084617,743.566101,-0.001253,0.125419,0.077066,0.0,1.0,2649.493896,
91.202217,-18.840284,-17.646839,6.380111,-0.46454,6.380111,-0.46454,-19.999857,-20.0,86.823593,59.919109,855.147095,294.625916,279.124695,0.039437,-0.066561,756.391479,0.00361,0.12659,0.082863,0.0,1.0,2650.183594,
91.368256,-14.939898,-13.746453,6.464195,-0.577831,6.464195,-0.577831,-9.999858,-10.0,91.142036,60.381733,871.941956,294.925049,278.825928,0.042475,-0.011642,774.985352,0.006636,0.127602,0.078699,0.0,1.0,2651.190186,
91.461571,-12.29188,-11.098434,6.527127,-0.489887,6.527127,-0.489887,-9.999858,-10.0,94.069031,60.684021,883.924866,295.157166,278.641693,0.055847,0.028514,787.038696,0.008255,0.129284,0.063742,0.0,1.0,2651.830322,
91.584839,-8.248169,-7.054724,6.599956,-0.159976,6.599956,-0.159976,-9.999858,-10.0,98.535904,61.12793,902.131409,295.377869,278.391815,0.083754,0.06469,804.791992,0.006998,0.130543,0.052136,0.0,1.0,2652.716064,
91.664841,-5.504426,-4.310981,6.638464,0.100355,6.638464,0.100355,-9.999858,-10.0,101.562737,61.41745,913.422119,295.385742,278.244019,0.098935,0.064524,816.487366,0.002285,0.131999,0.041101,0.0,1.0,2653.263428,
91.792618,-1.317938,-0.124494,6.674512,0.359815,6.674512,0.359815,1.42E-4,0.0,106.169014,61.84227,928.099365,295.188782,278.049744,0.107686,0.028952,833.819397,-0.001434,0.132769,0.040707,0.0,1.0,2654.046143,
Command_Fault: set /systems/pitot/serviceable false
91.93177,3.15363,4.347075,6.70687,0.353373,6.70687,0.353373,1.42E-4,0.0,110.840721,62.256248,939.932068,294.875031,277.884979,0.095182,-0.02411,850.732178,-0.00514,0.13349,0.050555,0.0,1.0,2654.808594,
92.274841,6.182956,7.376401,6.728326,0.197489,6.728326,0.197489,10.000142,10.0,113.986168,62.526524,946.94574,294.712128,277.789154,0.078842,-0.050404,861.645996,-0.005572,0.133928,0.061069,0.0,1.0,2655.313965,
92.817741,10.788131,11.981575,6.770267,-0.130591,6.770267,-0.130591,10.000142,10.0,118.747337,62.923706,957.316467,294.64743,277.664246,0.055925,-0.05846,877.33252,-0.002821,0.134567,0.074388,0.0,1.0,2656.06958,
93.182388,13.896588,15.090033,6.806924,-0.31803,6.806924,-0.31803,10.000142,10.0,121.95105,63.183064,964.718201,294.743469,277.593262,0.048007,-0.040532,887.311096,0.001866,0.135405,0.077623,0.0,1.0,2656.567383,
93.73307,18.614229,19.807673,6.868037,-0.399963,6.868037,-0.399963,20.000143,20.0,126.805328,63.563812,976.81781,295.023499,277.506714,0.052237,0.008079,901.63208,0.004543,0.136138,0.072821,0.0,1.0,2657.290283,
94.102547,21.795364,22.98881,6.91422,-0.308428,6.91422,-0.308428,20.000143,20.0,130.076324,63.81197,985.549683,295.216492,277.463531,0.06476,0.039984,910.831543,0.005771,0.136944,0.063942,0.0,1.0,2657.747559,
94.660255,26.621311,27.814756,6.969616,-0.021908,6.969616,-0.021908,30.000143,30.0,135.039444,64.175468,999.225098,295.386414,277.421814,0.088073,0.065833,924.279846,0.004406,0.138284,0.04917,0.0,1.0,2658.390381,
95.034393,29.875126,31.068569,6.993118,0.190314,6.993118,0.190314,30.000143,30.0,138.384689,64.411949,1007.454041,295.37384,277.408997,0.10002,0.06134,933.095154,3.13E-4,0.139392,0.040674,0.0,1.0,2658.795654,
95.598976,34.809788,36.003231,7.011164,0.374849,7.011164,0.374849,30.000143,30.0,143.449005,64.758148,1017.46405,295.180908,277.409668,0.104531,0.025532,946.108459,-0.002719,0.139862,0.041302,0.0,1.0,2659.38623,
95.977394,38.133835,39.327278,7.022933,0.367489,7.022933,0.367489,40.000141,40.0,146.849869,64.983521,1022.729431,294.99588,277.420929,0.096755,-0.006603,954.579895,-0.005355,0.140223,0.050949,0.0,1.0,2659.777344,
96.547539,43.167065,44.360508,7.043282,0.159855,7.043282,0.159855,40.000141,40.0,151.98175,65.313889,1029.66687,294.78421,277.449463,0.074965,-0.04193,966.825134,-0.00525,0.140459,0.060201,0.0,1.0,2660.361816,
96.929001,46.551441,47.744888,7.062215,-0.043646,7.062215,-0.043646,50.000141,50.0,155.421478,65.529213,1034.002197,294.746521,277.474182,0.060524,-0.047357,974.61145,-0.002284,0.140866,0.070784,0.0,1.0,2660.729492,
97.502785,51.667561,52.861004,7.097315,-0.289696,7.097315,-0.289696,50.000141,50.0,160.60881,65.84494,1040.834229,294.879333,277.51828,0.048353,-0.023523,985.672607,6.24E-4,0.141244,0.072668,0.0,1.0,2661.247803,
97.886177,55.103115,56.296558,7.128176,-0.351929,7.128176,-0.351929,50.000141,50.0,164.086868,66.05056,1045.897705,295.056671,277.552521,0.050693,0.006232,992.648804,0.004139,0.141946,0.066028,0.0,1.0,2661.569092,
98.462379,60.292313,61.485756,7.17091,-0.238168,7.17091,-0.238168,60.000141,60.0,169.337494,66.351494,1054.160767,295.320679,277.612396,0.066978,0.048687,1002.606873,0.005028,0.142564,0.057161,0.0,1.0,2662.008789,
98.847221,63.77544,64.968887,7.19486,-0.069208,7.19486,-0.069208,60.000141,60.0,172.860901,66.547043,1059.666382,295.426422,277.658356,0.080852,0.064017,1008.976501,0.003402,0.143418,0.043961,0.0,1.0,2662.273682,
99.425476,69.035217,70.228661,7.211329,0.189772,7.211329,0.189772,70.000145,70.0,178.178513,66.832771,1066.813232,295.403992,277.735565,0.096531,0.055634,1018.213196,9.89E-4,0.143897,0.038673,0.0,1.0,2662.639893,
99.811554,72.564323,73.757767,7.215614,0.292349,7.215614,0.292349,70.000145,70.0,181.740845,67.018356,1070.297363,295.282837,277.790955,0.097892,0.032708,1024.164063,-0.002711,0.144227,0.039795,0.0,1.0,2662.873779,
100.391212,77.888969,79.082413,7.217534,0.249731,7.217534,0.249731,80.000145,80.0,187.102356,67.289803,1073.917969,295.045807,277.876099,0.086058,-0.009654,1032.703125,-0.004176,0.144312,0.045853,0.0,1.0,2663.224365,
100.777763,81.457123,82.650566,7.220102,0.109683,7.220102,0.109683,80.000145,80.0,190.685211,67.466408,1075.685547,294.921234,277.931885,0.072374,-0.031078,1038.07373,-0.003568,0.144351,0.057704,0.0,1.0,2663.462646,
101.35733,86.833038,88.026482,7.230826,-0.167306,7.230826,-0.167306,90.000145,90.0,196.070297,67.725098,1078.3479,294.887909,278.011353,0.052455,-0.036155,1045.5625,-0.001567,0.144402,0.063933,0.0,1.0,2663.828369,
101.74334,90.430962,91.624405,7.245575,-0.321188,7.245575,-0.321188,90.000145,90.0,199.668564,67.893486,1080.603638,294.976318,278.060974,0.046051,-0.021086,1050.166138,0.00239,0.144617,0.065599,0.0,1.0,2664.07373,
102.321617,95.847122,97.040573,7.275388,-0.385762,7.275388,-0.385762,100.000145,100.0,205.082535,68.139885,1085.062256,295.207092,278.131165,0.049813,0.01718,1056.548584,0.004588,0.144911,0.061179,0.0,1.0,2664.431885,
102.706635,99.470589,100.66404,7.297484,-0.314019,7.297484,-0.314019,100.000145,100.0,208.705551,68.299942,1088.691284,295.362427,278.175995,0.059869,0.041793,1060.524902,0.005511,0.145508,0.04964,0.0,1.0,2664.656738,
103.28347,104.925499,106.118942,7.317874,-0.091573,7.317874,-0.091573,100.000145,100.0,214.163544,68.533577,1094.235229,295.478516,278.241364,0.078451,0.057693,1066.212769,0.004486,0.14595,0.041873,0.0,1.0,2664.969482,
103.667625,108.575623,109.769066,7.324076,0.061809,7.324076,0.061809,110.000145,110.0,217.816513,68.685081,1097.328857,295.45108,278.283478,0.086619,0.050499,1069.880859,0.001308,0.146357,0.036069,0.0,1.0,2665.166016,
104.243217,114.070694,115.264137,7.323113,0.170103,7.323113,0.170103,110.000145,110.0,223.312271,68.906181,1100.570679,295.280609,278.342651,0.08727,0.018439,1075.221924,-8.83E-4,0.146482,0.037441,0.0,1.0,2665.455566,
104.626434,117.746376,118.939819,7.320627,0.135077,7.320627,0.135077,120.000145,120.0,226.98317,69.049721,1101.829712,295.133575,278.377777,0.079224,-0.007449,1078.646973,-0.00243,0.146462,0.045964,0.0,1.0,2665.6521,
105.200233,123.27578,124.469231,7.32053,-0.061381,7.32053,-0.061381,120.000145,120.0,232.49588,69.259613,1103.178345,294.984253,278.421387,0.060346,-0.032765,1083.497803,-0.00193,0.146413,0.053316,0.0,1.0,2665.957764,
105.58194,126.971153,128.164597,7.325374,-0.229398,7.325374,-0.229398,130.000137,130.0,236.17485,69.396095,1104.210083,294.973907,278.443542,0.049263,-0.0341,1086.503296,8.77E-4,0.146411,0.060782,0.0,1.0,2666.168457,
106.153084,132.526077,133.719528,7.342651,-0.407611,7.342651,-0.407611,130.000137,130.0,241.701462,69.595711,1106.562134,295.101715,278.466644,0.041727,-0.011887,1090.660889,0.003277,0.146507,0.061299,0.0,1.0,2666.487793,
106.532875,136.236908,137.430344,7.360319,-0.435466,7.360319,-0.435466,140.000137,140.0,245.393845,69.725342,1108.877686,295.244965,278.476288,0.045229,0.011862,1093.230713,0.005823,0.146853,0.054909,0.0,1.0,2666.695557,
107.101173,141.815048,143.008499,7.384006,-0.316921,7.384006,-0.316921,140.000137,140.0,250.948975,69.914459,1113.126587,295.434113,278.484344,0.059687,0.041857,1096.886108,0.006221,0.147206,0.047746,0.0,1.0,2666.989502,
107.479202,145.54245,146.735901,7.395362,-0.175569,7.395362,-0.175569,150.000137,150.0,254.664413,70.036926,1116.008057,295.492523,278.48645,0.070456,0.049775,1099.255493,0.004527,0.14768,0.038289,0.0,1.0,2667.172119,
108.04509,151.147491,152.340927,7.39895,0.014943,7.39895,0.014943,150.000137,150.0,260.254089,70.215286,1119.508789,295.435944,278.485168,0.080803,0.036999,1102.781372,0.002508,0.147907,0.035368,0.0,1.0,2667.432861,
108.4216,154.893448,156.086899,7.396578,0.0742,7.396578,0.0742,150.000137,150.0,263.988464,70.330772,1120.952026,295.322937,278.480774,0.079962,0.016445,1105.115967,-2.13E-4,0.147979,0.038197,0.0,1.0,2667.604492,
108.98513,160.525055,161.718506,7.391953,0.005992,7.391953,0.005992,160.000137,160.0,269.596649,70.499214,1122.136108,295.134705,278.467255,0.068249,-0.016315,1108.534058,-0.00106,0.147932,0.043848,0.0,1.0,2667.868408,
109.359894,164.286728,165.480179,7.390872,-0.118409,7.390872,-0.118409,160.000137,160.0,273.338013,70.608513,1122.645386,295.051086,278.45282,0.057086,-0.030214,1110.70874,-8.6E-5,0.147839,0.053259,0.0,1.0,2668.05127,
109.920479,169.938248,171.131699,7.39733,-0.329947,7.39733,-0.329947,170.000137,170.0,278.953705,70.768181,1123.721924,295.056702,278.422607,0.042871,-0.028208,1113.755005,0.001692,0.147817,0.05744,0.0,1.0,2668.335205,
110.293106,173.711227,174.904678,7.408147,-0.429753,7.408147,-0.429753,170.000137,170.0,282.701508,70.871796,1124.999512,295.144135,278.397491,0.039815,-0.013083,1115.635742,0.004714,0.147947,0.057159,0.0,1.0,2668.526123,
Command_Fault: set /systems/pitot/serviceable true
110.850388,179.378494,180.571945,7.429261,-0.436387,7.429261,-0.436387,180.000137,180.0,288.333466,71.022873,1127.863037,295.330994,278.354675,0.045945,0.018143,1118.278809,0.006139,0.148163,0.052788,0.0,1.0,2668.804688,
93.710297,183.162354,184.355804,7.443532,-0.353537,7.443532,-0.353537,180.000137,180.0,292.097046,71.120613,1130.241577,295.440094,278.324158,0.055098,0.035469,1119.971558,0.006234,0.148585,0.043445,0.0,1.0,2668.97998,
93.717606,188.847931,190.041367,7.453979,-0.163063,7.453979,-0.163063,190.000137,190.0,297.757477,71.26268,1133.708374,295.495209,278.277466,0.069611,0.042254,1122.494995,0.005051,0.148871,0.03799,0.0,1.0,2669.225586,
93.725128,192.64537,193.838821,7.455051,-0.049824,7.455051,-0.049824,190.000137,190.0,301.539673,71.354408,1135.448486,295.447876,278.246094,0.074703,0.032685,1124.196045,0.002329,0.14908,0.035234,0.0,1.0,2669.382324,
93.743584,198.352005,199.545456,7.450354,0.004171,7.450354,0.004171,200.000137,200.0,307.221405,71.487755,1136.987793,295.292023,278.19809,0.072421,0.004642,1126.762451,7.12E-4,0.149101,0.037601,0.0,1.0,2669.616699,
93.760826,202.162766,203.356201,7.446444,-0.046534,7.446444,-0.046534,200.000137,200.0,311.012207,71.574005,1137.41626,295.178284,278.164795,0.064737,-0.014816,1128.447266,-6.0E-5,0.149007,0.045393,0.0,1.0,2669.7771,
93.791153,207.886673,209.080109,7.445372,-0.21845,7.445372,-0.21845,210.000137,210.0,316.700348,71.699699,1137.844849,295.085907,278.11203,0.049614,-0.029721,1130.858521,6.65E-4,0.148929,0.05108,0.0,1.0,2670.028076,
93.811241,211.706879,212.900314,7.449459,-0.345183,7.449459,-0.345183,210.000137,210.0,320.494019,71.781128,1138.383423,295.101288,278.075012,0.04214,-0.026471,1132.358032,0.003121,0.148907,0.055699,0.0,1.0,2670.200928,
93.835152,217.442719,218.636169,7.463579,-0.452396,7.463579,-0.452396,220.000137,220.0,326.189575,71.899742,1139.967041,295.227386,278.018097,0.039373,-0.004446,1134.440918,0.004931,0.148989,0.05493,0.0,1.0,2670.460938,
93.844704,221.27037,222.463821,7.476748,-0.444838,7.476748,-0.444838,220.000137,220.0,329.992218,71.976395,1141.627075,295.342957,277.980499,0.044143,0.014787,1135.744141,0.006463,0.149272,0.048625,0.0,1.0,2670.629395,
93.851379,227.018387,228.211838,7.491909,-0.31784,7.491909,-0.31784,230.000137,230.0,335.707886,72.087616,1144.575684,295.471405,277.92691,0.057169,0.035017,1137.646362,0.006355,0.149535,0.042847,0.0,1.0,2670.867188,
93.854271,230.855438,232.048889,7.497574,-0.198913,7.497574,-0.198913,230.000137,230.0,339.526398,72.159225,1146.4198,295.492889,277.893921,0.065299,0.037297,1138.921021,0.004541,0.149838,0.036424,0.0,1.0,2671.016113,
93.862442,236.619278,237.812729,7.496412,-0.065734,7.496412,-0.065734,240.000137,240.0,345.26413,72.262917,1148.4021,295.414154,277.848785,0.071202,0.021944,1140.875244,0.002842,0.149951,0.03535,0.0,1.0,2671.231689,
93.872375,240.467255,241.66069,7.492434,-0.042169,7.492434,-0.042169,240.000137,240.0,349.093353,72.329697,1149.03125,295.313263,277.821136,0.068692,0.004178,1142.194336,9.39E-4,0.149928,0.039287,0.0,1.0,2671.375732,
93.893661,246.24617,247.439621,7.487337,-0.129185,7.487337,-0.129185,250.000137,250.0,354.839508,72.426628,1149.34375,295.172516,277.782013,0.057532,-0.019663,1144.135742,6.02E-4,0.149849,0.044331,0.0,1.0,2671.598877,
93.910339,250.10257,251.296005,7.486425,-0.238476,7.486425,-0.238476,250.000137,250.0,358.670868,72.48922,1149.467773,295.125702,277.756927,0.048775,-0.027054,1145.365845,0.001845,0.149747,0.051369,0.0,1.0,2671.753906,
93.933907,255.890381,257.083832,7.492576,-0.394298,7.492576,-0.394298,260.000153,260.0,364.419464,72.580193,1150.076416,295.16391,277.720764,0.039554,-0.019487,1147.019287,0.003407,0.149729,0.053709,0.0,1.0,2671.99292,
93.945671,259.752472,260.945923,7.501674,-0.450867,7.501674,-0.450867,260.000153,260.0,368.254547,72.638878,1151.004639,295.24881,277.698212,0.039173,-0.004836,1148.087158,0.005633,0.149852,0.051799,0.0,1.0,2672.152588,
93.954872,265.549652,266.743103,7.517092,-0.416572,7.517092,-0.416572,260.000153,260.0,374.014709,72.723869,1153.109375,295.396881,277.668335,0.046757,0.019802,1149.588623,0.006441,0.150033,0.047554,0.0,1.0,2672.383789,
93.956726,269.417694,270.611145,7.526063,-0.331402,7.526063,-0.331402,270.000153,270.0,377.861237,72.778427,1154.764282,295.467834,277.652008,0.054709,0.030894,1150.563477,0.005951,0.150342,0.04015,0.0,1.0,2672.529297,
93.958763,275.225677,276.419098,7.530276,-0.177216,7.530276,-0.177216,270.000153,270.0,383.641052,72.857094,1156.958984,295.476929,277.633545,0.065277,0.03056,1152.046875,0.004734,0.150521,0.036603,0.0,1.0,2672.735352,
93.962746,279.101929,280.29538,7.528574,-0.101735,7.528574,-0.101735,280.000153,280.0,387.499298,72.907471,1157.882324,295.418549,277.625092,0.067677,0.019696,1153.06311,0.002532,0.150606,0.036148,0.0,1.0,2672.869141,
93.974937,284.922394,286.115814,7.522719,-0.093952,7.522719,-0.093952,280.000153,280.0,393.290558,72.980148,1158.457642,295.283478,277.616852,0.063133,-0.003964,1154.602295,0.001453,0.150571,0.039067,0.0,1.0,2673.071533,
93.986847,288.806122,289.999573,7.518994,-0.155742,7.518994,-0.155742,290.000153,290.0,397.152161,73.026825,1158.473511,295.201477,277.613373,0.056014,-0.017686,1155.605225,0.001342,0.150454,0.045821,0.0,1.0,2673.211182,
94.007225,294.63559,295.829041,7.518682,-0.303362,7.518682,-0.303362,290.000153,290.0,402.944489,73.094368,1158.509399,295.157349,277.610077,0.044335,-0.024219,1157.017944,0.002225,0.15038,0.049921,0.0,1.0,2673.429199,
94.019638,298.523834,299.717285,7.522818,-0.394924,7.522818,-0.394924,300.000153,300.0,406.806702,73.137787,1158.847656,295.191528,277.608948,0.039827,-0.017863,1157.880615,0.004334,0.150374,0.052127,0.0,1.0,2673.578369,
94.032112,304.358765,305.552216,7.534533,-0.447324,7.534533,-0.447324,300.000153,300.0,412.603668,73.200485,1160.039551,295.310242,277.609589,0.040543,0.00266,1159.06543,0.005642,0.150456,0.050418,0.0,1.0,2673.800781,
94.035439,308.250641,309.444092,7.544089,-0.416555,7.544089,-0.416555,310.000153,310.0,416.472534,73.240585,1161.276123,295.399719,277.612183,0.045833,0.017433,1159.808594,0.00639,0.150691,0.044482,0.0,1.0,2673.943604,
94.035789,314.092285,315.285736,7.552937,-0.293855,7.552937,-0.293855,310.000153,310.0,422.284241,73.298096,1163.318237,295.477905,277.62027,0.056845,0.029344,1160.913574,0.005951,0.150882,0.040009,0.0,1.0,2674.14624,
94.03598,317.989777,319.183228,7.554763,-0.200065,7.554763,-0.200065,320.000153,320.0,426.163971,73.334671,1164.443848,295.472473,277.628571,0.062443,0.027413,1161.671143,0.004198,0.151059,0.036099,0.0,1.0,2674.274902,
94.040466,323.840973,325.034424,7.551008,-0.118409,7.551008,-0.118409,320.000153,320.0,431.989166,73.386986,1165.428589,295.384186,277.644592,0.064615,0.011163,1162.848511,0.002858,0.151095,0.036371,0.0,1.0,2674.464355,
94.047302,327.744873,328.938293,7.546629,-0.123074,7.546629,-0.123074,330.000153,330.0,435.874268,73.42028,1165.574463,295.299225,277.656769,0.060982,-0.003494,1163.643555,0.001692,0.15102,0.040785,0.0,1.0,2674.592285,
94.062218,333.604248,334.797699,7.542314,-0.219344,7.542314,-0.219344,330.000153,330.0,441.701874,73.468056,1165.440308,295.202393,277.675629,0.050841,-0.019501,1164.797852,0.001758,0.150933,0.045033,0.0,1.0,2674.791504,
94.073387,337.512238,338.705658,7.542194,-0.311697,7.542194,-0.311697,340.000153,340.0,445.586578,73.498566,1165.40686,295.185181,277.687927,0.044313,-0.021854,1165.513306,0.003133,0.150846,0.049875,0.0,1.0,2674.929443,
94.087631,343.375946,344.569397,7.548357,-0.41918,7.548357,-0.41918,340.000153,340.0,451.414398,73.542351,1165.826172,295.244202,277.70578,0.039145,-0.010995,1166.484497,0.004453,0.150844,0.050735,0.0,1.0,2675.140381,
94.093224,347.286163,348.479614,7.555928,-0.442558,7.555928,-0.442558,350.000153,350.0,455.301636,73.57019,1166.556641,295.321716,277.71759,0.040601,0.002233,1167.072266,0.005988,0.150967,0.047784,0.0,1.0,2675.279785,
94.095306,353.153595,354.347015,7.566663,-0.383665,7.566663,-0.383665,350.000153,350.0,461.138367,73.609818,1168.135254,295.432678,277.736145,0.04855,0.020441,1167.908325,0.006322,0.151119,0.043909,0.0,1.0,2675.480713,
94.094246,357.067078,358.260529,7.571676,-0.304028,7.571676,-0.304028,360.000153,360.0,465.034088,73.634773,1169.263062,295.472321,277.749451,0.055008,0.026355,1168.466309,0.005481,0.151333,0.038361,0.0,1.0,2675.60791,
94.093628,362.940948,364.134399,7.571867,-0.187626,7.571867,-0.187626,360.000153,360.0,470.884094,73.669998,1170.565552,295.449554,277.770813,0.061936,0.021074,1169.340088,0.004343,0.151434,0.036378,0.0,1.0,2675.790771,
94.096008,366.859375,368.052826,7.568752,-0.144666,7.568752,-0.144666,370.000153,370.0,474.786774,73.692085,1170.961792,295.388367,277.785461,0.062221,0.01011,1169.948608,0.00268,0.151437,0.037517,0.0,1.0,2675.911377,
94.104744,372.740326,373.933746,7.563009,-0.170299,7.563009,-0.170299,370.000153,370.0,480.641876,73.723289,1170.984253,295.278473,277.806763,0.056379,-0.008762,1170.867676,0.002067,0.151375,0.040576,0.0,1.0,2676.095947,
94.113243,376.662598,377.856049,7.560106,-0.235572,7.560106,-0.235572,380.000153,380.0,484.544861,73.74292,1170.8125,295.224945,277.819672,0.050156,-0.01751,1171.456177,0.002433,0.15126,0.046071,0.0,1.0,2676.223633,
94.126801,382.547516,383.740936,7.560972,-0.355834,7.560972,-0.355834,380.000153,380.0,490.398529,73.770729,1170.719727,295.217743,277.836365,0.041704,-0.017844,1172.263062,0.003365,0.151202,0.048747,0.0,1.0,2676.421631,
94.133972,386.471405,387.664856,7.565186,-0.416643,7.565186,-0.416643,390.000153,390.0,494.3013,73.788193,1170.990234,295.262299,277.845734,0.039551,-0.009901,1172.742432,0.005083,0.151219,0.049107,0.0,1.0,2676.555908,
94.138992,392.357025,393.550476,7.574635,-0.428206,7.574635,-0.428206,390.000153,390.0,500.158508,73.812698,1171.954834,295.366791,277.857941,0.042541,0.007909,1173.34082,0.005952,0.151304,0.04688,0.0,1.0,2676.753906,
94.138802,396.282684,397.476135,7.581185,-0.384603,7.581185,-0.384603,400.000153,400.0,504.066589,73.827858,1172.883301,295.431488,277.865417,0.047718,0.018426,1173.772339,0.006117,0.151493,0.041655,0.0,1.0,2676.880859,
94.13623,402.173309,403.36673,7.585491,-0.275493,7.585491,-0.275493,400.000153,400.0,509.934692,73.848747,1174.259277,295.469482,277.876343,0.056395,0.023683,1174.424561,0.005494,0.151624,0.03842,0.0,1.0,2677.0625,
94.131805,406.102173,407.295593,7.584918,-0.206892,7.584918,-0.206892,410.000153,410.0,513.850037,73.861465,1174.883301,295.446472,277.883453,0.059727,0.01904,1174.880127,0.003936,0.15171,0.03652,0.0,1.0,2677.178955,
94.089371,411.998169,413.19162,7.579759,-0.173151,7.579759,-0.173151,410.000153,410.0,519.724792,73.878845,1174.791992,295.362457,277.893127,0.057632,0.003911,1175.587891,0.002956,0.151698,0.037671,0.0,1.0,2677.316895,
Command: turn_+45
94.064964,415.930084,417.123535,7.574393,-0.208515,7.574393,-0.208515,420.000153,420.0,523.639648,73.889442,1174.082764,295.304535,277.898438,0.052011,-0.006246,1176.045532,0.002474,0.151595,0.041872,0.0,1.0,2677.386963,
94.03112,421.828217,423.021667,7.56908,-0.349701,7.56908,-0.349701,420.000153,420.0,529.506165,73.904045,1172.500854,295.336273,277.903931,0.029493,-7.7E-4,1176.635376,9.93E-4,0.151488,0.1,0.0,1.0,2677.473877,
94.001892,425.75943,426.952881,7.575977,-0.443016,7.575977,-0.443016,430.000153,430.0,533.412781,73.912933,1171.609741,295.558929,277.906616,0.023689,0.03461,1176.925293,0.001665,0.151382,0.1,0.0,1.0,2677.52002,
93.932709,431.65387,432.84729,7.605192,-0.372022,7.605192,-0.372022,430.000153,430.0,539.27063,73.924652,1171.900024,296.082184,277.913239,0.039335,0.114423,1177.189575,0.00211,0.15152,0.1,0.0,1.0,2677.554932,
93.86779,435.582275,436.775726,7.626415,-0.14943,7.626415,-0.14943,430.000153,430.0,543.179138,73.931084,1173.305908,296.455963,277.922546,0.061977,0.16827,1177.294067,0.001772,0.152104,0.1,0.0,1.0,2677.543213,
93.753708,441.475281,442.668732,7.635867,0.393865,7.635867,0.393865,440.000153,440.0,549.052124,73.938156,1175.688232,296.911652,277.9487,0.103001,0.226821,1177.470337,7.12E-4,0.152528,0.1,0.0,1.0,2677.466064,
93.676758,445.405365,446.598816,7.628922,0.830203,7.628922,0.830203,440.000153,440.0,552.972656,73.940994,1176.466431,297.100372,277.976105,0.12797,0.244452,1177.655273,-0.001876,0.152717,0.1,0.0,1.0,2677.38208,
Command_Fault: set /systems/pitot/serviceable false
93.57296,451.302948,452.496399,7.606372,1.450095,7.606372,1.450095,450.000153,450.0,558.854187,73.942429,1175.747925,297.208374,278.033051,0.153262,0.239809,1178.028931,-0.003953,0.152578,0.1,0.0,1.0,2677.230469,
93.996246,455.235443,456.428894,7.588427,1.787147,7.588427,1.787147,450.000153,450.0,562.770447,73.941666,1173.907471,297.19754,278.080994,0.159777,0.222678,1178.285278,-0.006905,0.152127,0.1,0.0,1.0,2677.126709,
94.678551,461.132233,462.325653,7.566395,2.114091,7.566395,2.114091,460.000153,460.0,568.6297,73.938324,1169.713135,297.144745,278.16568,0.155742,0.19101,1178.525757,-0.00851,0.151769,0.1,0.0,1.0,2676.983398,
95.130249,465.059814,466.253265,7.551483,2.223994,7.551483,2.223994,460.000153,460.0,572.523071,73.934891,1166.341553,297.13559,278.229309,0.14703,0.1745,1178.497192,-0.010067,0.151328,0.1,0.0,1.0,2676.900879,
95.784019,470.776764,471.970215,7.531886,2.272047,7.531886,2.272047,470.000153,470.0,578.179626,73.92849,1161.093994,297.215912,278.330841,0.133412,0.16569,1177.955933,-0.01059,0.15103,0.1,0.0,1.0,2676.800781,
96.247314,474.854279,476.047729,7.517469,2.271878,7.517469,2.271878,470.000153,470.0,582.20459,73.92305,1157.446533,297.353699,278.409576,0.123909,0.172076,1177.383301,-0.010819,0.150638,0.1,0.0,1.0,2676.741211,
96.908905,480.709991,481.903412,7.500903,2.290016,7.500903,2.290016,480.000153,480.0,587.97937,73.91404,1152.739868,297.653137,278.532959,0.118811,0.196128,1175.989258,-0.010818,0.150349,0.1,0.0,1.0,2676.66626,
97.346237,484.60318,485.796631,7.490775,2.341205,7.490775,2.341205,480.000153,480.0,591.8172,73.907227,1150.119873,297.894135,278.622833,0.120388,0.217405,1174.749512,-0.010905,0.150018,0.1,0.0,1.0,2676.617676,
97.996681,490.426758,491.620209,7.478086,2.490286,7.478086,2.490286,490.000153,490.0,597.559082,73.895729,1146.852539,298.268097,278.771057,0.128366,0.248732,1172.508179,-0.011149,0.149815,0.1,0.0,1.0,2676.541016,
98.426704,494.298584,495.492035,7.46848,2.629988,7.46848,2.629988,490.000153,490.0,601.378601,73.887154,1144.946899,298.50119,278.879822,0.135449,0.265289,1170.81897,-0.011859,0.149562,0.1,0.0,1.0,2676.485352,
99.066483,500.091125,501.284576,7.453634,2.863431,7.453634,2.863431,500.000153,500.0,607.096008,73.872879,1142.065063,298.803558,279.058777,0.145294,0.280215,1168.088013,-0.012524,0.14937,0.1,0.0,1.0,2676.396729,
99.489594,503.943024,505.136475,7.44212,3.015333,7.44212,3.015333,500.000153,500.0,610.899292,73.862442,1139.953003,298.972504,279.18869,0.149767,0.283779,1166.175781,-0.013635,0.149073,0.1,0.0,1.0,2676.337402,
100.11924,509.706329,510.89978,7.425665,3.202225,7.425665,3.202225,510.000153,510.0,616.590027,73.845543,1136.366577,299.192657,279.398895,0.15225,0.282532,1163.205566,-0.014359,0.148842,0.1,0.0,1.0,2676.25293,
100.535698,513.538635,514.732117,7.413589,3.293492,7.413589,3.293492,510.000153,510.0,620.373413,73.833534,1133.722046,299.331665,279.548645,0.151286,0.279961,1161.161621,-0.015249,0.148513,0.1,0.0,1.0,2676.202637,
101.155441,519.271729,520.46521,7.396815,3.378,7.396815,3.378,520.000122,520.0,626.031189,73.814568,1129.509155,299.553345,279.78653,0.147395,0.277622,1157.990845,-0.015683,0.148272,0.1,0.0,1.0,2676.138672,
101.565308,523.08313,524.276611,7.384707,3.409712,7.384707,3.409712,520.000122,520.0,629.791321,73.801384,1126.663696,299.720001,279.953339,0.144299,0.278745,1155.799805,-0.016086,0.147936,0.1,0.0,1.0,2676.10376,
102.175194,528.78363,529.977112,7.368476,3.439614,7.368476,3.439614,530.000122,530.0,635.413879,73.780899,1122.52356,300.004974,280.21524,0.140621,0.285312,1152.3927,-0.016237,0.147694,0.1,0.0,1.0,2676.061523,
102.578522,532.572693,533.766174,7.357264,3.460196,7.357264,3.460196,530.000122,530.0,639.151123,73.766823,1119.949707,300.215637,280.397369,0.13945,0.292403,1150.046265,-0.016379,0.14737,0.1,0.0,1.0,2676.038818,
103.178711,538.239441,539.432861,7.342884,3.505366,7.342884,3.505366,540.000122,540.0,644.741577,73.745094,1116.415771,300.551086,280.68161,0.139853,0.305043,1146.438599,-0.016477,0.147145,0.1,0.0,1.0,2676.009766,
103.575691,542.006165,543.199585,7.33308,3.548263,7.33308,3.548263,540.000122,540.0,648.459229,73.730202,1114.281982,300.779175,280.878357,0.14127,0.313381,1143.995605,-0.016692,0.146858,0.1,0.0,1.0,2675.992676,
104.16658,547.640259,548.833679,7.320255,3.627411,7.320255,3.627411,550.000122,550.0,654.022888,73.707268,1111.298828,301.115814,281.18396,0.144206,0.3238,1140.314575,-0.016896,0.146662,0.1,0.0,1.0,2675.969482,
104.557526,551.386047,552.579468,7.311251,3.685516,7.311251,3.685516,550.000122,550.0,657.723938,73.691589,1109.401123,301.332214,281.394348,0.146101,0.328745,1137.87146,-0.017273,0.146405,0.1,0.0,1.0,2675.955811,
105.139626,556.989868,558.18335,7.299076,3.76826,7.299076,3.76826,560.000122,560.0,663.263611,73.667534,1106.567871,301.643738,281.718933,0.148087,0.33315,1134.251465,-0.01755,0.146225,0.1,0.0,1.0,2675.938721,
105.524872,560.716248,561.909668,7.290363,3.816329,7.290363,3.816329,560.000122,560.0,666.948914,73.651176,1104.663818,301.84491,281.940704,0.148615,0.334584,1131.87793,-0.017944,0.145982,0.1,0.0,1.0,2675.93042,
106.098618,566.291809,567.485291,7.278452,3.871353,7.278452,3.871353,570.000122,570.0,672.464722,73.626213,1101.759888,302.143982,282.280182,0.14829,0.335729,1128.383301,-0.018173,0.145807,0.1,0.0,1.0,2675.924316,
106.478424,569.999756,571.193176,7.269917,3.897595,7.269917,3.897595,570.000122,570.0,676.133911,73.609337,1099.820801,302.345612,282.510315,0.147556,0.336558,1126.096802,-0.018435,0.145569,0.1,0.0,1.0,2675.924561,
107.044159,575.548157,576.741577,7.258366,3.924171,7.258366,3.924171,580.000122,580.0,681.62561,73.58374,1096.950317,302.65683,282.860077,0.146221,0.338767,1122.727417,-0.01856,0.145398,0.1,0.0,1.0,2675.931641,
107.418724,579.238159,580.431641,7.250228,3.937381,7.250228,3.937381,580.000122,580.0,685.27887,73.566521,1095.107056,302.871277,283.095673,0.145472,0.341072,1120.519653,-0.018687,0.145167,0.1,0.0,1.0,2675.94043,
107.976738,584.760132,585.953552,7.239492,3.955932,7.239492,3.955932,580.000122,580.0,690.747559,73.540512,1092.480225,303.202637,283.451782,0.144885,0.345588,1117.265747,-0.018749,0.145005,0.1,0.0,1.0,2675.958984,
108.34626,588.432922,589.626343,7.232076,3.970223,7.232076,3.970223,590.000122,590.0,694.386292,73.523056,1090.843994,303.428009,283.690552,0.144906,0.348968,1115.137695,-0.018838,0.14479,0.1,0.0,1.0,2675.974609,
108.896881,593.929749,595.123169,7.222414,3.996021,7.222414,3.996021,590.000122,590.0,699.834534,73.496742,1088.540649,303.768768,284.049957,0.145444,0.353928,1112.015381,-0.018906,0.144642,0.1,0.0,1.0,2676.001465,
109.261589,597.586365,598.779785,7.215746,4.015995,7.215746,4.015995,600.000122,600.0,703.46051,73.479118,1087.10083,303.995514,284.289978,0.145987,0.356814,1109.986084,-0.019029,0.144448,0.1,0.0,1.0,2676.021729,
109.805077,603.058777,604.252197,7.206967,4.047283,7.206967,4.047283,600.000122,600.0,708.890625,73.452583,1085.031982,304.332672,284.649933,0.146817,0.360191,1106.976563,-0.019124,0.144315,0.1,0.0,1.0,2676.055176,
110.165237,606.700623,607.894043,7.200826,4.067574,7.200826,4.067574,610.000122,610.0,712.505066,73.434845,1083.704224,304.555054,284.889374,0.147206,0.361787,1105.086182,-0.019273,0.144139,0.1,0.0,1.0,2676.080078,
110.702179,612.152832,613.346252,7.192617,4.093892,7.192617,4.093892,610.000122,610.0,717.918518,73.408195,1081.751221,304.886169,285.24704,0.147458,0.363427,1102.336426,-0.019369,0.144017,0.1,0.0,1.0,2676.121094,
111.057983,615.780823,616.974243,7.186825,4.108211,7.186825,4.108211,620.000122,620.0,721.522156,73.390419,1080.478638,305.106262,285.48407,0.147405,0.364228,1100.561646,-0.019495,0.143852,0.1,0.0,1.0,2676.150879,
