airspeed_indicator_indicated_speed_kt,altimeter_indicated_altitude_ft,altimeter_pressure_alt_ft,attitude_indicator_indicated_pitch_deg,attitude_indicator_indicated_roll_deg,attitude_indicator_internal_pitch_deg,attitude_indicator_internal_roll_deg,encoder_indicated_altitude_ft,encoder_pressure_alt_ft,gps_indicated_altitude_ft,gps_indicated_ground_speed_kt,gps_indicated_vertical_speed,indicated_heading_deg,magnetic_compass_indicated_heading_deg,slip_skid_ball_indicated_slip_skid,turn_indicator_indicated_turn_rate,vertical_speed_indicator_indicated_speed_fpm,flight_aileron,flight_elevator,flight_rudder,flight_flaps,engine_throttle,engine_rpm,
Command: takeoff
24.940138,-199.481812,-198.288376,3.049401,1.357882,2.696857,0.182737,-199.999863,-200.0,18.855415,3.77E-4,0.001608,297.86734,15.287883,-0.046946,-0.044627,-1669.852783,-0.0,0.0,0.0,0.0,0.0,601.799316,
24.958271,-204.870346,-203.67691,3.054315,1.375192,2.69661,0.182844,-199.999863,-200.0,18.855421,3.7E-4,0.001608,297.866486,14.881424,-0.04696,-0.040368,-1670.16626,-0.0,0.0,0.0,0.0,0.0,601.656677,
24.98188,-212.962204,-211.768768,2.857098,0.745817,2.688191,0.182794,-209.999863,-210.0,18.855389,3.81E-4,-0.01514,297.865173,14.271153,-0.047105,-0.034752,-1670.8479,-0.019646,0.053932,4.3E-5,0.0,1.0,674.844238,
24.980328,-218.373062,-217.179626,2.727023,0.381641,2.667003,0.181575,-209.999863,-210.0,18.855309,4.8E-4,-0.034065,297.864197,13.868531,-0.04728,-0.031505,-1671.811646,-0.010655,0.053764,1.08E-4,0.0,1.0,788.120789,
25.00144,-226.471832,-225.278397,2.608836,0.176071,2.608836,0.176071,-219.999863,-220.0,18.855103,9.85E-4,-0.024519,297.862396,13.278275,-0.048355,-0.027334,-1672.36145,-0.005452,0.05334,1.57E-4,0.0,1.0,1012.001587,
25.119259,-230.827789,-229.634354,2.589502,0.17113,2.589502,0.17113,-229.999863,-230.0,18.855104,0.001989,0.024117,297.861359,12.976012,-0.048903,-0.025426,-1675.727783,-0.002515,0.052177,2.47E-4,0.0,1.0,1141.672241,
25.008661,-240.064972,-238.871521,2.58962,0.156717,2.58962,0.156717,-239.999863,-240.0,18.855633,0.008563,0.161719,297.859039,12.352521,-0.046778,-0.021903,-1675.810303,-0.002445,0.05179,2.99E-4,0.0,1.0,1416.517944,
25.047661,-245.453995,-244.260544,2.603354,0.146606,2.603354,0.146606,-239.999863,-240.0,18.856333,0.016907,0.257484,297.85733,12.009352,-0.05105,-0.020192,-1675.224731,-0.002239,0.051792,4.15E-4,0.0,1.0,1562.413086,
25.122318,-253.544662,-252.351212,2.628701,0.130677,2.628701,0.130677,-249.999863,-250.0,18.858034,0.038543,0.425869,297.852966,11.530108,-0.054304,-0.018274,-1674.691162,-0.002094,0.052067,5.01E-4,0.0,1.0,1750.082031,
25.215841,-261.191711,-259.99826,2.651169,0.115748,2.651169,0.115748,-259.999847,-260.0,18.860489,0.07176,0.616596,297.842834,11.121272,-0.063175,-0.017645,-1674.435791,-0.001867,0.052574,7.19E-4,0.0,1.0,1890.58728,
25.304665,-267.043793,-265.850342,2.665256,0.105549,2.665256,0.105549,-259.999847,-260.0,18.863012,0.107104,0.780258,297.830261,10.839897,-0.062932,-0.017999,-1674.390625,-0.001654,0.053023,0.001225,0.0,1.0,1975.45813,
24.83536,-272.386993,-271.193573,2.675357,0.097144,2.675357,0.097144,-269.999847,-270.0,18.865898,0.148218,0.946365,297.81366,10.605548,-0.057492,-0.019038,-1672.000977,-0.001508,0.053305,0.001854,0.0,1.0,2038.563721,
21.730711,-278.924164,-277.730713,2.686225,0.086712,2.686225,0.086712,-279.999847,-280.0,18.871321,0.226313,1.218822,297.782227,10.301431,-0.050787,-0.02137,-1612.881836,-0.001388,0.053507,0.002684,0.0,1.0,2110.509033,
19.989052,-282.306244,-281.112793,2.69146,0.081151,2.69146,0.081151,-279.999847,-280.0,18.875723,0.28986,1.414941,297.757202,10.130979,-0.047246,-0.023343,-1539.768555,-0.001239,0.053725,0.004256,0.0,1.0,2146.179688,
17.84824,-286.259033,-285.065582,2.696805,0.074639,2.696805,0.074639,-279.999847,-280.0,18.883577,0.402976,1.721296,297.716644,9.924157,-0.043135,-0.026352,-1394.435425,-0.001159,0.053829,0.005507,0.0,1.0,2185.503906,
16.720083,-288.303131,-287.10968,2.699399,0.071271,2.699399,0.071271,-289.999847,-290.0,18.889683,0.490423,1.932925,297.688202,9.81868,-0.041004,-0.028313,-1279.755005,-0.001066,0.053936,0.007535,0.0,1.0,2204.332764,
15.448853,-290.690674,-289.497223,2.702237,0.067316,2.702237,0.067316,-289.999847,-290.0,18.900187,0.639725,2.260315,297.647644,9.708151,-0.038518,-0.03051,-1088.725952,-0.001018,0.053988,0.008957,0.0,1.0,2224.329346,
14.863037,-291.924255,-290.730804,2.703801,0.065183,2.703801,0.065183,-289.999847,-290.0,18.908108,0.751296,2.481523,297.622742,9.665392,-0.037135,-0.03144,-952.32666,-9.62E-4,0.054045,0.010985,0.0,1.0,2233.44873,
14.336745,-293.363342,-292.169891,2.705815,0.062446,2.705815,0.062446,-289.999847,-290.0,18.921385,0.936498,2.820336,297.592651,9.645695,-0.03529,-0.031494,-739.854553,-9.31E-4,0.054076,0.01223,0.0,1.0,2242.498047,
14.190383,-294.105621,-292.91217,2.70713,0.060798,2.70713,0.060798,-289.999847,-290.0,18.931175,1.071687,3.04419,297.577881,9.66082,-0.034041,-0.030691,-596.565491,-8.92E-4,0.054116,0.013734,0.0,1.0,2246.188477,
14.199708,-294.969543,-293.776123,2.709462,0.058821,2.709462,0.058821,-289.999847,-290.0,18.947268,1.29169,3.382467,297.565308,9.723225,-0.03196,-0.028101,-387.832977,-8.69E-4,0.054143,0.014473,0.0,1.0,2249.218506,
14.346403,-295.413727,-294.220276,2.711463,0.057986,2.711463,0.057986,-289.999847,-290.0,18.958935,1.449597,3.608331,297.562439,9.789584,-0.030513,-0.025714,-261.843475,-8.4E-4,0.054189,0.015102,0.0,1.0,2249.983643,
14.731086,-295.928436,-294.734985,2.715168,0.057143,2.715168,0.057143,-289.999847,-290.0,18.977877,1.702875,3.988076,297.565002,9.923066,-0.028355,-0.021486,-124.011391,-8.28E-4,0.054229,0.015245,0.0,1.0,2249.760742,
15.073257,-296.191376,-294.997955,2.722842,0.053279,2.722842,0.053279,-289.999847,-290.0,18.991844,1.882401,4.328865,297.569885,10.032693,-0.027672,-0.018608,-82.395432,-8.16E-4,0.054303,0.015117,0.0,1.0,2248.964111,
15.682538,-296.493378,-295.299957,2.733337,0.043284,2.733337,0.043284,-299.999847,-300.0,19.014505,2.167215,4.790106,297.579712,10.224644,-0.025004,-0.014502,-55.727539,-7.61E-4,0.054457,0.014873,0.0,1.0,2248.845215,
16.137924,-296.645691,-295.45224,2.736014,0.042874,2.736014,0.042874,-299.999847,-300.0,19.03088,2.367169,5.021731,297.586548,10.368912,-0.02311,-0.011914,-43.890789,-6.18E-4,0.054667,0.014381,0.0,1.0,2249.519043,
16.833897,-296.809509,-295.616058,2.738214,0.043954,2.738214,0.043954,-299.999847,-300.0,19.055408,2.663854,5.356089,297.594116,10.592134,-0.021747,-0.008984,-31.044832,-6.12E-4,0.05472,0.01404,0.0,1.0,2251.063965,
17.396833,-296.902008,-295.708557,2.74046,0.04494,2.74046,0.04494,-299.999847,-300.0,19.075232,2.901089,5.613004,297.597321,10.775161,-0.021178,-0.007416,-23.520901,-6.28E-4,0.054764,0.013661,0.0,1.0,2252.521973,
18.208508,-296.993835,-295.800415,2.744233,0.046409,2.744233,0.046409,-299.999847,-300.0,19.104212,3.243991,5.970173,297.596954,11.041934,-0.021165,-0.006267,-18.347887,-6.42E-4,0.054809,0.013501,0.0,1.0,2254.746826,
18.765303,-297.036469,-295.843048,2.747058,0.047417,2.747058,0.047417,-299.999847,-300.0,19.124523,3.481673,6.207861,297.593536,11.225908,-0.021532,-0.006091,-18.204865,-6.63E-4,0.054885,0.013519,0.0,1.0,2256.29834,
19.617613,-297.078735,-295.885284,2.751461,0.048972,2.751461,0.048972,-299.999847,-300.0,19.156481,3.851453,6.567039,297.584412,11.506916,-0.022515,-0.006467,-17.168997,-6.77E-4,0.054941,0.01369,0.0,1.0,2258.666016,
20.194441,-297.095276,-295.901825,2.754601,0.049976,2.754601,0.049976,-299.999847,-300.0,19.178782,4.106603,6.805264,297.576324,11.695256,-0.02333,-0.006994,-17.811848,-7.0E-4,0.055029,0.014146,0.0,1.0,2260.251465,
21.069021,-297.106323,-295.912903,2.759421,0.051322,2.759421,0.051322,-299.999847,-300.0,19.213726,4.501925,7.16481,297.563324,11.975378,-0.024569,-0.007809,-5.846534,-7.14E-4,0.055092,0.014551,0.0,1.0,2262.622559,
21.656733,-297.106262,-295.912811,2.76284,0.052103,2.76284,0.052103,-299.999847,-300.0,19.23802,4.773673,7.403001,297.554932,12.158387,-0.025264,-0.008239,-5.003808,-7.33E-4,0.055188,0.015201,0.0,1.0,2264.194092,
22.543268,-297.09726,-295.903809,2.768036,0.052962,2.768036,0.052962,-299.999847,-300.0,19.275955,5.193258,7.762514,297.54483,12.423898,-0.02592,-0.008409,11.364898,-7.44E-4,0.055257,0.01562,0.0,1.0,2266.534912,
23.136719,-297.086365,-295.892914,2.771695,0.053396,2.771695,0.053396,-299.999847,-300.0,19.302242,5.480766,7.999935,297.540192,12.593107,-0.026031,-0.008176,12.843279,-7.57E-4,0.055361,0.016126,0.0,1.0,2268.084961,
24.029394,-297.064026,-295.870575,2.777216,0.053801,2.777216,0.053801,-299.999847,-300.0,19.343163,5.923385,8.357338,297.537231,12.832506,-0.025673,-0.007249,17.804268,-7.63E-4,0.055434,0.016357,0.0,1.0,2270.395752,
24.625673,-297.045776,-295.852356,2.781072,0.054014,2.781072,0.054014,-299.999847,-300.0,19.371435,6.225851,8.596466,297.537659,12.981127,-0.025138,-0.006331,13.270708,-7.69E-4,0.055544,0.016505,0.0,1.0,2271.928467,
25.522202,-297.014252,-295.820801,2.765484,0.05442,2.765484,0.05442,-299.999847,-300.0,19.414152,6.690328,7.863338,297.541168,13.185605,-0.023967,-0.004672,20.458502,-7.72E-4,0.055621,0.016484,0.0,1.0,2274.218018,
26.423775,-296.979462,-295.786041,2.76203,0.054847,2.76203,0.054847,-299.999847,-300.0,19.453629,7.167436,8.066693,297.547058,13.365948,-0.022723,-0.002898,22.006876,-7.77E-4,0.05531,0.016309,0.0,1.0,2276.501221,
27.02445,-296.954987,-295.761536,2.768111,0.055284,2.768111,0.055284,-299.999847,-300.0,19.480906,7.492337,8.287934,297.550568,13.471916,-0.022047,-0.001934,18.931887,-7.81E-4,0.055195,0.016115,0.0,1.0,2278.020996,
27.924988,-296.916443,-295.723022,2.776937,0.056263,2.776937,0.056263,-299.999847,-300.0,19.523203,7.989642,8.680575,297.553558,13.608627,-0.021487,-0.001018,17.838596,-7.9E-4,0.055362,0.015839,0.0,1.0,2280.298096,
28.52409,-296.889557,-295.696106,2.79143,0.052712,2.79143,0.052712,-299.999847,-300.0,19.5534,8.327641,9.381515,297.553101,13.684617,-0.021874,-9.76E-4,13.744969,-7.98E-4,0.055478,0.015718,0.0,1.0,2281.814941,
29.421366,-296.847015,-295.653564,2.799503,0.053683,2.799503,0.053683,-299.999847,-300.0,19.601103,8.844033,9.692358,297.548584,13.775711,-0.022181,-0.001368,14.684358,-7.53E-4,0.055829,0.015712,0.0,1.0,2284.088135,
30.019274,-296.817322,-295.623871,2.802825,0.054841,2.802825,0.054841,-299.999847,-300.0,19.633783,9.194398,9.908174,297.543243,13.82117,-0.022914,-0.001951,22.836311,-7.6E-4,0.055954,0.015837,0.0,1.0,2285.603027,
30.915722,-296.770874,-295.577423,2.802179,0.056778,2.802179,0.056778,-299.999847,-300.0,19.68388,9.728832,10.006652,297.532532,13.866638,-0.024553,-0.003121,19.50164,-7.83E-4,0.056056,0.016205,0.0,1.0,2287.875488,
31.515247,-296.739044,-295.545593,2.788656,0.058012,2.788656,0.058012,-299.999847,-300.0,19.714743,10.090913,9.17997,297.524994,13.882037,-0.025553,-0.003856,19.731903,-8.01E-4,0.05613,0.01655,0.0,1.0,2289.391113,
32.413815,-296.690918,-295.497467,2.794867,0.059468,2.794867,0.059468,-299.999847,-300.0,19.761518,10.642492,9.514092,297.514282,13.88341,-0.02704,-0.004746,19.97307,-8.29E-4,0.055773,0.017117,0.0,1.0,2291.667236,
33.01186,-296.658417,-295.464966,2.800991,0.060223,2.800991,0.060223,-299.999847,-300.0,19.793585,11.015701,9.716577,297.508301,13.870426,-0.027743,-0.005078,20.191246,-8.43E-4,0.055837,0.017484,0.0,1.0,2293.185791,
33.907578,-296.608887,-295.415436,2.808963,0.061061,2.808963,0.061061,-299.999847,-300.0,19.84296,11.5835,10.186794,297.501801,13.831373,-0.02823,-0.005132,20.585735,-8.6E-4,0.05602,0.017952,0.0,1.0,2295.465332,
34.502857,-296.575226,-295.381775,2.824561,0.054744,2.824561,0.054744,-299.999847,-300.0,19.878164,11.967207,10.967755,297.499329,13.793177,-0.028484,-0.00504,21.003393,-8.72E-4,0.056179,0.018277,0.0,1.0,2296.98584,
35.393494,-296.52301,-295.32959,2.833389,0.054147,2.833389,0.054147,-299.999847,-300.0,19.933744,12.550267,11.255486,297.498901,13.719551,-0.027201,-0.004186,21.851997,-7.82E-4,0.056491,0.018401,0.0,1.0,2299.266846,
35.986568,-296.487122,-295.293671,2.837194,0.054246,2.837194,0.054246,-299.999847,-300.0,19.971609,12.943837,11.454788,297.500397,13.660711,-0.026167,-0.003401,22.383322,-7.74E-4,0.056668,0.018422,0.0,1.0,2300.788086,
36.876152,-296.431793,-295.238342,2.823739,0.05753,2.823739,0.05753,-299.999847,-300.0,20.027512,13.541266,10.164788,297.504272,13.559805,-0.023962,-0.002034,23.00079,-7.75E-4,0.056744,0.018347,0.0,1.0,2303.071045,
37.470837,-296.394684,-295.201233,2.821564,0.058462,2.821564,0.058462,-299.999847,-300.0,20.061747,13.944164,10.375813,297.507416,13.485238,-0.023116,-0.001197,22.936069,-8.22E-4,0.056475,0.018153,0.0,1.0,2304.594482,
38.360558,-296.33905,-295.145599,2.830434,0.05935,2.830434,0.05935,-299.999847,-300.0,20.114426,14.555222,10.67748,297.510681,13.364458,-0.022118,-3.37E-4,22.981651,-8.35E-4,0.056431,0.017996,0.0,1.0,2306.88208,
38.952126,-296.301758,-295.108307,2.843314,0.056165,2.843314,0.056165,-299.999847,-300.0,20.151022,14.966935,11.374599,297.510986,13.279217,-0.022374,-2.54E-4,23.13925,-8.48E-4,0.056609,0.017833,0.0,1.0,2308.408203,
39.835903,-296.244629,-295.051208,2.856591,0.053931,2.856591,0.053931,-299.999847,-300.0,20.210333,15.590781,11.995517,297.507935,13.146468,-0.022087,-5.69E-4,23.818739,-8.02E-4,0.056866,0.017818,0.0,1.0,2310.69751,
40.424206,-296.205627,-295.012177,2.860728,0.054937,2.860728,0.054937,-299.999847,-300.0,20.250635,16.010738,12.179109,297.50354,13.05592,-0.022514,-0.00108,22.580261,-7.7E-4,0.057132,0.01797,0.0,1.0,2312.224121,
41.305187,-296.145752,-294.952332,2.866394,0.056777,2.866394,0.056777,-289.999847,-290.0,20.312256,16.646561,12.462284,297.494293,12.918857,-0.023868,-0.002154,22.990398,-7.85E-4,0.057215,0.01819,0.0,1.0,2314.51416,
41.890266,-296.105225,-294.911774,2.860011,0.0582,2.860011,0.0582,-289.999847,-290.0,20.352911,17.074253,11.493344,297.486938,12.827652,-0.025086,-0.002954,19.073971,-8.11E-4,0.057328,0.018652,0.0,1.0,2316.037598,
42.76786,-296.044861,-294.85144,2.860887,0.059911,2.860887,0.059911,-289.999847,-290.0,20.410959,17.72134,11.678008,297.47641,12.692671,-0.026889,-0.003934,23.646168,-8.31E-4,0.0572,0.01902,0.0,1.0,2318.311768,
43.327061,-296.006592,-294.813141,2.866182,0.060991,2.866182,0.060991,-289.999847,-290.0,20.448793,18.138138,11.951705,297.470367,12.6084,-0.027709,-0.004373,21.532314,-8.56E-4,0.057218,0.019546,0.0,1.0,2319.760498,
44.223267,-295.945068,-294.751617,2.874129,0.06215,2.874129,0.06215,-289.999847,-290.0,20.510925,18.813963,12.221516,297.463257,12.477562,-0.028832,-0.00459,15.652334,-8.71E-4,0.057324,0.019849,0.0,1.0,2322.896729,
44.803326,-295.904907,-294.711456,2.878949,0.062832,2.878949,0.062832,-289.999847,-290.0,20.55197,19.255735,12.396232,297.460632,12.396633,-0.029014,-0.004406,19.245552,-8.88E-4,0.057483,0.020204,0.0,1.0,2325.703125,
45.672203,-295.844238,-294.650787,2.880369,0.061207,2.880369,0.061207,-289.999847,-290.0,20.614256,19.923241,11.566467,297.459747,12.282347,-0.028636,-0.003747,15.703283,-8.98E-4,0.057579,0.020335,0.0,1.0,2330.588379,
46.252491,-295.803741,-294.610321,2.878644,0.061148,2.878644,0.061148,-289.999847,-290.0,20.653526,20.371401,11.859893,297.461029,12.211587,-0.02778,-0.003036,23.005508,-8.74E-4,0.057607,0.02038,0.0,1.0,2334.131348,
47.12188,-295.743286,-294.549866,2.8857,0.061597,2.8857,0.061597,-289.999847,-290.0,20.71352,21.048244,12.125317,297.464355,12.114628,-0.026164,-0.001889,18.336538,-8.74E-4,0.057573,0.020316,0.0,1.0,2339.702637,
47.701015,-295.702972,-294.509552,2.890948,0.061983,2.890948,0.061983,-289.999847,-290.0,20.754232,21.502466,12.294572,297.466553,12.056623,-0.025041,-0.001228,15.564732,-8.8E-4,0.057714,0.020149,0.0,1.0,2343.525391,
48.569233,-295.642242,-294.448792,2.898196,0.062437,2.898196,0.062437,-289.999847,-290.0,20.816338,22.188166,12.663766,297.468201,11.980263,-0.023869,-6.35E-4,21.772097,-8.85E-4,0.057819,0.020039,0.0,1.0,2349.358154,
49.15107,-295.601929,-294.408478,2.871972,0.060622,2.871972,0.060622,-289.999847,-290.0,20.851414,22.648159,9.818678,297.467804,11.936726,-0.023215,-5.54E-4,17.237671,-8.92E-4,0.057964,0.019957,0.0,1.0,2353.291504,
50.024734,-295.543762,-294.350311,2.876306,0.061475,2.876306,0.061475,-289.999847,-290.0,20.901237,23.342375,10.093179,297.464722,11.882684,-0.02287,-7.81E-4,23.600906,-8.66E-4,0.057439,0.019977,0.0,1.0,2359.241455,
50.606327,-295.506165,-294.312714,2.883088,0.062402,2.883088,0.062402,-289.999847,-290.0,20.935152,23.807932,10.245317,297.460388,11.854198,-0.023134,-0.001261,23.117794,-8.78E-4,0.057526,0.020131,0.0,1.0,2363.22998,
51.478046,-295.450867,-294.257416,2.891284,0.064024,2.891284,0.064024,-289.999847,-290.0,20.986912,24.510275,10.449812,297.451294,11.822677,-0.024197,-0.002293,22.64732,-8.91E-4,0.057662,0.020348,0.0,1.0,2369.236084,
52.058807,-295.414459,-294.221008,2.896073,0.065174,2.896073,0.065174,-289.999847,-290.0,21.021975,24.981108,10.581518,297.444092,11.808962,-0.025235,-0.003069,22.466537,-9.15E-4,0.057826,0.020802,0.0,1.0,2373.252441,
52.929413,-295.360168,-294.166748,2.902576,0.066764,2.902576,0.066764,-289.999847,-290.0,21.075382,25.691156,10.777102,297.433441,11.798903,-0.026928,-0.004052,22.344713,-9.31E-4,0.057921,0.021162,0.0,1.0,2379.291992,
53.509449,-295.324066,-294.130615,2.90704,0.067728,2.90704,0.067728,-289.999847,-290.0,21.111534,26.166992,10.90834,297.427216,11.798887,-0.027953,-0.004492,22.342016,-9.54E-4,0.058052,0.021695,0.0,1.0,2383.327393,
54.378948,-295.269775,-294.076324,2.913525,0.06884,2.913525,0.06884,-289.999847,-290.0,21.166574,26.884342,11.102551,297.420593,11.808287,-0.028982,-0.004638,22.427879,-9.68E-4,0.058141,0.022006,0.0,1.0,2389.391846,
54.958221,-295.233429,-294.039978,2.918007,0.069438,2.918007,0.069438,-289.999847,-290.0,21.203814,27.364914,11.233788,297.418243,11.820452,-0.029223,-0.004404,22.532492,-9.83E-4,0.05827,0.022337,0.0,1.0,2393.442383,
55.825314,-295.178162,-293.984711,2.932706,0.05097,2.932706,0.05097,-289.999847,-290.0,21.263714,28.089159,12.401494,297.417511,11.846947,-0.029117,-0.004107,23.032537,-9.92E-4,0.05836,0.022455,0.0,1.0,2399.527832,
56.402477,-295.140411,-293.94696,2.938559,0.050856,2.938559,0.050856,-289.999847,-290.0,21.305275,28.574181,12.528344,297.418762,11.869927,-0.028037,-0.003375,23.510862,-7.28E-4,0.058654,0.022491,0.0,1.0,2403.5896,
57.267941,-295.082428,-293.888977,2.944185,0.051242,2.944185,0.051242,-289.999847,-290.0,21.368416,29.304899,12.72443,297.421509,11.911681,-0.026011,-0.002281,18.801935,-7.27E-4,0.058771,0.022429,0.0,1.0,2409.690674,
57.84457,-295.042938,-293.849487,2.94818,0.051571,2.94818,0.051571,-289.999847,-290.0,21.411068,29.794111,12.862066,297.423035,11.943889,-0.0246,-0.001688,21.483486,-7.32E-4,0.058884,0.022292,0.0,1.0,2413.763916,
58.708981,-294.982513,-293.789093,2.954215,0.05221,2.954215,0.05221,-289.999847,-290.0,21.475904,30.530931,13.067062,297.423523,11.997863,-0.022715,-0.001198,23.897717,-7.37E-4,0.058964,0.022215,0.0,1.0,2419.882324,
59.284882,-294.941528,-293.748077,2.958395,0.052735,2.958395,0.052735,-289.999847,-290.0,21.519703,31.02409,13.206272,297.42215,12.037062,-0.021753,-0.00118,22.073902,-7.46E-4,0.059084,0.022191,0.0,1.0,2423.967285,
60.148197,-294.878998,-293.685547,2.964347,0.053638,2.964347,0.053638,-289.999847,-290.0,21.586267,31.766655,13.413747,297.417328,12.099668,-0.020889,-0.001582,15.978515,-7.53E-4,0.059168,0.022259,0.0,1.0,2430.103516,
60.723354,-294.836639,-293.643188,2.968416,0.054286,2.968416,0.054286,-289.999847,-290.0,21.631224,32.263531,13.552153,297.412506,12.143325,-0.020697,-0.00207,19.424387,-7.66E-4,0.059287,0.022501,0.0,1.0,2434.200439,
61.58733,-294.772369,-293.578918,2.943658,0.05566,2.943658,0.05566,-289.999847,-290.0,21.693254,33.011517,9.143001,297.404053,12.210607,-0.020794,-0.002872,16.261938,-7.76E-4,0.059368,0.022742,0.0,1.0,2440.409912,
62.167725,-294.731171,-293.53772,2.935961,0.056176,2.935961,0.056176,-289.999847,-290.0,21.723932,33.511955,9.287335,297.398743,12.255964,-0.021018,-0.003291,15.612157,-7.95E-4,0.058873,0.023164,0.0,1.0,2444.613525,
63.035545,-294.672699,-293.479279,2.945445,0.056952,2.945445,0.056952,-289.999847,-290.0,21.770987,34.265217,9.515176,297.39209,12.323649,-0.021395,-0.003639,23.581406,-8.03E-4,0.058719,0.02343,0.0,1.0,2450.981201,
63.613152,-294.635376,-293.441925,2.951371,0.057402,2.951371,0.057402,-289.999847,-290.0,21.802912,34.769077,9.631373,297.388733,12.368011,-0.021473,-0.003672,22.878389,-8.14E-4,0.058909,0.023762,0.0,1.0,2455.253906,
Command: fly_strait
64.478119,-294.581024,-293.387573,2.963392,0.050067,2.963392,0.050067,-289.999847,-290.0,21.852905,35.527302,10.704085,297.385864,12.432612,-0.021179,-0.003576,22.231911,-8.2E-4,0.059027,0.02393,0.0,1.0,2461.690918,
65.053177,-294.545105,-293.351654,2.969714,0.051394,2.969714,0.051394,-289.999847,-290.0,21.888809,36.034355,10.815695,297.38089,12.474058,-0.021304,-0.004145,22.216394,-7.15E-4,0.059268,0.0,0.0,1.0,2465.994873,
65.916206,-294.49115,-293.297699,2.973503,0.055264,2.973503,0.055264,-289.999847,-290.0,21.943235,36.797218,10.953565,297.292114,12.53284,-0.025832,-0.018066,22.272362,-7.34E-4,0.059394,2.49E-4,0.0,1.0,2472.466553,
66.492393,-294.455078,-293.261627,2.97541,0.053759,2.97541,0.053759,-289.999847,-290.0,21.979931,37.307297,11.060082,297.181976,12.568632,-0.032991,-0.034154,22.346035,-7.89E-4,0.05947,0.004688,0.0,1.0,2476.793213,
67.357338,-294.401154,-293.207703,2.942513,0.039227,2.942513,0.039227,-289.999847,-290.0,22.02598,38.074619,6.144135,296.98468,12.614636,-0.047718,-0.060241,21.748417,-7.68E-4,0.059508,0.010194,0.0,1.0,2483.299805,
67.934494,-294.367767,-293.174316,2.94077,0.037966,2.94077,0.037966,-289.999847,-290.0,22.046841,38.587593,6.36896,296.857056,12.638656,-0.060419,-0.074477,20.119713,-5.6E-4,0.05885,0.020059,0.0,1.0,2487.647461,
68.794998,-294.321564,-293.128143,2.94697,0.014872,2.94697,0.014872,-289.999847,-290.0,22.080717,39.359043,7.408511,296.722076,12.662488,-0.078315,-0.08459,22.697084,-5.42E-4,0.058815,0.02644,0.0,1.0,2494.17041,
69.368561,-294.292236,-293.098816,2.920433,-0.059098,2.920433,-0.059098,-289.999847,-290.0,22.10704,39.87458,8.308751,296.687561,12.66989,-0.086891,-0.083088,16.388702,-2.12E-4,0.058939,0.033189,0.0,1.0,2498.521484,
70.232376,-294.248749,-293.055298,2.835743,-0.250723,2.835743,-0.250723,-289.999847,-290.0,22.150295,40.649685,8.788382,296.737793,12.670646,-0.089965,-0.066889,20.682291,8.44E-4,0.058409,0.034915,0.0,1.0,2505.06665,
70.810822,-294.219696,-293.026276,2.77541,-0.38875,2.77541,-0.38875,-289.999847,-290.0,22.179399,41.167633,8.595645,296.831848,12.66724,-0.084383,-0.048211,13.754639,0.003582,0.056715,0.032404,0.0,1.0,2509.448975,
71.6791,-294.176331,-292.98288,2.717445,-0.55068,2.717445,-0.55068,-289.999847,-290.0,22.221323,41.946445,8.244372,297.016083,12.662442,-0.066315,-0.016242,18.593458,0.005554,0.055508,0.027701,0.0,1.0,2516.052979,
72.25386,-294.147675,-292.954224,2.693461,-0.636811,2.693461,-0.636811,-289.999847,-290.0,22.249018,42.466866,8.478376,297.133606,12.662755,-0.050339,0.001784,20.376072,0.007867,0.054349,0.018489,0.0,1.0,2520.4646,
73.109367,-294.104553,-292.911133,2.671855,-0.756025,2.671855,-0.756025,-289.999847,-290.0,22.294619,43.249142,9.477732,297.235687,12.67302,-0.025661,0.013655,14.657979,0.009097,0.053869,0.012613,0.0,1.0,2527.074219,
Command_Fault: set /controls/flight/elevator/serviceable false
73.679161,-294.075226,-292.881775,2.635764,-0.858192,2.635764,-0.858192,-289.999847,-290.0,22.326883,43.771664,9.820932,297.233215,12.688148,-0.01187,0.008818,19.695332,0.0108,0.053437,0.007509,0.0,1.0,2531.47583,
74.536125,-294.03006,-292.836609,2.559257,-1.053376,2.559257,-1.053376,-289.999847,-290.0,22.376986,44.556896,10.199438,297.115784,12.725097,0.002444,-0.01625,13.768612,0.01226,0.053437,0.007632,0.0,1.0,2538.083984,
75.109917,-293.999084,-292.805634,2.497567,-1.21047,2.497567,-1.21047,-289.999847,-290.0,22.411509,45.081348,10.542539,296.976593,12.759727,0.006641,-0.040929,14.06636,0.015048,0.053437,0.013504,0.0,1.0,2542.501465,
75.970955,-293.951019,-292.757568,2.449378,-1.489725,2.449378,-1.489725,-289.999847,-290.0,22.467966,45.869495,12.330324,296.732056,12.826941,0.004883,-0.079651,15.057983,0.017292,0.053437,0.020464,0.0,1.0,2549.151855,
76.541641,-293.916992,-292.723541,2.475438,-1.73737,2.475438,-1.73737,-289.999847,-290.0,22.514675,46.395908,16.411283,296.575623,12.88242,6.48E-4,-0.102503,16.439091,0.021282,0.053437,0.03269,0.0,1.0,2553.595215,
77.384468,-293.856964,-292.663513,2.577404,-2.136486,2.577404,-2.136486,-289.999847,-290.0,22.633078,47.186825,32.281651,296.409271,12.984561,-0.005446,-0.122077,16.9223,0.02482,0.053437,0.040512,0.0,1.0,2560.256836,
77.930206,-293.80304,-292.609589,2.682071,-2.368999,2.682071,-2.368999,-289.999847,-290.0,22.767303,47.714745,48.234081,296.35553,13.067814,-0.007284,-0.123711,19.304337,0.030521,0.053437,0.04883,0.0,1.0,2564.67749,
78.713577,-293.68277,-292.489319,2.89831,-2.583564,2.89831,-2.583564,-289.999847,-290.0,23.084568,48.507011,79.165115,296.352783,13.219539,-0.005272,-0.110716,30.127237,0.033843,0.053437,0.051517,0.0,1.0,2571.231689,
79.207382,-293.563873,-292.370453,3.078998,-2.625158,3.078998,-2.625158,-289.999847,-290.0,23.39086,49.035004,104.109833,296.378601,13.339977,-2.9E-4,-0.096681,40.701729,0.036908,0.053437,0.051654,0.0,1.0,2575.519531,
79.897034,-293.304535,-292.111084,3.39208,-2.535253,3.39208,-2.535253,-289.999847,-290.0,24.019287,49.825798,147.058014,296.404327,13.549264,0.010793,-0.077131,61.213684,0.037502,0.053437,0.050363,0.0,1.0,2581.772461,
80.32093,-293.063995,-291.870575,3.6199,-2.402379,3.6199,-2.402379,-289.999847,-290.0,24.563566,50.351551,178.490036,296.386383,13.70583,0.01871,-0.069745,77.874077,0.036218,0.053437,0.049077,0.0,1.0,2585.791748,
80.903572,-292.57959,-291.386169,3.974076,-2.165543,3.974076,-2.165543,-289.999847,-290.0,25.582535,51.136875,228.335968,296.285431,13.959941,0.028414,-0.070802,106.891914,0.03432,0.053437,0.049974,0.0,1.0,2591.401855,
81.258301,-292.162476,-290.969025,4.214181,-2.016641,4.214181,-2.016641,-289.999847,-290.0,26.405087,51.657555,263.972351,296.174103,14.137522,0.031859,-0.078451,128.652451,0.030936,0.053437,0.055022,0.0,1.0,2594.436523,
81.738121,-291.376526,-290.183105,4.587828,-1.863683,4.587828,-1.863683,-289.999847,-290.0,27.867168,52.433144,319.759033,295.983734,14.40793,0.032361,-0.093392,164.616776,0.028809,0.053437,0.060588,0.0,1.0,2598.133301,
82.023087,-290.735687,-289.542236,4.847821,-1.804467,4.847821,-1.804467,-289.999847,-290.0,28.999653,52.945938,358.260223,295.868164,14.58693,0.030604,-0.101073,190.580154,0.026624,0.053437,0.070106,0.0,1.0,2600.186523,
82.394669,-289.583771,-288.39035,5.253676,-1.761486,5.253676,-1.761486,-289.999847,-290.0,30.941711,53.707611,417.253265,295.76178,14.84881,0.027473,-0.101379,232.109558,0.025778,0.053437,0.075885,0.0,1.0,2602.825195,
82.604996,-288.680908,-287.487457,5.535794,-1.730343,5.535794,-1.730343,-289.999847,-290.0,32.406086,54.209675,460.246155,295.745148,15.01756,0.02717,-0.092912,261.336609,0.025164,0.053437,0.081204,0.0,1.0,2604.355469,
82.857597,-287.108551,-285.9151,5.998712,-1.638857,5.998712,-1.638857,-289.999847,-290.0,34.886906,54.952888,530.831543,295.791107,15.260842,0.03094,-0.069765,307.759918,0.024719,0.053437,0.082036,0.0,1.0,2606.378662,
82.980064,-285.904724,-284.711273,6.332127,-1.5299,6.332127,-1.5299,-289.999847,-290.0,36.735992,55.440998,576.287048,295.846954,15.416105,0.036722,-0.051359,340.555176,0.023412,0.053437,0.079738,0.0,1.0,2607.568848,
83.103813,-283.853577,-282.660126,6.812019,-1.302904,6.812019,-1.302904,-279.999847,-280.0,39.785702,56.160892,642.152039,295.919525,15.637202,0.048359,-0.027752,391.810577,0.021856,0.053437,0.076945,0.0,1.0,2609.138916,
83.152718,-282.31839,-281.124939,7.110842,-1.128639,7.110842,-1.128639,-279.999847,-280.0,42.004253,56.631954,687.123108,295.939209,15.774987,0.056117,-0.018089,426.950928,0.018613,0.053437,0.073317,0.0,1.0,2610.056396,
83.179688,-279.757263,-278.563812,7.552423,-0.895725,7.552423,-0.895725,-279.999847,-280.0,45.612782,57.324219,754.334961,295.906555,15.962961,0.065264,-0.015801,480.836212,0.016123,0.053437,0.072333,0.0,1.0,2611.26123,
83.169533,-277.874634,-276.681183,7.847892,-0.778879,7.847892,-0.778879,-279.999847,-280.0,48.205086,57.775669,799.204407,295.849426,16.073277,0.068356,-0.020797,517.396729,0.012796,0.053437,0.073965,0.0,1.0,2611.960205,
83.115387,-274.783905,-273.590454,8.293222,-0.694319,8.293222,-0.694319,-269.999847,-270.0,52.373615,58.437027,866.19751,295.74588,16.213087,0.068646,-0.031919,572.990845,0.011127,0.053437,0.076822,0.0,1.0,2612.867676,
83.054268,-272.543884,-271.350433,8.590271,-0.686204,8.590271,-0.686204,-269.999847,-270.0,55.338017,58.86702,910.577881,295.6875,16.288717,0.066923,-0.037636,610.447083,0.009919,0.053437,0.081999,0.0,1.0,2613.385742,
82.923653,-268.912811,-267.719391,9.037945,-0.715683,9.037945,-0.715683,-269.999847,-270.0,60.060654,59.495041,976.457581,295.652039,16.377523,0.063874,-0.037708,667.049438,0.009803,0.053437,0.084918,0.0,1.0,2614.039551,
82.809807,-266.311035,-265.117584,9.338323,-0.73413,9.338323,-0.73413,-269.999847,-270.0,63.391327,59.90205,1020.115601,295.668793,16.422611,0.063253,-0.03134,704.96936,0.010224,0.053437,0.086691,0.0,1.0,2614.394287,
82.597694,-262.136566,-260.943146,9.792423,-0.721427,9.792423,-0.721427,-259.999847,-260.0,68.659615,60.494408,1085.301392,295.740875,16.474072,0.06555,-0.014842,762.0047,0.010488,0.053437,0.085854,0.0,1.0,2614.804932,
82.428795,-259.172577,-257.979156,10.096338,-0.678206,10.096338,-0.678206,-259.999847,-260.0,72.35218,60.876831,1128.375854,295.802094,16.500427,0.069255,-0.002498,800.080933,0.010306,0.053437,0.082249,0.0,1.0,2614.99707,
82.136711,-254.455887,-253.262436,10.548945,-0.573792,10.548945,-0.573792,-249.999863,-250.0,78.158134,61.431118,1191.987183,295.873138,16.531788,0.076498,0.011107,857.189026,0.009689,0.053437,0.079189,0.0,1.0,2615.164063,
81.918396,-251.131882,-249.938446,10.845524,-0.496481,10.845524,-0.496481,-249.999863,-250.0,82.203552,61.78743,1233.37793,295.891754,16.548576,0.080917,0.014615,895.197937,0.008197,0.053437,0.075636,0.0,1.0,2615.196289,
81.559532,-245.879425,-244.685974,11.279327,-0.411923,11.279327,-0.411923,-249.999863,-250.0,88.52565,62.301643,1293.311768,295.867188,16.56883,0.085151,0.010292,951.984314,0.007093,0.053437,0.074705,0.0,1.0,2615.132568,
81.301193,-242.202667,-241.009216,11.56014,-0.390177,11.56014,-0.390177,-239.999863,-240.0,92.903435,62.630768,1331.519409,295.824188,16.57971,0.085581,0.002888,989.593079,0.005885,0.053437,0.075934,0.0,1.0,2615.019043,
80.886948,-236.430832,-235.237396,11.968301,-0.419878,11.968301,-0.419878,-239.999863,-240.0,99.702179,63.103703,1385.846924,295.750885,16.594074,0.083156,-0.009395,1045.436646,0.005574,0.053437,0.078084,0.0,1.0,2614.748291,
80.593552,-232.41626,-231.222809,12.231714,-0.469625,12.231714,-0.469625,-229.999863,-230.0,104.381363,63.405071,1419.958862,295.713867,16.604412,0.08047,-0.01524,1082.162354,0.005998,0.053437,0.081749,0.0,1.0,2614.503418,
80.127968,-226.154938,-224.961502,12.61366,-0.555627,12.61366,-0.555627,-229.999863,-230.0,111.605904,63.83614,1467.867676,295.700928,16.626076,0.076755,-0.016378,1136.198486,0.006709,0.053437,0.0836,0.0,1.0,2614.04248,
79.801003,-221.824753,-220.631302,12.85909,-0.601449,12.85909,-0.601449,-219.999863,-220.0,116.550911,64.109474,1497.598022,295.722748,16.648054,0.075746,-0.011998,1171.544922,0.007938,0.053437,0.084247,0.0,1.0,2613.67334,
79.287178,-215.108841,-213.915405,13.211303,-0.625703,13.211303,-0.625703,-219.999863,-220.0,124.146454,64.498329,1538.779419,295.786469,16.698006,0.077049,-5.16E-4,1223.211548,0.008592,0.053437,0.083156,0.0,1.0,2613.028564,
78.945068,-210.498627,-209.305191,13.433569,-0.612124,13.433569,-0.612124,-209.999863,-210.0,129.319794,64.743469,1563.853027,295.834961,16.745195,0.079622,0.007683,1256.286011,0.008939,0.053437,0.07997,0.0,1.0,2612.539063,
78.377747,-203.372467,-202.179031,13.74429,-0.561556,13.74429,-0.561556,-199.999863,-200.0,137.227859,65.090057,1597.635742,295.886383,16.839363,0.084704,0.015606,1305.026001,0.008745,0.053437,0.077545,0.0,1.0,2611.719971,
78.001114,-198.499954,-197.306519,13.934292,-0.524494,13.934292,-0.524494,-199.999863,-200.0,142.588287,65.307137,1617.415039,295.896454,16.918056,0.087706,0.016441,1336.217529,0.008022,0.053437,0.074974,0.0,1.0,2611.121582,
77.427567,-191.021469,-189.828033,14.191367,-0.494405,14.191367,-0.494405,-189.999863,-190.0,150.742508,65.612022,1642.665527,295.871185,17.059147,0.09036,0.010639,1381.010864,0.007493,0.053437,0.07447,0.0,1.0,2609.731934,
77.041229,-185.931946,-184.738495,14.343436,-0.501091,14.343436,-0.501091,-189.999863,-190.0,156.242615,65.801674,1656.410156,295.834747,17.16778,0.090391,0.003638,1409.449707,0.007063,0.053437,0.075734,0.0,1.0,2608.299561,
76.458214,-178.158752,-176.965302,14.542399,-0.553803,14.542399,-0.553803,-179.999863,-180.0,164.567825,66.06617,1672.273926,295.775085,17.351517,0.088309,-0.007138,1449.802124,0.007158,0.053437,0.077556,0.0,1.0,2605.664551,
76.068352,-172.89444,-171.700989,14.655807,-0.608344,14.655807,-0.608344,-169.999863,-170.0,170.155624,66.229462,1679.683105,295.745087,17.487701,0.086281,-0.012236,1475.064453,0.007911,0.053437,0.080539,0.0,1.0,2603.685547,
75.483467,-164.893234,-163.699799,14.797304,-0.692575,14.797304,-0.692575,-169.999863,-170.0,178.572922,66.455383,1686.130005,295.732666,17.71291,0.083674,-0.013799,1510.328125,0.008691,0.053437,0.082039,0.0,1.0,2600.493408,
75.094543,-159.500381,-158.306946,14.872441,-0.737499,14.872441,-0.737499,-159.999863,-160.0,184.196198,66.593636,1687.386841,295.747406,17.877319,0.083143,-0.010844,1531.989868,0.009894,0.053437,0.08266,0.0,1.0,2598.256592,
74.515083,-151.342316,-150.148865,14.955153,-0.768993,14.955153,-0.768993,-149.999863,-150.0,192.628738,66.783058,1684.812744,295.793365,18.145256,0.084578,-0.00251,1561.564209,0.010536,0.053437,0.081923,0.0,1.0,2594.7854,
74.133301,-145.869049,-144.675613,14.989156,-0.766833,14.989156,-0.766833,-149.999863,-150.0,198.23735,66.89772,1680.159912,295.829193,18.337248,0.086896,0.003611,1579.257324,0.010986,0.053437,0.079625,0.0,1.0,2592.414795,
73.571548,-137.626755,-136.433319,15.006148,-0.739084,15.006148,-0.739084,-139.999863,-140.0,206.61113,67.052956,1668.7854,295.868561,18.642141,0.091438,0.009811,1602.641846,0.010955,0.053437,0.077834,0.0,1.0,2588.805664,
73.206985,-132.121613,-130.928177,14.993663,-0.716412,14.993663,-0.716412,-129.999863,-130.0,212.156128,67.145706,1658.257935,295.87738,18.853865,0.094296,0.010733,1616.062866,0.010558,0.053437,0.075865,0.0,1.0,2586.381836,
72.67952,-123.867928,-122.674484,14.938252,-0.697594,14.938252,-0.697594,-129.999863,-130.0,220.397675,67.269516,1638.039307,295.859772,19.17819,0.097338,0.006766,1632.833984,0.010234,0.053437,0.075424,0.0,1.0,2582.750732,
72.343079,-118.379494,-117.18605,14.876874,-0.702802,14.876874,-0.702802,-119.999855,-120.0,225.829971,67.342377,1621.633057,295.831787,19.395184,0.098091,0.001534,1641.713135,0.009966,0.053437,0.076305,0.0,1.0,2580.350098,
71.864349,-110.187317,-108.993874,14.749135,-0.74093,14.749135,-0.74093,-109.999855,-110.0,233.866043,67.438072,1592.758667,295.781952,19.715725,0.097511,-0.007146,1651.476196,0.01004,0.053437,0.077704,0.0,1.0,2576.805664,
71.563942,-104.764099,-103.570648,14.641084,-0.781648,14.641084,-0.781648,-109.999855,-110.0,239.13768,67.493385,1570.788086,295.753113,19.923004,0.09647,-0.011802,1655.556519,0.010585,0.053437,0.080196,0.0,1.0,2574.494141,
71.14344,-96.705574,-95.512131,14.446347,-0.848547,14.446347,-0.848547,-99.999855,-100.0,246.898987,67.564629,1534.02063,295.731567,20.21978,0.094918,-0.014566,1657.942627,0.011166,0.053437,0.081638,0.0,1.0,2571.124268,
70.884216,-91.394882,-90.201439,14.295638,-0.887695,14.295638,-0.887695,-89.999855,-90.0,251.966248,67.604889,1507.14624,295.734375,20.405933,0.094609,-0.013344,1656.997314,0.012122,0.053437,0.082715,0.0,1.0,2568.952393,
70.528915,-83.539162,-82.345718,14.039228,-0.922386,14.039228,-0.922386,-79.999855,-80.0,259.391632,67.655426,1463.591309,295.760468,20.663919,0.095709,-0.007817,1651.710205,0.012681,0.053437,0.082574,0.0,1.0,2565.822754,
70.315643,-78.385498,-77.192055,13.848362,-0.927712,13.848362,-0.927712,-79.999855,-80.0,264.216797,67.683128,1432.554565,295.785797,20.819437,0.097552,-0.00299,1645.577881,0.013177,0.053437,0.08127,0.0,1.0,2563.831543,
70.033707,-70.796394,-69.602951,13.532393,-0.91176,13.532393,-0.91176,-69.999855,-70.0,271.254181,67.716713,1383.23645,295.819824,21.023548,0.10142,0.003175,1632.435791,0.013253,0.053437,0.080003,0.0,1.0,2561.004883,
69.87265,-65.840157,-64.646713,13.302201,-0.892353,13.302201,-0.892353,-69.999855,-70.0,275.805267,67.734375,1348.633301,295.832794,21.137266,0.104147,0.005394,1621.035034,0.013025,0.053437,0.078302,0.0,1.0,2559.23877,
69.674034,-58.57494,-57.381496,12.928638,-0.865068,12.928638,-0.865068,-59.999859,-60.0,282.410065,67.754829,1294.330444,295.829865,21.269073,0.107621,0.004735,1599.969238,0.012748,0.053437,0.077653,0.0,1.0,2556.787842,
69.571556,-53.852104,-52.658661,12.66182,-0.855203,12.66182,-0.855203,-49.999859,-50.0,286.659393,67.76506,1256.646851,295.813629,21.328159,0.109046,0.001925,1583.28479,0.012358,0.053437,0.0778,0.0,1.0,2555.29834,
69.464157,-46.961475,-45.768032,12.237658,-0.860987,12.237658,-0.860987,-49.999859,-50.0,292.793243,67.776367,1198.143066,295.776276,21.369274,0.109713,-0.004206,1554.309814,0.012217,0.053437,0.078612,0.0,1.0,2553.300049,
69.423904,-42.50367,-41.310223,11.940861,-0.877859,11.940861,-0.877859,-39.999859,-40.0,296.71759,67.781837,1157.994873,295.749298,21.363131,0.109346,-0.008354,1532.374023,0.0123,0.053437,0.080479,0.0,1.0,2552.134766,
69.410576,-36.03167,-34.838223,11.478293,-0.915293,11.478293,-0.915293,-39.999859,-40.0,302.349884,67.788002,1096.400391,295.718994,21.301659,0.108199,-0.012414,1495.57605,0.012541,0.053437,0.081828,0.0,1.0,2550.650635,
69.432816,-31.865816,-30.672371,11.16052,-0.941728,11.16052,-0.941728,-29.999857,-30.0,305.93219,67.791359,1054.646973,295.709839,21.225468,0.107589,-0.013051,1468.477295,0.013076,0.053437,0.083343,0.0,1.0,2549.842529,
69.512161,-25.848797,-24.655352,10.673167,-0.970452,10.673167,-0.970452,-29.999857,-30.0,311.043091,67.796265,991.37561,295.715302,21.058773,0.107468,-0.010635,1424.050537,0.013453,0.053437,0.083801,0.0,1.0,2548.909424,
69.595268,-21.996191,-20.802748,10.342883,-0.977872,10.342883,-0.977872,-19.999857,-20.0,314.274109,67.799995,948.991089,295.729004,20.913357,0.10818,-0.007397,1391.970093,0.013864,0.053437,0.083528,0.0,1.0,2548.476563,
69.764542,-16.461309,-15.267866,9.841948,-0.967458,9.841948,-0.967458,-19.999857,-20.0,318.855743,67.80722,885.459167,295.754974,20.645325,0.110285,-0.001867,1340.28125,0.01397,0.053437,0.082843,0.0,1.0,2548.113281,
69.906769,-12.936725,-11.74328,9.505712,-0.948513,9.505712,-0.948513,-9.999858,-10.0,321.734039,67.813637,843.31665,295.769928,20.434355,0.112084,0.001221,1303.53479,0.013821,0.053437,0.081545,0.0,1.0,2548.052979,
70.163498,-7.901048,-6.707604,9.00044,-0.910723,9.00044,-0.910723,-9.999858,-10.0,325.789368,67.826515,780.700256,295.779297,20.071314,0.114733,0.003395,1245.173584,0.01355,0.053437,0.080797,0.0,1.0,2548.242432,
70.363052,-4.712502,-3.519058,8.664632,-0.88505,8.664632,-0.88505,1.42E-4,0.0,328.320068,67.837769,739.506653,295.774567,19.799425,0.116004,0.002946,1204.234863,0.01301,0.053437,0.080328,0.0,1.0,2548.562744,
70.703003,-0.137601,1.055843,8.165822,-0.856516,8.165822,-0.856516,1.42E-4,0.0,331.861023,67.859436,678.810181,295.752716,19.349277,0.116798,-1.65E-4,1139.862915,0.012644,0.053437,0.080565,0.0,1.0,2549.341553,
70.956589,2.854222,4.047667,7.838722,-0.846442,7.838722,-0.846442,1.42E-4,0.0,334.05481,67.877541,639.246094,295.731903,19.022799,0.116498,-0.003129,1095.441162,0.012236,0.053437,0.081657,0.0,1.0,2550.062012,
71.373894,7.078185,8.271629,7.360277,-0.845917,7.360277,-0.845917,10.000142,10.0,337.101959,67.910904,581.577881,295.701477,18.497448,0.1151,-0.007169,1026.587891,0.012092,0.053437,0.082698,0.0,1.0,2551.442139,
71.674988,9.720215,10.913659,7.051781,-0.851587,7.051781,-0.851587,10.000142,10.0,338.9758,67.937691,544.464111,295.686493,18.126263,0.113893,-0.008798,979.435913,0.012085,0.053437,0.084219,0.0,1.0,2552.558594,
72.157616,13.426957,14.620402,6.608317,-0.860826,6.608317,-0.860826,10.000142,10.0,341.559906,67.985313,491.169159,295.678375,17.543589,0.112228,-0.008672,907.289124,0.012166,0.053437,0.084969,0.0,1.0,2554.518311,
72.498016,15.730769,16.924213,6.327346,-0.862062,6.327346,-0.862062,20.000143,20.0,343.138153,68.022346,457.440369,295.6828,17.141409,0.111572,-0.006943,858.553284,0.012298,0.053437,0.085374,0.0,1.0,2556.007813,
73.03315,18.942944,20.136389,5.930386,-0.849609,5.930386,-0.849609,20.000143,20.0,345.301605,68.086311,409.894928,295.69989,16.523802,0.111421,-0.002736,785.104065,0.012315,0.053437,0.085153,0.0,1.0,2558.501221,
73.404343,20.927252,22.120697,5.683231,-0.830534,5.683231,-0.830534,20.000143,20.0,346.616211,68.134811,380.407715,295.713989,16.106121,0.111819,3.61E-4,736.317078,0.012137,0.053437,0.084299,0.0,1.0,2560.327881,
73.979507,23.677273,24.870718,5.340322,-0.789064,5.340322,-0.789064,20.000143,20.0,348.411957,68.216698,339.749237,295.730194,15.476587,0.112764,0.0039,664.121216,0.011865,0.053437,0.083594,0.0,1.0,2563.297852,
74.373726,25.368177,26.561621,5.13111,-0.756496,5.13111,-0.756496,30.000143,30.0,349.50116,68.277565,315.150238,295.734283,15.058118,0.113255,0.005,617.299133,0.011272,0.053437,0.082783,0.0,1.0,2565.422119,
74.568977,26.10375,27.297195,5.040606,-0.741692,5.040606,-0.741692,30.000143,30.0,349.973785,68.307167,304.570953,295.733856,14.867336,0.113362,0.005089,595.992737,0.011272,0.053437,0.082783,0.0,1.0,2566.432129,
75.580765,29.726793,30.920238,4.603435,-0.674913,4.603435,-0.674913,30.000143,30.0,352.327118,68.491257,254.191788,295.709137,13.831066,0.112403,0.001823,482.005615,0.010596,0.053437,0.0826,0.0,1.0,2572.413818,
75.997864,31.032993,32.226437,4.463053,-0.657278,4.463053,-0.657278,30.000143,30.0,353.146362,68.573051,238.404434,295.693817,13.438016,0.111035,-2.49E-4,446.387177,0.009642,0.053437,0.083836,0.0,1.0,2574.928711,
76.624336,32.831173,34.024616,4.288082,-0.647007,4.288082,-0.647007,30.000143,30.0,354.286835,68.70575,219.231888,295.676208,12.86999,0.108412,-0.002433,396.20517,0.00939,0.053437,0.084602,0.0,1.0,2578.843506,
77.040604,33.933422,35.126869,4.196015,-0.645502,4.196015,-0.645502,30.000143,30.0,355.000122,68.800858,209.574936,295.671722,12.508523,0.106699,-0.002659,365.73764,0.009243,0.053437,0.085483,0.0,1.0,2581.535156,
77.659004,35.461315,36.654758,4.095623,-0.642141,4.095623,-0.642141,40.000141,40.0,356.020874,68.953384,199.973328,295.67868,11.996981,0.104613,-7.83E-4,325.562744,0.009221,0.053437,0.085707,0.0,1.0,2585.669678,
78.065071,36.407944,37.601387,4.053971,-0.634197,4.053971,-0.634197,40.000141,40.0,356.681396,69.061539,196.920273,295.690948,11.679058,0.103764,0.001628,302.846832,0.009173,0.053437,0.085359,0.0,1.0,2588.475342,
78.661446,37.740677,38.93412,4.029037,-0.609629,4.029037,-0.609629,40.000141,40.0,357.664825,69.233177,197.462646,295.713898,11.240884,0.10325,0.00575,275.16571,0.00906,0.053437,0.084746,0.0,1.0,2592.732422,
79.048744,38.5835,39.776943,4.036994,-0.585333,4.036994,-0.585333,40.000141,40.0,358.328857,69.353683,201.257416,295.727905,10.976526,0.103213,0.008105,260.972107,0.008709,0.053437,0.083598,0.0,1.0,2595.587891,
79.611542,39.801147,40.994591,4.084848,-0.543618,4.084848,-0.543618,40.000141,40.0,359.360382,69.543129,212.071014,295.739777,10.624181,0.10317,0.009847,245.880859,0.008362,0.053437,0.082898,0.0,1.0,2599.873779,
79.973114,40.59486,41.788307,4.140149,-0.516473,4.140149,-0.516473,40.000141,40.0,360.0849,69.67495,222.649185,295.740204,10.419798,0.102807,0.009669,239.783264,0.007766,0.053437,0.082304,0.0,1.0,2602.719482,
80.49247,41.780884,42.974331,4.257432,-0.486182,4.257432,-0.486182,40.000141,40.0,361.249207,69.880417,243.470474,295.731293,10.160196,0.101535,0.00773,236.259659,0.007378,0.053437,0.082283,0.0,1.0,2606.949707,
80.821648,42.581722,43.775166,4.358113,-0.474483,4.358113,-0.474483,40.000141,40.0,362.089783,70.022209,260.589447,295.72229,10.018912,0.100163,0.00595,237.472672,0.006945,0.053437,0.082729,0.0,1.0,2609.490479,
81.286186,43.820774,45.014217,4.542094,-0.470967,4.542094,-0.470967,40.000141,40.0,363.468536,70.241447,291.002167,295.711853,9.855224,0.097634,0.003824,244.333527,0.006778,0.053437,0.083179,0.0,1.0,2612.577637,
81.574455,44.685078,45.878521,4.686167,-0.474255,4.686167,-0.474255,50.000141,50.0,364.478394,70.391541,314.354004,295.710327,9.778513,0.095934,0.003334,252.104111,0.006728,0.053437,0.083701,0.0,1.0,2614.298096,
81.971741,46.061092,47.254536,4.933137,-0.479954,4.933137,-0.479954,50.000141,50.0,366.149445,70.621758,353.841187,295.718994,9.712335,0.093785,0.004397,268.291656,0.006775,0.053437,0.083777,0.0,1.0,2616.533936,
82.211693,47.044197,48.23764,5.117393,-0.479995,5.117393,-0.479995,50.000141,50.0,367.378967,70.778107,383.026428,295.731079,9.700794,0.092822,0.006084,281.959106,0.006856,0.053437,0.083343,0.0,1.0,2617.854248,
82.53231,48.638844,49.832287,5.421085,-0.470024,5.421085,-0.470024,50.000141,50.0,369.415009,71.015991,430.848938,295.752838,9.731877,0.092072,0.009048,306.532501,0.006857,0.053437,0.082739,0.0,1.0,2619.644531,
82.719017,49.794044,50.987488,5.640358,-0.457379,5.640358,-0.457379,50.000141,50.0,370.91037,71.176247,465.247925,295.766083,9.784238,0.091869,0.010693,325.489532,0.006715,0.053437,0.081651,0.0,1.0,2620.734131,
82.957573,51.68499,52.878433,5.992026,-0.434715,5.992026,-0.434715,50.000141,50.0,373.376343,71.418137,520.263611,295.777893,9.908556,0.091638,0.011633,357.542084,0.006534,0.053437,0.080989,0.0,1.0,2622.237305,
83.088562,53.062168,54.255611,6.24026,-0.421117,6.24026,-0.421117,50.000141,50.0,375.177368,71.579788,558.988525,295.779327,10.020652,0.091242,0.011137,381.174164,0.00621,0.053437,0.080399,0.0,1.0,2623.159912,
83.242462,55.320702,56.514149,6.63117,-0.41025,6.63117,-0.41025,60.000141,60.0,378.127167,71.821831,619.742798,295.773621,10.230032,0.090113,0.009053,419.756104,0.006016,0.053437,0.080327,0.0,1.0,2624.431885,
83.31636,56.964649,58.158092,6.903016,-0.410562,6.903016,-0.410562,60.000141,60.0,380.265656,71.982285,661.790405,295.767517,10.395515,0.088987,0.007329,447.410553,0.005861,0.053437,0.080612,0.0,1.0,2625.207275,
83.383606,59.653282,60.846725,7.325807,-0.421369,7.325807,-0.421369,60.000141,60.0,383.740753,72.220589,726.794312,295.761353,10.679881,0.087013,0.005341,491.5224,0.005865,0.053437,0.080917,0.0,1.0,2626.261719,
83.399086,61.602299,62.795742,7.616586,-0.432265,7.616586,-0.432265,60.000141,60.0,386.240295,72.377251,771.199463,295.761932,10.892049,0.085759,0.004848,522.527649,0.00602,0.053437,0.081226,0.0,1.0,2626.891846,
Command: turn_+45
83.377151,64.773148,65.966591,8.064618,-0.466117,8.064618,-0.466117,60.000141,60.0,390.270081,72.607895,839.042603,295.790192,11.241691,0.081133,0.008598,571.16864,0.002058,0.053437,0.1,0.0,1.0,2627.724609,
83.330284,67.058304,68.251747,8.372293,-0.501474,8.372293,-0.501474,70.000145,70.0,393.146362,72.758141,884.890198,295.859833,11.494754,0.080465,0.018645,604.86792,0.00222,0.053437,0.1,0.0,1.0,2628.20166,
83.209946,70.75238,71.945824,8.845888,-0.501123,8.845888,-0.501123,70.000145,70.0,397.749207,72.977119,954.460876,296.014709,11.904111,0.084745,0.040721,657.077759,0.002388,0.053437,0.1,0.0,1.0,2628.79248,
83.096832,73.3974,74.590843,9.166317,-0.453084,9.166317,-0.453084,70.000145,70.0,401.011841,73.118202,1001.184204,296.127594,12.196373,0.090156,0.056075,692.859863,0.002386,0.053437,0.1,0.0,1.0,2629.099609,
82.880676,77.645172,78.838615,9.647945,-0.320739,9.647945,-0.320739,80.000145,80.0,406.197845,73.321365,1071.194702,296.276215,12.661123,0.0999,0.07426,747.780396,0.002158,0.053437,0.1,0.0,1.0,2629.42749,
82.707924,80.666878,81.860321,9.966907,-0.208613,9.966907,-0.208613,80.000145,80.0,409.848877,73.450584,1117.405396,296.348694,12.985762,0.106118,0.081187,785.093811,0.001527,0.053437,0.1,0.0,1.0,2629.558105,
82.40995,85.487495,86.680939,10.438954,-0.040718,10.438954,-0.040718,90.000145,90.0,415.611267,73.634171,1185.325928,296.411346,13.488563,0.113268,0.08314,841.863892,9.93E-4,0.053437,0.1,0.0,1.0,2629.626465,
82.187401,88.893921,90.087364,10.748226,0.055984,10.748226,0.055984,90.000145,90.0,419.639038,73.749283,1229.319092,296.427155,13.830179,0.116002,0.079907,880.083557,1.94E-4,0.053437,0.1,0.0,1.0,2629.590088,
81.820328,94.291443,95.484886,11.202621,0.158172,11.202621,0.158172,90.000145,90.0,425.950287,73.910347,1292.897583,296.429077,14.345341,0.117027,0.071401,937.680054,-2.67E-4,0.053437,0.1,0.0,1.0,2629.418213,
81.55455,98.079742,99.273186,11.498534,0.19696,11.498534,0.19696,100.000145,100.0,430.330811,74.009659,1333.46814,296.427704,14.687206,0.116071,0.06543,976.081238,-7.53E-4,0.053437,0.1,0.0,1.0,2629.228271,
81.12574,104.041672,105.235115,11.930656,0.217145,11.930656,0.217145,100.000145,100.0,437.148407,74.146027,1391.343506,296.439484,15.193355,0.113325,0.058965,1033.394165,-9.38E-4,0.053437,0.1,0.0,1.0,2628.83374,
80.820549,108.198357,109.3918,12.210115,0.214582,12.210115,0.214582,110.000145,110.0,441.850037,74.228279,1427.820435,296.463348,15.524827,0.111349,0.057381,1071.24646,-0.001034,0.053437,0.1,0.0,1.0,2628.499512,
Command_Fault: set /controls/flight/elevator/serviceable true
80.335182,114.69751,115.890953,12.614787,0.203396,12.614787,0.203396,110.000145,110.0,449.122833,74.33828,1479.192017,296.527069,16.011879,0.109171,0.059493,1127.228394,-0.001022,0.053437,0.1,0.0,1.0,2627.893555,
80.01693,119.2005,120.393944,12.514694,0.199438,12.514694,0.199438,120.000145,120.0,454.116211,74.402435,1516.376953,296.587524,16.329462,0.108995,0.063771,1163.887451,-9.69E-4,0.252296,0.1,0.0,1.0,2627.426025,
79.748322,126.18,127.373444,9.080352,0.28768,9.080352,0.28768,130.000137,130.0,461.483398,74.49015,1383.360474,296.792023,16.783381,0.133425,0.090894,1216.71106,-9.5E-4,0.250294,0.1,0.0,1.0,2626.793701,
79.746353,130.872696,132.066132,7.136143,0.477258,7.136143,0.477258,130.000137,130.0,465.747467,74.551567,1176.192871,297.013977,17.053257,0.175921,0.122846,1245.650879,-0.00137,0.181607,0.1,0.0,1.0,2626.472412,
80.068886,137.667114,138.86055,6.519039,0.898542,6.519039,0.898542,140.000137,140.0,470.889801,74.653549,912.319885,297.340393,17.385284,0.216776,0.165594,1268.610596,-0.002273,0.142723,0.1,0.0,1.0,2626.252686,
80.356468,141.911728,143.105179,6.57033,1.190528,6.57033,1.190528,140.000137,140.0,473.755524,74.726479,819.358154,297.485626,17.551805,0.222779,0.17901,1267.737427,-0.004279,0.130381,0.1,0.0,1.0,2626.272217,
80.823967,147.802185,148.995636,6.288116,1.551216,6.288116,1.551216,150.000137,150.0,477.62912,74.84063,737.600159,297.583282,17.712433,0.220322,0.176439,1244.93396,-0.005669,0.131407,0.1,0.0,1.0,2626.492188,
81.160965,151.426788,152.620239,5.888349,1.728604,5.888349,1.728604,150.000137,150.0,480.002106,74.919739,687.599854,297.597565,17.756174,0.215002,0.165868,1218.24292,-0.007387,0.125762,0.1,0.0,1.0,2626.761719,
81.697716,156.440109,157.63356,5.400779,1.894291,5.400779,1.894291,160.000137,160.0,483.24234,75.043892,611.91217,297.604095,17.721958,0.202129,0.147692,1164.790527,-0.008231,0.117767,0.1,0.0,1.0,2627.346924,
82.06778,159.513916,160.707352,5.191942,1.943026,5.191942,1.943026,160.000137,160.0,485.20639,75.130714,569.410156,297.621307,17.632271,0.190843,0.137802,1121.828491,-0.00902,0.108016,0.1,0.0,1.0,2627.846191,
82.621132,163.752655,164.946106,5.047594,1.937808,5.047594,1.937808,160.000137,160.0,487.927826,75.267227,524.454773,297.692871,17.401628,0.172647,0.130218,1049.108154,-0.009253,0.103839,0.1,0.0,1.0,2628.732666,
82.981773,166.355194,167.548645,4.97026,1.899908,4.97026,1.899908,170.000137,170.0,489.641754,75.362343,505.639618,297.776825,17.188686,0.161639,0.130741,996.923523,-0.009228,0.100952,0.1,0.0,1.0,2629.397949,
83.503723,169.973312,171.166763,4.86875,1.830207,4.86875,1.830207,170.000137,170.0,492.116913,75.510994,486.488159,297.959778,16.791721,0.149141,0.14005,916.483459,-0.009047,0.099405,0.1,0.0,1.0,2630.484619,
83.837067,172.223099,173.41655,4.815287,1.79439,4.815287,1.79439,170.000137,170.0,493.723267,75.613983,478.123413,298.112976,16.482872,0.144009,0.150607,863.333496,-0.008715,0.097375,0.1,0.0,1.0,2631.255371,
84.312286,175.398819,176.592255,4.785049,1.778795,4.785049,1.778795,180.000137,180.0,496.094482,75.774071,471.895111,298.368835,15.966675,0.140687,0.169319,787.3302,-0.008545,0.096306,0.1,0.0,1.0,2632.459961,
84.612175,177.407272,178.600708,4.785254,1.79626,4.785254,1.79626,180.000137,180.0,497.666901,75.884315,472.029694,298.542175,15.594907,0.140666,0.181249,740.704468,-0.00847,0.095701,0.1,0.0,1.0,2633.284668,
85.037498,180.295242,181.488678,4.805194,1.857219,4.805194,1.857219,180.000137,180.0,500.037964,76.054588,477.119385,298.786652,15.008,0.142355,0.195263,679.073547,-0.008554,0.095705,0.1,0.0,1.0,2634.540527,
85.305855,182.157776,183.351227,4.827813,1.912297,4.827813,1.912297,180.000137,180.0,501.638153,76.171143,483.023071,298.932709,14.603682,0.143685,0.201111,644.441895,-0.008844,0.096104,0.1,0.0,1.0,2635.384033,
85.687981,184.888397,186.081833,4.870589,1.997431,4.870589,1.997431,190.000137,190.0,504.081604,76.350143,494.474396,299.124573,13.987643,0.144794,0.204667,602.889771,-0.009106,0.096556,0.1,0.0,1.0,2636.651611,
85.93013,186.682312,187.875748,4.907946,2.04767,4.907946,2.04767,190.000137,190.0,505.745178,76.472054,503.499207,299.238129,13.575971,0.144539,0.204393,582.01416,-0.009512,0.097412,0.1,0.0,1.0,2637.494873,
86.276024,189.356415,190.54985,4.968416,2.102068,4.968416,2.102068,190.000137,190.0,508.300964,76.658463,518.631958,299.397827,12.965818,0.14265,0.201999,560.054504,-0.009751,0.098159,0.1,0.0,1.0,2638.753174,
86.495529,191.139359,192.332809,5.015733,2.124026,5.015733,2.124026,190.000137,190.0,510.048431,76.784897,529.566284,299.50473,12.56901,0.140645,0.200402,550.881714,-0.01001,0.099368,0.1,0.0,1.0,2639.584717,
86.809486,193.828857,195.022293,5.085933,2.13854,5.085933,2.13854,190.000137,190.0,512.74054,76.977478,546.903259,299.675934,11.997348,0.137172,0.199652,543.713013,-0.010114,0.100315,0.1,0.0,1.0,2640.818359,
87.008415,195.642548,196.835983,5.138506,2.141292,5.138506,2.141292,200.000137,200.0,514.584229,77.10762,558.928162,299.801483,11.636892,0.135019,0.200885,542.813782,-0.010184,0.101719,0.1,0.0,1.0,2641.629395,
87.291428,198.403259,199.59671,5.214119,2.145194,5.214119,2.145194,200.000137,200.0,517.426575,77.305145,577.513794,300.007874,11.135366,0.132714,0.205336,545.740967,-0.010197,0.10277,0.1,0.0,1.0,2642.824463,
87.46991,200.276062,201.469498,5.269489,2.153261,5.269489,2.153261,200.000137,200.0,519.373352,77.438164,590.146851,300.155823,10.831529,0.131982,0.209687,549.981201,-0.010215,0.104282,0.1,0.0,1.0,2643.604492,
87.723335,203.141479,204.334915,5.347027,2.179047,5.347027,2.179047,200.000137,200.0,522.373535,77.639336,609.333923,300.386475,10.42817,0.132087,0.217064,559.002014,-0.010254,0.10539,0.1,0.0,1.0,2644.746826,
87.883141,205.09288,206.286331,5.402627,2.206379,5.402627,2.206379,210.000137,210.0,524.426697,77.774361,622.141113,300.542206,10.197368,0.132763,0.221903,566.431519,-0.010376,0.106941,0.1,0.0,1.0,2645.488525,
88.069389,207.402756,208.596191,5.461918,2.24649,5.461918,2.24649,210.000137,210.0,526.876343,77.932602,637.075378,300.721802,9.969228,0.133893,0.226792,575.083313,-0.010507,0.108053,0.1,0.0,1.0,2646.333008,
88.250237,210.093262,211.286697,5.532735,2.300061,5.532735,2.300061,210.000137,210.0,529.74585,78.114151,653.74176,300.921967,9.764965,0.135248,0.231092,586.198608,-0.010698,0.109238,0.1,0.0,1.0,2647.270508,
88.457199,213.238434,214.431885,5.609826,2.362561,5.609826,2.362561,210.000137,210.0,533.06311,78.318962,672.541748,301.139618,9.609027,0.136346,0.234159,602.992126,-0.010953,0.110655,0.1,0.0,1.0,2648.291016,
88.588745,215.38324,216.576691,5.65984,2.402421,5.65984,2.402421,220.000137,220.0,535.325989,78.455673,684.680115,301.281708,9.548878,0.136736,0.235466,614.087158,-0.01125,0.112197,0.1,0.0,1.0,2648.951416,
88.777672,218.673904,219.86734,5.725945,2.455757,5.725945,2.455757,220.000137,220.0,538.794678,78.660774,702.102539,301.493805,9.523984,0.136847,0.236925,630.756836,-0.01144,0.113197,0.1,0.0,1.0,2649.913574,
88.898186,220.916824,222.110275,5.773448,2.487652,5.773448,2.487652,220.000137,220.0,541.154358,78.797417,713.286011,301.637146,9.550295,0.136678,0.238025,641.895691,-0.011694,0.114519,0.1,0.0,1.0,2650.536621,
89.071327,224.354568,225.548004,5.838437,2.530274,5.838437,2.530274,220.000137,220.0,544.763306,79.002022,729.680908,301.857361,9.65243,0.136306,0.240197,658.59613,-0.011846,0.115469,0.1,0.0,1.0,2651.443848,
89.181641,226.694855,227.888306,5.883753,2.557425,5.883753,2.557425,230.000137,230.0,547.213928,79.138092,740.309509,302.008789,9.760992,0.136111,0.242182,669.692261,-0.012049,0.116769,0.1,0.0,1.0,2652.031006,
89.339928,230.276978,231.470413,5.943838,2.598162,5.943838,2.598162,230.000137,230.0,550.955688,79.341492,755.793823,302.24234,9.981781,0.136089,0.245805,686.224487,-0.012178,0.117675,0.1,0.0,1.0,2652.885254,
89.440704,232.712097,233.905533,5.985729,2.627254,5.985729,2.627254,230.000137,230.0,553.492249,79.476532,765.757385,302.401886,10.165673,0.136285,0.248577,697.139709,-0.012372,0.118877,0.1,0.0,1.0,2653.4375,
89.585289,236.433792,237.627228,6.041771,2.67395,6.041771,2.67395,240.000137,240.0,557.358643,79.678078,780.254883,302.644531,10.492715,0.136876,0.252822,713.301636,-0.012511,0.119715,0.1,0.0,1.0,2654.240479,
89.677422,238.959961,240.153412,6.080859,2.707653,6.080859,2.707653,240.000137,240.0,559.975708,79.811676,789.583984,302.807709,10.742331,0.137391,0.255585,723.910339,-0.012733,0.120835,0.1,0.0,1.0,2654.759033,
89.809845,242.814987,244.008423,6.132775,2.759867,6.132775,2.759867,240.000137,240.0,563.95874,80.010773,803.123108,303.052643,11.159307,0.138226,0.259301,739.53772,-0.012894,0.121617,0.1,0.0,1.0,2655.513184,
89.894447,245.427734,246.621185,6.168834,2.795534,6.168834,2.795534,250.000137,250.0,566.650879,80.14257,811.799622,303.216034,11.462626,0.138736,0.261515,749.747925,-0.013142,0.122656,0.1,0.0,1.0,2656.000488,
90.016365,249.408981,250.602432,6.216624,2.847543,6.216624,2.847543,250.000137,250.0,570.742493,80.338745,824.347839,303.460938,11.950138,0.139362,0.264394,764.724548,-0.013312,0.123377,0.1,0.0,1.0,2656.708984,
90.094437,252.103378,253.296814,6.249813,2.881275,6.249813,2.881275,250.000137,250.0,573.504211,80.468445,832.370239,303.624878,12.293563,0.139661,0.266174,774.470459,-0.01356,0.124332,0.1,0.0,1.0,2657.16748,
90.2071,256.203186,257.396637,6.293775,2.928798,6.293775,2.928798,260.000153,260.0,577.696167,80.661293,843.959656,303.872375,12.830689,0.139972,0.268721,788.713135,-0.01372,0.124996,0.1,0.0,1.0,2657.834717,
90.279289,258.973999,260.16745,6.324312,2.959219,6.324312,2.959219,260.000153,260.0,580.522217,80.788666,851.367371,304.039307,13.200182,0.140115,0.270495,797.949829,-0.013947,0.125876,0.1,0.0,1.0,2658.266846,
90.383469,263.184479,264.37793,6.364764,3.002523,6.364764,3.002523,260.000153,260.0,584.806885,80.977859,862.074524,304.292725,13.766113,0.140321,0.273273,811.407715,-0.014092,0.126486,0.1,0.0,1.0,2658.895996,
90.450188,266.026459,267.21991,6.392888,3.030969,6.392888,3.030969,270.000153,270.0,587.692322,81.102707,868.9245,304.464111,14.148146,0.14048,0.275276,820.112305,-0.014298,0.127295,0.1,0.0,1.0,2659.303711,
90.546402,270.339813,271.533264,6.430155,3.072789,6.430155,3.072789,270.000153,270.0,592.062744,81.287987,878.834045,304.724091,14.723326,0.1408,0.278367,832.766968,-0.014433,0.127858,0.1,0.0,1.0,2659.897705,
90.608009,273.247864,274.441284,6.456076,3.100995,6.456076,3.100995,270.000153,270.0,595.003174,81.410141,885.177551,304.899353,15.105444,0.141062,0.28049,840.936829,-0.014632,0.128603,0.1,0.0,1.0,2660.282471,
90.696854,277.656647,278.850098,6.490408,3.14299,6.490408,3.14299,280.000153,280.0,599.452881,81.591263,894.35376,305.164093,15.672191,0.14152,0.283582,852.796448,-0.014767,0.129122,0.1,0.0,1.0,2660.843506,
