airspeed_indicator_indicated_speed_kt,altimeter_indicated_altitude_ft,altimeter_pressure_alt_ft,attitude_indicator_indicated_pitch_deg,attitude_indicator_indicated_roll_deg,attitude_indicator_internal_pitch_deg,attitude_indicator_internal_roll_deg,encoder_indicated_altitude_ft,encoder_pressure_alt_ft,gps_indicated_altitude_ft,gps_indicated_ground_speed_kt,gps_indicated_vertical_speed,indicated_heading_deg,magnetic_compass_indicated_heading_deg,slip_skid_ball_indicated_slip_skid,turn_indicator_indicated_turn_rate,vertical_speed_indicator_indicated_speed_fpm,flight_aileron,flight_elevator,flight_rudder,flight_flaps,engine_throttle,engine_rpm,
Command: takeoff
6.369645,-87.982513,-86.789063,2.969545,1.354375,2.591644,0.094707,-89.999855,-90.0,2.286486,0.0,0.005962,297.86792,278.051636,0.012278,-0.050836,-13.190429,-0.0,0.0,0.0,0.0,0.0,600.13031,
6.402729,-87.992561,-86.799118,2.975372,1.372503,2.592129,0.095026,-89.999855,-90.0,2.286507,0.0,0.005828,297.867126,280.33548,0.012248,-0.045978,-9.430722,-0.0,0.0,0.0,0.0,0.0,600.139465,
6.462353,-88.004395,-86.810951,2.772529,0.721557,2.584614,0.095173,-89.999855,-90.0,2.286499,3.4E-5,-0.012293,297.865814,283.702454,0.012072,-0.039574,-17.076672,-0.019607,0.051843,4.0E-5,0.0,1.0,672.632751,
6.506673,-88.010582,-86.817139,2.636141,0.335389,2.563751,0.09409,-89.999855,-90.0,2.286426,1.4E-4,-0.033362,297.864838,285.884308,0.011909,-0.035857,-9.129906,-0.010308,0.051692,1.05E-4,0.0,1.0,784.4104,
6.606978,-88.017937,-86.824493,2.511847,0.089095,2.511847,0.089095,-89.999855,-90.0,2.286247,7.35E-4,-0.019964,297.863129,289.026276,0.011658,-0.031053,-19.322855,-0.004791,0.051275,1.54E-4,0.0,1.0,1004.480652,
6.726531,-88.02182,-86.828377,2.494776,0.083062,2.494776,0.083062,-89.999855,-90.0,2.286252,0.002324,0.021404,297.861816,291.015015,0.011938,-0.028319,-14.288124,-0.001273,0.050237,2.4E-4,0.0,1.0,1165.16687,
6.999202,-88.026413,-86.83297,2.497963,0.070811,2.497963,0.070811,-89.999855,-90.0,2.286518,0.008745,0.083037,297.859161,293.810852,0.014336,-0.024882,-11.307194,-0.001187,0.049896,3.05E-4,0.0,1.0,1401.326294,
7.252795,-88.028793,-86.83535,2.5102,0.061187,2.5102,0.061187,-89.999855,-90.0,2.286857,0.017211,0.120988,297.856171,295.535431,0.016759,-0.023093,-10.269403,-0.001012,0.049959,4.38E-4,0.0,1.0,1545.144653,
7.738853,-88.031525,-86.838081,2.534158,0.046115,2.534158,0.046115,-89.999855,-90.0,2.287599,0.0388,0.177362,297.848663,297.892242,0.022308,-0.021241,-11.362617,-8.74E-4,0.050204,5.87E-4,0.0,1.0,1730.936523,
8.128908,-88.032875,-86.839432,2.551139,0.036246,2.551139,0.036246,-89.999855,-90.0,2.288249,0.060543,0.213303,297.84021,299.299988,0.025405,-0.020703,-17.607063,-6.59E-4,0.050683,9.63E-4,0.0,1.0,1833.204224,
8.584925,-88.033936,-86.840492,2.567776,0.026745,2.567776,0.026745,-89.999855,-90.0,2.289063,0.09052,0.250249,297.827667,300.620361,0.031703,-0.020775,-10.526235,-5.18E-4,0.051023,0.001385,0.0,1.0,1922.011108,
8.584925,-88.033936,-86.840492,2.567776,0.026745,2.567776,0.026745,-89.999855,-90.0,2.289063,0.09052,0.250249,297.827667,300.620361,0.031703,-0.020775,-10.526235,-5.18E-4,0.051023,0.001385,0.0,1.0,1922.011108,
10.118064,-88.035576,-86.842133,2.606842,0.006545,2.606842,0.006545,-89.999855,-90.0,2.29226,0.225138,0.385004,297.766998,303.55365,0.030142,-0.024492,-18.203484,-3.82E-4,0.051356,0.002013,0.0,1.0,2093.368896,
10.681915,-88.035454,-86.84201,2.616861,0.001973,2.616861,0.001973,-89.999855,-90.0,2.293625,0.287427,0.431597,297.737244,304.238281,0.029458,-0.026898,-17.732718,-9.3E-5,0.052137,0.005046,0.0,1.0,2129.110352,
11.53651,-88.034851,-86.841408,2.627123,-0.002644,2.627123,-0.002644,-89.999855,-90.0,2.295903,0.394716,0.503848,297.69165,304.973755,0.028383,-0.030258,-15.309915,-2.8E-5,0.052337,0.006534,0.0,1.0,2167.692383,
12.138719,-88.03418,-86.840736,2.633072,-0.00467,2.633072,-0.00467,-89.999855,-90.0,2.297678,0.479723,0.557107,297.658661,305.300201,0.027716,-0.032547,-11.998351,3.8E-5,0.052542,0.008814,0.0,1.0,2186.853271,
13.059181,-88.032784,-86.83934,2.640643,-0.006331,2.640643,-0.006331,-89.999855,-90.0,2.300673,0.624746,0.638167,297.609558,305.525818,0.026764,-0.035445,6.575634,6.7E-5,0.052661,0.010463,0.0,1.0,2207.261475,
13.680881,-88.031609,-86.838165,2.645178,-0.00673,2.645178,-0.00673,-89.999855,-90.0,2.302898,0.733048,0.693201,297.57724,305.506256,0.026244,-0.037062,14.194398,9.0E-5,0.052813,0.012918,0.0,1.0,2216.612061,
14.620814,-88.029472,-86.836029,2.651124,-0.006328,2.651124,-0.006328,-89.999855,-90.0,2.306584,0.912713,0.777444,297.533203,305.234985,0.025587,-0.038454,12.070702,9.6E-5,0.052904,0.014534,0.0,1.0,2227.512207,
15.251052,-88.027809,-86.834366,2.654913,-0.005511,2.654913,-0.005511,-89.999855,-90.0,2.309277,1.043792,0.834454,297.506805,304.901947,0.025305,-0.038798,5.281623,9.0E-5,0.053022,0.016736,0.0,1.0,2233.554443,
16.226772,-88.024879,-86.831436,2.660493,-0.003844,2.660493,-0.003844,-89.999855,-90.0,2.313802,1.263245,0.922884,297.473297,304.168915,0.025064,-0.038106,8.826008,7.9E-5,0.053098,0.018056,0.0,1.0,2241.354736,
16.83515,-88.022827,-86.829384,2.663978,-0.002661,2.663978,-0.002661,-89.999855,-90.0,2.316845,1.410087,0.978052,297.457031,303.589996,0.025159,-0.037,18.785904,6.4E-5,0.053174,0.01924,0.0,1.0,2245.456787,
17.789366,-88.019272,-86.825829,2.669559,-5.73E-4,2.669559,-5.73E-4,-89.999855,-90.0,2.321965,1.655614,1.065543,297.437012,302.515259,0.025456,-0.034638,12.00778,3.8E-5,0.05328,0.020544,0.0,1.0,2250.98584,
18.452793,-88.016548,-86.823105,2.673469,0.001038,2.673469,0.001038,-89.999855,-90.0,2.325778,1.837149,1.126975,297.426392,301.661804,0.025739,-0.032683,12.962122,8.0E-6,0.053391,0.021545,0.0,1.0,2254.315918,
19.409281,-88.012276,-86.818832,2.679042,0.003585,2.679042,0.003585,-89.999855,-90.0,2.331637,2.114049,1.213027,297.414978,300.302826,0.026216,-0.029601,7.315506,-1.5E-5,0.053469,0.022076,0.0,1.0,2258.550781,
20.047255,-88.009193,-86.81575,2.682817,0.005466,2.682817,0.005466,-89.999855,-90.0,2.335786,2.308578,1.272549,297.408844,299.325836,0.02651,-0.027571,11.189258,-3.7E-5,0.05354,0.022462,0.0,1.0,2261.084717,
21.003609,-88.004204,-86.81076,2.688639,0.0086,2.688639,0.0086,-89.999855,-90.0,2.342374,2.614875,1.359337,297.399292,297.778107,0.026726,-0.024947,10.203274,-7.8E-5,0.053656,0.022954,0.0,1.0,2264.555664,
21.614672,-88.000801,-86.807358,2.692326,0.010801,2.692326,0.010801,-89.999855,-90.0,2.346812,2.819466,1.414941,297.392242,296.750793,0.026659,-0.023621,14.840599,-1.07E-4,0.053734,0.023267,0.0,1.0,2266.609863,
22.597723,-87.994957,-86.801506,2.698427,0.014696,2.698427,0.014696,-89.999855,-90.0,2.354327,3.162758,1.50796,297.377594,295.059601,0.026111,-0.022257,17.92001,-1.54E-4,0.053847,0.023784,0.0,1.0,2269.713135,
23.207476,-87.991096,-86.797653,2.702234,0.017293,2.702234,0.017293,-89.999855,-90.0,2.359231,3.384751,1.560716,297.36615,293.997131,0.02547,-0.021874,12.450103,-1.9E-4,0.053926,0.024234,0.0,1.0,2271.543701,
24.188463,-87.98452,-86.791077,2.708542,0.021725,2.708542,0.021725,-89.999855,-90.0,2.367496,3.755307,1.65082,297.343384,292.292816,0.02405,-0.022009,18.564392,-2.47E-4,0.054045,0.025089,0.0,1.0,2274.370361,
24.824137,-87.980011,-86.786568,2.712739,0.024724,2.712739,0.024724,-89.999855,-90.0,2.373105,4.004307,1.709706,297.325897,291.202942,0.022901,-0.022509,15.991992,-3.1E-4,0.054171,0.026227,0.0,1.0,2276.143066,
25.750082,-87.973099,-86.779655,2.718823,0.029079,2.718823,0.029079,-89.999855,-90.0,2.381634,4.379269,1.794451,297.298431,289.654327,0.020925,-0.023436,12.550557,-3.53E-4,0.054255,0.027101,0.0,1.0,2278.664063,
26.410585,-87.967918,-86.774475,2.724066,0.032237,2.724066,0.032237,-89.999855,-90.0,2.388035,4.655478,2.020181,297.27774,288.588684,0.019612,-0.024186,12.692066,-4.15E-4,0.054376,0.028474,0.0,1.0,2280.428711,
27.333227,-87.960243,-86.766792,2.735622,0.042563,2.735622,0.042563,-89.999855,-90.0,2.397979,5.053552,2.159693,297.249207,287.16922,0.01799,-0.024891,12.349631,-4.61E-4,0.054481,0.029509,0.0,1.0,2282.861084,
27.991047,-87.954376,-86.760933,2.740925,0.046097,2.740925,0.046097,-89.999855,-90.0,2.405597,5.345802,2.221794,297.229156,286.215942,0.016446,-0.025377,15.75574,-6.08E-4,0.054712,0.030936,0.0,1.0,2284.577148,
28.936779,-87.945389,-86.751945,2.747113,0.0502,2.747113,0.0502,-89.999855,-90.0,2.416952,5.777878,2.315751,297.202759,284.944855,0.014863,-0.025602,7.551888,-6.59E-4,0.054818,0.031938,0.0,1.0,2287.025146,
29.539953,-87.939339,-86.745895,2.751368,0.052757,2.751368,0.052757,-89.999855,-90.0,2.424457,6.060685,2.377182,297.187347,284.201599,0.014154,-0.025508,13.133282,-7.17E-4,0.054942,0.033258,0.0,1.0,2288.578369,
30.508663,-87.929115,-86.735672,2.758463,0.056797,2.758463,0.056797,-89.999855,-90.0,2.436942,6.526352,2.478207,297.165344,283.127594,0.013524,-0.024939,11.863826,-7.54E-4,0.055027,0.034029,0.0,1.0,2291.063232,
31.109268,-87.92247,-86.729019,2.763078,0.059393,2.763078,0.059393,-89.999855,-90.0,2.444962,6.822307,2.538232,297.152496,282.53952,0.013263,-0.024506,18.421545,-8.11E-4,0.055169,0.035129,0.0,1.0,2292.601563,
32.047878,-87.911629,-86.718185,2.770216,0.063563,2.770216,0.063563,-89.999855,-90.0,2.457909,7.295208,2.634533,297.133179,281.746429,0.012958,-0.023784,19.753002,-8.48E-4,0.055262,0.035771,0.0,1.0,2295.001709,
32.698315,-87.903793,-86.71035,2.775324,0.066684,2.775324,0.066684,-89.999855,-90.0,2.467185,7.630362,2.701827,297.119019,281.289032,0.012665,-0.023471,7.754766,-9.08E-4,0.055404,0.036737,0.0,1.0,2296.664307,
33.607166,-87.892433,-86.69899,2.782277,0.071214,2.782277,0.071214,-89.999855,-90.0,2.480562,8.108578,2.795883,297.097595,280.778442,0.011918,-0.023334,14.313085,-9.53E-4,0.055506,0.037445,0.0,1.0,2298.988281,
34.254803,-87.884018,-86.690567,2.788024,0.074678,2.788024,0.074678,-89.999855,-90.0,2.490437,8.456405,2.916871,297.080292,280.506104,0.011149,-0.023564,16.360178,-0.001017,0.055646,0.038516,0.0,1.0,2300.645508,
35.158924,-87.871704,-86.678261,2.801671,0.079647,2.801671,0.079647,-89.999855,-90.0,2.505866,8.951816,3.3001,297.053436,280.25174,0.009461,-0.024256,13.164728,-0.001067,0.05576,0.039381,0.0,1.0,2302.963135,
35.777664,-87.862785,-86.669342,2.806507,0.083252,2.806507,0.083252,-89.999855,-90.0,2.516974,9.297055,3.365752,297.032745,280.160614,0.008105,-0.025034,18.157976,-0.001138,0.056033,0.040724,0.0,1.0,2304.550781,
36.728416,-87.848343,-86.6549,2.813039,0.088708,2.813039,0.088708,-89.999855,-90.0,2.534524,9.83782,3.464365,296.998779,280.147125,0.005773,-0.026395,11.963393,-0.001189,0.05613,0.041759,0.0,1.0,2306.996338,
37.344471,-87.838562,-86.645119,2.817693,0.092276,2.817693,0.092276,-89.999855,-90.0,2.546201,10.193947,3.539798,296.975555,280.216736,0.004116,-0.027355,20.254454,-0.001267,0.056261,0.043457,0.0,1.0,2308.581543,
38.264893,-87.823303,-86.62986,2.824864,0.097382,2.824864,0.097382,-89.999855,-90.0,2.564156,10.735774,3.640554,296.941315,280.428619,0.001805,-0.02852,19.204979,-0.001318,0.056354,0.044618,0.0,1.0,2310.957764,
38.851936,-87.813225,-86.619781,2.829683,0.100633,2.829683,0.100633,-89.999855,-90.0,2.575906,11.086595,3.709422,296.919586,280.626648,4.45E-4,-0.02916,18.091425,-0.001391,0.056497,0.04633,0.0,1.0,2312.475098,
39.768044,-87.796928,-86.603485,2.836947,0.10532,2.836947,0.10532,-89.999855,-90.0,2.594722,11.642735,3.799124,296.88739,281.025085,-0.001194,-0.02975,18.856321,-0.001438,0.056594,0.047417,0.0,1.0,2314.848633,
40.402447,-87.785271,-86.591827,2.851321,0.110393,2.851321,0.110393,-89.999855,-90.0,2.608226,12.033834,4.053795,296.865814,281.358795,-0.001975,-0.029955,12.111393,-0.001505,0.056739,0.049027,0.0,1.0,2316.49585,
41.286949,-87.768234,-86.574791,2.860118,0.117433,2.860118,0.117433,-89.999855,-90.0,2.629256,12.587851,4.40949,296.837433,281.893616,-0.002865,-0.029914,17.297722,-0.001577,0.057026,0.050105,0.0,1.0,2318.799805,
41.891899,-87.756004,-86.562553,2.862843,0.120569,2.862843,0.120569,-89.999855,-90.0,2.644088,12.971972,4.483348,296.818726,282.299408,-0.003351,-0.029819,15.143397,-0.001678,0.057202,0.051524,0.0,1.0,2320.378418,
42.821636,-87.736313,-86.54287,2.868499,0.125107,2.868499,0.125107,-89.999855,-90.0,2.66745,13.570642,4.60246,296.791199,282.975189,-0.003778,-0.029491,20.09606,-0.001722,0.057257,0.05246,0.0,1.0,2322.809814,
43.397839,-87.723625,-86.530174,2.872907,0.1281,2.872907,0.1281,-89.999855,-90.0,2.682286,13.946621,4.677994,296.773865,283.419464,-0.004006,-0.029355,16.667156,-0.001787,0.05737,0.053836,0.0,1.0,2324.658936,
44.297188,-87.70311,-86.509659,2.880021,0.132937,2.880021,0.132937,-89.999855,-90.0,2.705986,14.540776,4.793958,296.746155,284.140869,-0.004414,-0.029257,11.624583,-0.00183,0.057458,0.054703,0.0,1.0,2328.793213,
44.870392,-87.689606,-86.496162,2.889727,0.136222,2.889727,0.136222,-89.999855,-90.0,2.722033,14.923882,5.35237,296.72702,284.612244,-0.004953,-0.029439,13.477279,-0.001899,0.0576,0.056088,0.0,1.0,2331.949463,
45.81522,-87.666229,-86.472786,2.899835,0.143246,2.899835,0.143246,-89.999855,-90.0,2.750662,15.562609,5.497576,296.692749,285.396881,-0.006031,-0.030071,10.244317,-0.001946,0.057795,0.057045,0.0,1.0,2337.686768,
46.411148,-87.650749,-86.457306,2.904474,0.146909,2.904474,0.146909,-89.999855,-90.0,2.769133,15.96961,5.576895,296.668762,285.889709,-0.007133,-0.030813,10.683828,-0.002046,0.057997,0.058759,0.0,1.0,2341.522461,
47.304546,-87.626648,-86.433205,2.911089,0.15213,2.911089,0.15213,-89.999855,-90.0,2.797347,16.585163,5.701065,296.631287,286.614777,-0.009123,-0.032017,11.664566,-0.002099,0.058089,0.059958,0.0,1.0,2347.460205,
47.874859,-87.610748,-86.417297,2.915675,0.155528,2.915675,0.155528,-89.999855,-90.0,2.815704,16.981522,5.782962,296.606293,287.064056,-0.010605,-0.032863,20.714907,-0.002173,0.058222,0.061832,0.0,1.0,2351.328369,
48.791462,-87.584435,-86.390984,2.923029,0.160608,2.923029,0.160608,-89.999855,-90.0,2.845781,17.624031,5.9141,296.566376,287.755005,-0.012703,-0.034006,15.39862,-0.002222,0.058314,0.063081,0.0,1.0,2357.625732,
49.360653,-87.567612,-86.374168,2.930035,0.164815,2.930035,0.164815,-89.999855,-90.0,2.86513,18.026388,6.410645,296.541595,288.160461,-0.013632,-0.034577,17.744799,-0.002294,0.058461,0.065077,0.0,1.0,2361.570313,
50.248898,-87.540161,-86.346718,2.945798,0.178445,2.945798,0.178445,-89.999855,-90.0,2.899159,18.660555,6.94273,296.504913,288.751129,-0.01531,-0.034932,19.496231,-0.002354,0.058601,0.066316,0.0,1.0,2367.771729,
50.840603,-87.520935,-86.327492,2.950444,0.181534,2.950444,0.181534,-89.999855,-90.0,2.922458,19.086224,7.028045,296.481049,289.111511,-0.016214,-0.035178,19.958303,-0.002549,0.058916,0.06815,0.0,1.0,2371.918457,
51.727352,-87.490898,-86.297455,2.956337,0.185506,2.956337,0.185506,-89.999855,-90.0,2.957957,19.728928,7.164139,296.44754,289.596954,-0.016904,-0.035147,11.622333,-0.002593,0.059009,0.069344,0.0,1.0,2378.1521,
52.317898,-87.470169,-86.276726,2.960828,0.188157,2.960828,0.188157,-89.999855,-90.0,2.982013,20.160116,7.259737,296.425903,289.881531,-0.017027,-0.035034,12.063307,-0.00265,0.059127,0.071019,0.0,1.0,2382.314941,
53.202732,-87.438126,-86.244682,2.967664,0.191817,2.967664,0.191817,-89.999855,-90.0,3.018695,20.810844,7.403368,296.394501,290.246735,-0.016738,-0.034721,12.820369,-0.002688,0.059217,0.072101,0.0,1.0,2388.567139,
53.791981,-87.416183,-86.22274,2.97239,0.194331,2.97239,0.194331,-89.999855,-90.0,3.043552,21.247215,7.499904,296.373138,290.447845,-0.016402,-0.034616,13.28081,-0.00274,0.059353,0.073671,0.0,1.0,2392.740234,
54.67453,-87.382469,-86.189026,2.979137,0.197897,2.979137,0.197897,-89.999855,-90.0,3.081436,21.905476,7.649162,296.340332,290.684845,-0.015785,-0.034601,13.946725,-0.002776,0.059448,0.074739,0.0,1.0,2399.006592,
55.262833,-87.359482,-86.166039,2.983734,0.200375,2.983734,0.200375,-89.999855,-90.0,3.107092,22.346708,7.740506,296.316986,290.799591,-0.01548,-0.034837,14.321309,-0.002827,0.059583,0.076379,0.0,1.0,2403.188721,
56.143806,-87.32428,-86.130836,2.9903,0.203863,2.9903,0.203863,-89.999855,-90.0,3.146174,23.012024,7.882228,296.280243,290.907288,-0.015177,-0.035407,14.888744,-0.002863,0.059675,0.077547,0.0,1.0,2409.468262,
56.730457,-87.300362,-86.106918,2.994863,0.20625,2.994863,0.20625,-89.999855,-90.0,3.172625,23.457809,7.978194,296.25412,290.93692,-0.015149,-0.036009,19.017872,-0.002912,0.059806,0.079384,0.0,1.0,2413.658936,
57.609493,-87.263847,-86.070404,3.000324,0.210602,3.000324,0.210602,-89.999855,-90.0,3.212526,24.129728,8.014135,296.213989,290.920258,-0.015121,-0.036909,19.133419,-0.002946,0.059897,0.08069,0.0,1.0,2419.951904,
58.194805,-87.239143,-86.0457,3.004764,0.212757,3.004764,0.212757,-89.999855,-90.0,3.239419,24.579769,8.111609,296.186462,290.869995,-0.015196,-0.037581,18.372433,-0.003009,0.060006,0.082697,0.0,1.0,2424.151611,
59.071522,-87.201538,-86.008095,3.011292,0.21539,3.011292,0.21539,-89.999855,-90.0,3.280364,25.257856,8.255911,296.146149,290.739227,-0.015019,-0.038312,12.930981,-0.003039,0.060095,0.084073,0.0,1.0,2430.457275,
59.654736,-87.176033,-85.98259,3.019888,0.215236,3.019888,0.215236,-89.999855,-90.0,3.309127,25.711866,8.805548,296.119781,290.617432,-0.014708,-0.03871,14.573217,-0.003077,0.060226,0.086089,0.0,1.0,2434.664551,
60.527992,-87.136765,-85.943321,3.030331,0.216476,3.030331,0.216476,-89.999855,-90.0,3.353951,26.395689,9.583896,296.08255,290.387146,-0.013276,-0.03882,18.005938,-0.003075,0.060398,0.087407,0.0,1.0,2441.004639,
61.10825,-87.10965,-85.916206,3.039007,0.217483,3.039007,0.217483,-89.999855,-90.0,3.386851,26.853371,9.916445,296.058929,290.204681,-0.011984,-0.038705,14.024962,-0.003093,0.060607,0.089268,0.0,1.0,2445.288086,
61.977848,-87.067322,-85.873878,3.044421,0.218605,3.044421,0.218605,-89.999855,-90.0,3.436798,27.542488,10.05418,296.025391,289.892761,-0.009104,-0.038254,16.213331,-0.003107,0.06078,0.09045,0.0,1.0,2451.771973,
62.556984,-87.038116,-85.844673,3.048086,0.219165,3.048086,0.219165,-89.999855,-90.0,3.470498,28.003571,10.156277,296.003479,289.662506,-0.006778,-0.037935,20.884655,-0.003123,0.060888,0.092126,0.0,1.0,2456.120605,
63.424561,-86.993057,-85.799606,3.053878,0.219409,3.053878,0.219409,-89.999855,-90.0,3.521702,28.697609,10.315182,295.971436,289.289368,-0.002667,-0.0374,15.533293,-0.003131,0.060962,0.093222,0.0,1.0,2462.669434,
Command: fly_strait
64.001961,-86.962219,-85.768776,3.061995,0.224111,3.061995,0.224111,-89.999855,-90.0,3.557171,29.161852,10.980012,295.949799,289.025513,3.7E-4,-0.037021,14.116224,-0.003134,0.061078,0.094824,0.0,1.0,2467.047363,
64.870888,-86.914452,-85.721008,3.068547,0.239826,3.068547,0.239826,-89.999855,-90.0,3.612534,29.860466,11.142903,295.82785,288.61264,-0.002051,-0.053109,14.912343,-0.003202,0.06124,0.0,0.0,1.0,2473.630127,
65.460327,-86.881653,-85.68821,3.06844,0.243417,3.06844,0.243417,-89.999855,-90.0,3.649854,30.327709,11.237262,295.519867,288.32843,-0.016212,-0.099091,15.372592,-0.003426,0.061371,0.006097,0.0,1.0,2478.049316,
66.381317,-86.829849,-85.636406,3.064814,0.226386,3.064814,0.226386,-89.999855,-90.0,3.708035,31.050421,11.403704,294.771637,287.876373,-0.063489,-0.203175,21.094631,-0.003477,0.061369,0.021497,0.0,1.0,2484.942139,
66.957008,-86.796913,-85.60347,3.062982,0.207689,3.062982,0.207689,-89.999855,-90.0,3.744703,31.501177,11.805489,294.22229,287.585419,-0.109714,-0.27259,16.351177,-0.003234,0.061296,0.058908,0.0,1.0,2489.274414,
67.858719,-86.74379,-85.550346,3.074542,0.167503,3.074542,0.167503,-89.999855,-90.0,3.808074,32.209103,12.960969,293.451508,287.111176,-0.183773,-0.352724,17.356356,-0.002967,0.06126,0.086375,0.0,1.0,2496.114502,
68.459633,-86.706932,-85.513489,3.078153,0.14135,3.078153,0.14135,-89.999855,-90.0,3.851549,32.682713,13.111802,293.089752,286.781067,-0.224206,-0.375,18.06115,-0.002393,0.061491,0.124915,0.0,1.0,2500.705078,
69.35775,-86.649696,-85.456253,3.083782,0.097751,3.083782,0.097751,-89.999855,-90.0,3.918713,33.395504,13.988495,292.915588,286.266205,-0.258248,-0.34591,22.474487,-0.002019,0.061563,0.143002,0.0,1.0,2507.614502,
69.958649,-86.610023,-85.41658,3.06512,0.036144,3.06512,0.036144,-89.999855,-90.0,3.966732,33.872257,14.726882,293.063568,285.913452,-0.258717,-0.288182,15.644782,-0.001396,0.061676,0.151711,0.0,1.0,2512.237305,
70.845024,-86.547867,-85.354424,3.01565,-0.078215,3.01565,-0.078215,-89.999855,-90.0,4.040904,34.589664,14.714757,293.620819,285.381775,-0.222247,-0.160812,18.25354,-5.16E-4,0.061302,0.144312,0.0,1.0,2519.17627,
71.416161,-86.505013,-85.311569,2.998939,-0.118472,2.998939,-0.118472,-89.999855,-90.0,4.089273,35.069267,14.229164,294.131775,285.034698,-0.175707,-0.064323,22.806072,0.001117,0.060313,0.116449,0.0,1.0,2523.760986,
72.244713,-86.439507,-85.246063,3.000155,-0.056801,3.000155,-0.056801,-89.999855,-90.0,4.162261,35.79026,15.726204,294.871582,284.541412,-0.087417,0.05977,23.179039,0.001692,0.059979,0.090901,0.0,1.0,2530.508789,
72.790306,-86.394333,-85.20089,2.949516,0.102546,2.949516,0.102546,-89.999855,-90.0,4.218815,36.271725,17.80574,295.234863,284.238892,-0.027613,0.113923,19.505327,8.11E-4,0.060003,0.053911,0.0,1.0,2534.922607,
Command_Fault: set /instrumentation/magnetic-compass/serviceable false
73.624062,-86.32251,-85.129066,2.797367,0.468839,2.797367,0.468839,-89.999855,-90.0,4.308508,36.994892,17.491882,295.412109,283.835327,0.048426,0.129619,21.011559,-0.001465,0.05899,0.035747,0.0,1.0,2541.491211,
74.196129,-86.272598,-85.079147,2.718628,0.689615,2.718628,0.689615,-89.999855,-90.0,4.365016,37.477654,16.426138,295.262085,283.715424,0.081568,0.096068,21.562092,-0.006698,0.055947,0.026884,0.0,1.0,2545.891846,
75.07325,-86.196556,-85.003113,2.673605,0.778567,2.673605,0.778567,-89.999855,-90.0,4.446621,38.203953,16.669186,294.718231,283.715424,0.100957,-0.002659,17.427376,-0.009852,0.054373,0.034386,0.0,1.0,2552.582764,
75.665741,-86.145096,-84.951653,2.641156,0.612509,2.641156,0.612509,-79.999855,-80.0,4.505276,38.690548,18.705647,294.251221,283.715424,0.095068,-0.080976,19.00112,-0.011122,0.053472,0.061578,0.0,1.0,2557.113525,
76.551971,-86.06398,-84.870537,2.643583,0.03142,2.643583,0.03142,-79.999855,-80.0,4.614742,39.422043,26.024805,293.653137,283.715424,0.067308,-0.17379,22.591549,-0.00875,0.052823,0.084929,0.0,1.0,2563.995361,
77.135452,-86.003593,-84.81015,2.697992,-0.488138,2.697992,-0.488138,-79.999855,-80.0,4.717133,39.910786,35.746201,293.429993,283.715424,0.046066,-0.202697,19.820442,-4.49E-4,0.052872,0.114833,0.0,1.0,2568.615723,
77.985832,-85.891762,-84.698318,2.85004,-1.217454,2.85004,-1.217454,-79.999855,-80.0,4.951138,40.645168,58.855873,293.466522,283.715424,0.023279,-0.180978,26.444635,0.006973,0.05396,0.12599,0.0,1.0,2575.546387,
78.52356,-85.792931,-84.599487,2.994217,-1.547206,2.994217,-1.547206,-79.999855,-80.0,5.18196,41.135208,79.462723,293.712952,283.715424,0.021542,-0.130132,33.59605,0.017392,0.057001,0.124164,0.0,1.0,2580.121094,
79.271011,-85.587654,-84.394211,3.224797,-1.623214,3.224797,-1.623214,-79.999855,-80.0,5.670236,41.869987,115.511528,294.25,283.715424,0.04031,-0.028784,48.810402,0.022103,0.059884,0.111842,0.0,1.0,2586.813965,
79.728371,-85.400467,-84.207024,3.38464,-1.40324,3.38464,-1.40324,-79.999855,-80.0,6.099689,42.359028,141.388916,294.597321,283.715424,0.063655,0.033951,61.724548,0.023189,0.064496,0.08499,0.0,1.0,2591.081787,
80.372742,-85.025284,-83.831841,3.567469,-0.792251,3.567469,-0.792251,-79.999855,-80.0,6.906573,43.090282,179.666107,294.883728,283.715424,0.10391,0.084837,84.590797,0.020046,0.067693,0.067624,0.0,1.0,2596.349609,
80.787483,-84.703896,-83.510452,3.663198,-0.33087,3.663198,-0.33087,-79.999855,-80.0,7.545459,43.575729,202.392349,294.859314,283.715424,0.124746,0.081636,101.444794,0.011318,0.071349,0.053304,0.0,1.0,2599.200928,
81.403015,-84.107574,-82.914124,3.758034,0.174736,3.758034,0.174736,-79.999855,-80.0,8.636425,44.300236,232.306961,294.517303,283.715424,0.137744,0.025845,127.811096,0.004727,0.073264,0.054524,0.0,1.0,2602.832275,
81.797585,-83.632896,-82.439445,3.819633,0.308638,3.819633,0.308638,-79.999855,-80.0,9.440998,44.78064,249.477371,294.166351,283.715424,0.131151,-0.029931,145.513687,-0.002496,0.075161,0.071625,0.0,1.0,2604.956055,
82.321007,-82.807732,-81.614288,3.915784,0.14327,3.915784,0.14327,-79.999855,-80.0,10.748473,45.4972,272.444489,293.681458,283.715424,0.103417,-0.103459,171.521469,-0.004409,0.076393,0.089172,0.0,1.0,2607.785889,
82.660362,-82.184944,-80.991501,3.98872,-0.13482,3.98872,-0.13482,-79.999855,-80.0,11.681669,45.97213,286.889496,293.494324,283.715424,0.081207,-0.128025,188.280624,-0.002047,0.078316,0.113417,0.0,1.0,2609.491699,
83.14801,-81.146675,-79.953232,4.098687,-0.59052,4.098687,-0.59052,-79.999855,-80.0,13.170783,46.680004,308.010895,293.538696,283.715424,0.055519,-0.109727,212.505753,0.001926,0.079774,0.122774,0.0,1.0,2611.85376,
83.451302,-80.387642,-79.194199,4.186995,-0.793872,4.186995,-0.793872,-79.999855,-80.0,14.22266,47.148579,323.064545,293.769806,283.715424,0.051446,-0.065339,228.099884,0.008436,0.081974,0.120555,0.0,1.0,2613.320068,
83.863876,-79.150414,-77.95697,4.334317,-0.776216,4.334317,-0.776216,-79.999855,-80.0,15.907038,47.845661,350.798126,294.266968,283.715424,0.066521,0.022685,251.168427,0.011341,0.08374,0.109,0.0,1.0,2615.371094,
84.109741,-78.257935,-77.064491,4.4507,-0.553365,4.4507,-0.553365,-79.999855,-80.0,17.11306,48.306042,372.441742,294.58493,283.715424,0.087082,0.075868,266.826538,0.011089,0.086686,0.084142,0.0,1.0,2616.643311,
84.452179,-76.811333,-75.617889,4.599137,-0.019866,4.599137,-0.019866,-79.999855,-80.0,19.057707,48.989349,403.302643,294.839905,283.715424,0.122517,0.11437,291.357666,0.007905,0.089014,0.068243,0.0,1.0,2618.424561,
84.676392,-75.772812,-74.579369,4.668707,0.349764,4.668707,0.349764,-79.999855,-80.0,20.431032,49.439804,419.479553,294.814972,283.715424,0.139645,0.106326,308.217712,2.84E-4,0.091983,0.055495,0.0,1.0,2619.546143,
85.022568,-74.10704,-72.913597,4.701429,0.692972,4.701429,0.692972,-69.999855,-70.0,22.576229,50.107807,437.14389,294.520081,283.715424,0.14701,0.051215,333.232727,-0.004997,0.093374,0.056741,0.0,1.0,2621.16748,
85.26004,-72.929527,-71.736084,4.712448,0.724027,4.712448,0.724027,-69.999855,-70.0,24.049187,50.548172,445.998474,294.235626,283.715424,0.13743,0.001502,349.144043,-0.0099,0.094029,0.071486,0.0,1.0,2622.224365,
Command_Fault: set /instrumentation/magnetic-compass/serviceable true
85.61866,-71.073471,-69.880028,4.750218,0.460837,4.750218,0.460837,-69.999855,-70.0,26.309425,51.20158,457.755341,293.884521,283.715424,0.108479,-0.05763,371.269562,-0.010343,0.094249,0.085709,0.0,1.0,2623.786865,
85.855103,-69.782036,-68.588593,4.792858,0.164664,4.792858,0.164664,-69.999855,-70.0,27.849796,51.632515,466.306854,293.788116,283.597595,0.088001,-0.072654,384.799255,-0.006583,0.095004,0.103264,0.0,1.0,2624.813965,
86.195374,-67.770576,-66.577126,4.870869,-0.248968,4.870869,-0.248968,-69.999855,-70.0,30.218803,52.271801,481.366028,293.921753,283.230835,0.067452,-0.047941,403.594666,-0.002352,0.095857,0.108084,0.0,1.0,2626.325195,
86.405075,-66.381905,-65.188461,4.938386,-0.404562,4.938386,-0.404562,-69.999855,-70.0,31.84339,52.693062,493.18808,294.162567,282.978821,0.066702,-0.007343,415.446869,0.003557,0.097417,0.101402,0.0,1.0,2627.304932,
86.688492,-64.227371,-63.033924,5.04339,-0.338694,5.04339,-0.338694,-59.999859,-60.0,34.359936,53.317097,513.187012,294.589142,282.597778,0.083976,0.061792,432.805756,0.005779,0.098768,0.089362,0.0,1.0,2628.713623,
86.861198,-62.74205,-61.548603,5.113621,-0.127779,5.113621,-0.127779,-59.999859,-60.0,36.095081,53.727623,527.474487,294.81778,282.346161,0.102631,0.096412,444.389832,0.004838,0.100868,0.068033,0.0,1.0,2629.607422,
87.1138,-60.43766,-59.244217,5.187709,0.294323,5.187709,0.294323,-59.999859,-60.0,38.788227,54.334877,548.93158,294.929169,281.977661,0.129661,0.107258,462.098511,0.001825,0.102272,0.056601,0.0,1.0,2630.888916,
87.285301,-58.849632,-57.656189,5.228444,0.536691,5.228444,0.536691,-59.999859,-60.0,40.641029,54.734013,562.082275,294.834442,281.73941,0.13866,0.086178,474.110565,-0.004205,0.103754,0.051032,0.0,1.0,2631.717773,
87.550598,-56.387955,-55.194511,5.278347,0.663918,5.278347,0.663918,-59.999859,-60.0,43.49741,55.32439,579.470764,294.521515,281.392975,0.134039,0.027174,492.453613,-0.007667,0.104569,0.055768,0.0,1.0,2632.945068,
87.730766,-54.69556,-53.502117,5.314433,0.571954,5.314433,0.571954,-49.999859,-50.0,45.447163,55.712627,589.927124,294.286987,281.168518,0.11968,-0.014605,504.613098,-0.009485,0.105567,0.071414,0.0,1.0,2633.759766,
88.000534,-52.08313,-50.889687,5.370743,0.224828,5.370743,0.224828,-49.999859,-50.0,48.436337,56.287243,605.291016,294.073547,280.840668,0.090473,-0.05147,522.496521,-0.008171,0.106289,0.083141,0.0,1.0,2634.979248,
88.175476,-50.293903,-49.10046,5.419318,-0.051742,5.419318,-0.051742,-49.999859,-50.0,50.47216,56.665234,615.910583,294.078186,280.62854,0.074393,-0.050609,534.125244,-0.003212,0.107415,0.093813,0.0,1.0,2635.787842,
88.419861,-47.540245,-46.346798,5.504899,-0.338495,5.504899,-0.338495,-49.999859,-50.0,53.595638,57.224464,633.283936,294.305786,280.323303,0.064065,-0.012299,551.193665,7.39E-4,0.108386,0.093581,0.0,1.0,2636.981201,
88.565247,-45.657871,-44.464428,5.575479,-0.384077,5.575479,-0.384077,-49.999859,-50.0,55.728439,57.59193,646.108215,294.546051,280.131256,0.069305,0.026704,562.436462,0.004836,0.110098,0.082201,0.0,1.0,2637.752686,
88.759209,-42.762638,-41.569195,5.672035,-0.199278,5.672035,-0.199278,-39.999859,-40.0,59.011795,58.134727,666.761292,294.870453,279.865326,0.090434,0.07687,579.359375,0.005487,0.11151,0.070187,0.0,1.0,2638.858643,
88.879288,-40.783123,-39.589676,5.730972,0.028227,5.730972,0.028227,-39.999859,-40.0,61.258377,58.490818,680.667847,294.986267,279.704712,0.106539,0.092189,590.811707,0.002847,0.113441,0.053967,0.0,1.0,2639.561035,
89.060081,-37.737587,-36.544144,5.791614,0.356491,5.791614,0.356491,-39.999859,-40.0,64.71312,59.01622,700.199951,294.935913,279.489746,0.123448,0.076685,608.326965,-4.03E-4,0.114619,0.048177,0.0,1.0,2640.576172,
89.185066,-35.656082,-34.462639,5.826769,0.482124,5.826769,0.482124,-39.999859,-40.0,67.067169,59.360771,711.621338,294.776581,279.362793,0.124073,0.046075,620.164612,-0.005093,0.115832,0.050694,0.0,1.0,2641.23877,
89.378708,-32.458881,-31.265436,5.872255,0.429068,5.872255,0.429068,-29.999857,-30.0,70.665176,59.86935,726.767883,294.47702,279.193604,0.109307,-0.008096,637.90448,-0.006887,0.116535,0.058661,0.0,1.0,2642.226074,
89.509697,-30.279371,-29.085926,5.906392,0.257621,5.906392,0.257621,-29.999857,-30.0,73.103798,60.203106,736.011353,294.319672,279.093018,0.093027,-0.035493,649.557861,-0.00613,0.117445,0.073639,0.0,1.0,2642.883301,
89.703102,-26.941765,-25.74832,5.961261,-0.084951,5.961261,-0.084951,-29.999857,-30.0,76.819061,60.695995,749.702393,294.268829,278.958252,0.069132,-0.043782,666.581055,-0.00368,0.118128,0.081506,0.0,1.0,2643.866211,
89.824501,-24.67296,-23.479515,6.009307,-0.280823,6.009307,-0.280823,-19.999857,-20.0,79.334305,61.019432,759.191956,294.370392,278.87915,0.060781,-0.026635,677.585388,0.001214,0.119225,0.084049,0.0,1.0,2644.514404,
89.986572,-21.206785,-20.01334,6.088572,-0.379925,6.088572,-0.379925,-19.999857,-20.0,83.169426,61.496662,774.629333,294.65271,278.778168,0.063483,0.019949,693.577881,0.004012,0.120186,0.07897,0.0,1.0,2645.460205,
90.080276,-18.85313,-17.659685,6.146733,-0.304675,6.146733,-0.304675,-19.999857,-20.0,85.770485,61.809368,785.708801,294.85437,278.723877,0.074409,0.05182,704.086914,0.005427,0.121771,0.064854,0.0,1.0,2646.064453,
90.208321,-15.258604,-14.06516,6.214131,-0.033958,6.214131,-0.033958,-19.999857,-20.0,89.742668,62.270023,802.525513,295.032227,278.663391,0.096409,0.076866,719.691223,0.004353,0.122935,0.054771,0.0,1.0,2646.926514,
90.292496,-12.819108,-11.625664,6.250822,0.170604,6.250822,0.170604,-9.999858,-10.0,92.436005,62.571491,812.9776,295.028351,278.636719,0.107515,0.072567,730.057983,4.85E-4,0.124283,0.045879,0.0,1.0,2647.476807,
90.425217,-9.095633,-7.902188,6.287251,0.355622,6.287251,0.355622,-9.999858,-10.0,96.537453,63.015411,826.728821,294.851044,278.614532,0.112003,0.037632,745.534729,-0.002437,0.125016,0.046072,0.0,1.0,2648.271484,
90.518845,-6.571763,-5.378318,6.309667,0.355401,6.309667,0.355401,-9.999858,-10.0,99.306847,63.306034,834.475464,294.673065,278.609222,0.10491,0.005572,755.721741,-0.00508,0.125745,0.054938,0.0,1.0,2648.783203,
90.66404,-2.727246,-1.533801,6.341763,0.161402,6.341763,0.161402,1.42E-4,0.0,103.506439,63.734344,844.881958,294.457733,278.611053,0.084265,-0.031894,770.611267,-0.005077,0.126193,0.063837,0.0,1.0,2649.537598,
90.760902,-0.075024,1.11842,6.368579,-0.037276,6.368579,-0.037276,1.42E-4,0.0,106.334274,64.014954,851.580444,294.407104,278.616852,0.070077,-0.040332,780.186401,-0.002306,0.126835,0.074603,0.0,1.0,2650.034912,
90.89843,4.070724,5.264168,6.416552,-0.292433,6.416552,-0.292433,1.42E-4,0.0,110.618942,64.428543,862.117004,294.511475,278.630829,0.05674,-0.02216,793.962341,5.33E-4,0.127372,0.077135,0.0,1.0,2650.769287,
90.979935,6.869366,8.062811,6.458552,-0.371777,6.458552,-0.371777,10.000142,10.0,113.505798,64.699333,869.825928,294.671753,278.64386,0.057309,0.004407,802.781128,0.004178,0.128331,0.071916,0.0,1.0,2651.244385,
91.084717,11.118689,12.312133,6.520092,-0.291246,6.520092,-0.291246,10.000142,10.0,117.887009,65.0979,882.4151,294.928741,278.670044,0.070631,0.045526,815.592163,0.005311,0.129171,0.063902,0.0,1.0,2651.923584,
91.146324,13.986,15.179444,6.559099,-0.139109,6.559099,-0.139109,10.000142,10.0,120.843323,65.358429,891.075073,295.045227,278.692383,0.083377,0.062632,823.950562,0.004161,0.130402,0.051053,0.0,1.0,2652.351074,
91.237259,18.339172,19.532616,6.596986,0.120978,6.596986,0.120978,20.000143,20.0,125.330925,65.741409,903.300537,295.055054,278.732544,0.099599,0.05962,836.340942,0.001987,0.131182,0.045229,0.0,1.0,2652.960205,
91.301567,21.27593,22.469374,6.61586,0.24387,6.61586,0.24387,20.000143,20.0,128.354263,65.991631,910.292053,294.956207,278.762421,0.102862,0.040298,844.519653,-0.001728,0.13194,0.044737,0.0,1.0,2653.353516,
91.405609,25.731144,26.924587,6.635957,0.25211,6.635957,0.25211,30.000143,30.0,132.929199,66.359612,919.094482,294.732605,278.808319,0.094885,-1.5E-4,856.582397,-0.003484,0.132317,0.04968,0.0,1.0,2653.937988,
91.478928,28.732834,29.926277,6.650586,0.146896,6.650586,0.146896,30.000143,30.0,136.001648,66.600258,924.122314,294.597717,278.837433,0.083145,-0.023503,864.407043,-0.003602,0.132719,0.06086,0.0,1.0,2654.328613,
91.589981,33.279053,34.472496,6.676526,-0.102771,6.676526,-0.102771,30.000143,30.0,140.6409,66.95446,931.375366,294.524078,278.875916,0.06377,-0.03551,875.693298,-0.002099,0.133012,0.067604,0.0,1.0,2654.91748,
91.660477,36.337135,37.530579,6.70153,-0.260659,6.70153,-0.260659,40.000141,40.0,143.754227,67.186157,936.498901,294.579498,278.897461,0.055816,-0.025846,882.883484,0.001468,0.133531,0.071286,0.0,1.0,2655.308838,
91.753693,40.963127,42.15657,6.746422,-0.362565,6.746422,-0.362565,40.000141,40.0,148.458435,67.526985,945.118286,294.777985,278.924133,0.055567,0.007492,893.197693,0.003724,0.134031,0.068515,0.0,1.0,2655.883057,
91.829323,45.635078,46.828522,6.796823,-0.271612,6.796823,-0.271612,50.000141,50.0,153.20871,67.859558,954.893799,294.998688,278.945862,0.068498,0.042669,903.076294,0.00518,0.134928,0.058591,0.0,1.0,2656.42749,
91.873726,48.774593,49.968037,6.822321,-0.129536,6.822321,-0.129536,50.000141,50.0,156.403351,68.076599,961.536743,295.082733,278.958405,0.08042,0.054587,909.457092,0.004612,0.135625,0.050844,0.0,1.0,2656.770752,
91.940536,53.524895,54.718338,6.851089,0.095097,6.851089,0.095097,50.000141,50.0,161.235046,68.395164,970.698608,295.065887,278.974335,0.093171,0.048046,919.019104,0.001851,0.136446,0.043353,0.0,1.0,2657.261963,
91.988945,56.717762,57.911209,6.861197,0.18199,6.861197,0.18199,60.000141,60.0,164.479935,68.603004,975.841553,294.966766,278.982178,0.095044,0.0291,925.312805,-3.97E-4,0.136873,0.042918,0.0,1.0,2657.581055,
92.068916,61.544422,62.737869,6.874099,0.164705,6.874099,0.164705,60.000141,60.0,169.375687,68.908257,982.062134,294.764465,278.987488,0.086127,-0.006812,934.567932,-0.0026,0.137224,0.049152,0.0,1.0,2658.05835,
92.125771,64.785507,65.978951,6.882833,0.055461,6.882833,0.055461,60.000141,60.0,172.655487,69.10762,985.611572,294.659363,278.985352,0.074809,-0.024762,940.550293,-0.002753,0.137401,0.055923,0.0,1.0,2658.379395,
92.211609,69.679108,70.872551,6.903129,-0.168957,6.903129,-0.168957,70.000145,70.0,177.596848,69.400703,990.849304,294.618866,278.97226,0.058768,-0.031054,949.149048,-7.92E-4,0.137657,0.064522,0.0,1.0,2658.865234,
92.265152,72.961403,74.154846,6.922109,-0.291564,6.922109,-0.291564,70.000145,70.0,180.90625,69.592148,994.682739,294.684601,278.957092,0.052643,-0.019459,954.610901,0.001342,0.137908,0.066821,0.0,1.0,2659.188477,
92.333786,77.913307,79.10675,6.960319,-0.355899,6.960319,-0.355899,80.000145,80.0,185.896423,69.873352,1001.417908,294.872681,278.926361,0.054906,0.011908,962.433228,0.004165,0.138442,0.06326,0.0,1.0,2659.661865,
92.371315,81.233459,82.426903,6.985151,-0.296975,6.985151,-0.296975,80.000145,80.0,189.243179,70.056755,1006.441406,295.000122,278.901886,0.063048,0.032348,967.458191,0.005079,0.138946,0.057272,0.0,1.0,2659.963867,
92.42028,86.242645,87.436089,7.017851,-0.112175,7.017851,-0.112175,90.000145,90.0,194.295319,70.325684,1014.193115,295.109589,278.861145,0.078123,0.048101,974.825378,0.004242,0.139703,0.047484,0.0,1.0,2660.392334,
92.452866,89.601822,90.795265,7.029983,0.018802,7.029983,0.018802,90.000145,90.0,197.684387,70.500854,1018.923828,295.095184,278.831848,0.086064,0.043495,979.674927,0.002585,0.140178,0.043025,0.0,1.0,2660.664551,
92.507309,94.670044,95.863487,7.04119,0.133279,7.04119,0.133279,90.000145,90.0,202.794571,70.757652,1024.745239,294.96225,278.784271,0.088045,0.018548,986.873291,-2.69E-4,0.1406,0.042731,0.0,1.0,2661.064209,
92.547958,98.067734,99.261177,7.045282,0.116116,7.045282,0.116116,100.000145,100.0,206.215866,70.925041,1027.798096,294.843079,278.74942,0.082394,-0.002539,991.5896,-0.00161,0.14077,0.046629,0.0,1.0,2661.330078,
92.613663,103.190369,104.383812,7.054143,-0.027268,7.054143,-0.027268,100.000145,100.0,211.364929,71.170708,1031.654053,294.705658,278.691223,0.067934,-0.025845,998.449524,-0.001659,0.140906,0.055336,0.0,1.0,2661.733887,
92.657967,106.621429,107.814873,7.063695,-0.160133,7.063695,-0.160133,110.000145,110.0,214.808151,71.330994,1034.189209,294.686737,278.648163,0.058084,-0.028513,1002.832886,-4.7E-4,0.141013,0.06051,0.0,1.0,2662.006348,
92.719048,111.790039,112.983482,7.087244,-0.319705,7.087244,-0.319705,110.000145,110.0,219.990005,71.566254,1038.584351,294.776947,278.578156,0.050856,-0.01273,1009.092407,0.002288,0.141274,0.063153,0.0,1.0,2662.414307,
92.753128,115.24884,116.442291,7.106772,-0.349168,7.106772,-0.349168,110.000145,110.0,223.457886,71.719604,1042.057007,294.888947,278.529022,0.052628,0.006113,1013.017944,0.003989,0.141569,0.060838,0.0,1.0,2662.680176,
92.7939,120.460121,121.653564,7.138495,-0.269209,7.138495,-0.269209,120.000145,120.0,228.683197,71.944313,1048.025269,295.055359,278.454224,0.06334,0.032806,1018.81012,0.004988,0.142135,0.053043,0.0,1.0,2663.061523,
92.816978,123.948845,125.142288,7.153703,-0.156031,7.153703,-0.156031,120.000145,120.0,232.183762,72.090508,1052.088013,295.113586,278.404816,0.072796,0.041037,1022.582214,0.004453,0.142577,0.04715,0.0,1.0,2663.302002,
92.852119,129.204437,130.397873,7.169072,0.014976,7.169072,0.014976,130.000137,130.0,237.458603,72.304451,1057.546875,295.088013,278.332458,0.08238,0.034172,1028.177246,0.002229,0.143074,0.041811,0.0,1.0,2663.646973,
92.878777,132.723129,133.916565,7.172876,0.075061,7.172876,0.075061,130.000137,130.0,240.989029,72.443611,1060.463135,295.005035,278.285339,0.083275,0.018697,1031.872559,5.0E-4,0.14331,0.041898,0.0,1.0,2663.871826,
92.924919,138.022507,139.215942,7.176684,0.048038,7.176684,0.048038,140.000137,140.0,246.300201,72.647408,1063.749146,294.846619,278.215332,0.075486,-0.009018,1037.31604,-0.001072,0.143458,0.047238,0.0,1.0,2664.210205,
92.958618,141.568527,142.761978,7.180066,-0.043286,7.180066,-0.043286,140.000137,140.0,249.849197,72.780136,1065.539673,294.770172,278.168518,0.066378,-0.021839,1040.832275,-0.00106,0.14351,0.052605,0.0,1.0,2664.439209,
93.009491,146.905182,148.098618,7.191122,-0.218108,7.191122,-0.218108,150.000137,150.0,255.183746,72.974701,1068.265747,294.751923,278.09787,0.054246,-0.024236,1045.870483,6.18E-4,0.143601,0.058981,0.0,1.0,2664.787354,
93.040245,150.472687,151.666122,7.203264,-0.306223,7.203264,-0.306223,150.000137,150.0,258.748291,73.101425,1070.419067,294.811127,278.050964,0.050202,-0.013751,1049.002686,0.002303,0.143731,0.060341,0.0,1.0,2665.019531,
93.077675,155.841309,157.03476,7.228167,-0.339046,7.228167,-0.339046,160.000137,160.0,264.110382,73.28698,1074.471924,294.961853,277.982605,0.053284,0.011482,1053.5802,0.004375,0.144065,0.056934,0.0,1.0,2665.359619,
93.096725,159.430801,160.624237,7.243854,-0.282371,7.243854,-0.282371,160.000137,160.0,267.697327,73.407608,1077.573975,295.056519,277.939606,0.060317,0.026665,1056.512207,0.004926,0.144394,0.052058,0.0,1.0,2665.576416,
93.120689,164.83136,166.024796,7.263062,-0.131026,7.263062,-0.131026,160.000137,160.0,273.097412,73.58387,1082.310669,295.126099,277.880524,0.072225,0.036427,1060.814087,0.004034,0.144877,0.044664,0.0,1.0,2665.884766,
93.1371,168.44191,169.635345,7.268792,-0.032926,7.268792,-0.032926,170.000137,170.0,276.710114,73.698296,1085.081909,295.102844,277.845123,0.077888,0.030969,1063.597168,0.002647,0.145162,0.041676,0.0,1.0,2666.081299,
93.166878,173.876495,175.069931,7.272259,0.040236,7.272259,0.040236,170.000137,170.0,282.144073,73.865479,1088.232666,294.98703,277.797363,0.078113,0.009808,1067.846313,4.7E-4,0.145376,0.042348,0.0,1.0,2666.371826,
93.190475,177.510132,178.703583,7.272596,0.013897,7.272596,0.013897,180.000137,180.0,285.774261,73.974106,1089.742676,294.89389,277.768433,0.072842,-0.006406,1070.620605,-4.36E-4,0.145435,0.045862,0.0,1.0,2666.56665,
93.229706,182.974869,184.16832,7.275403,-0.111085,7.275403,-0.111085,180.000137,180.0,291.227692,74.133034,1091.548706,294.798187,277.728119,0.061092,-0.02232,1074.630615,-1.99E-4,0.145452,0.052795,0.0,1.0,2666.864502,
93.256042,186.626526,187.819977,7.280863,-0.214524,7.280863,-0.214524,190.000137,190.0,294.868317,74.236412,1092.801147,294.795441,277.703003,0.053797,-0.022223,1077.171631,8.76E-4,0.145478,0.056512,0.0,1.0,2667.066406,
93.290848,192.115524,193.30896,7.296258,-0.325571,7.296258,-0.325571,190.000137,190.0,300.338287,74.387634,1095.250366,294.881409,277.668304,0.049563,-0.007198,1080.768066,0.003065,0.145617,0.057718,0.0,1.0,2667.369385,
93.308952,195.782257,196.975708,7.309257,-0.334241,7.309257,-0.334241,200.000137,200.0,303.992676,74.485863,1097.346313,294.972137,277.647888,0.052072,0.008053,1083.040039,0.004286,0.145808,0.055341,0.0,1.0,2667.56665,
93.328674,201.293793,202.487228,7.329307,-0.252807,7.329307,-0.252807,200.000137,200.0,309.488708,74.629234,1101.041748,295.093658,277.62262,0.06149,0.027462,1086.322021,0.004775,0.146185,0.048883,0.0,1.0,2667.849609,
93.339241,204.976227,206.169662,7.339322,-0.158681,7.339322,-0.158681,200.000137,200.0,313.163239,74.722153,1103.567261,295.130096,277.609894,0.068684,0.032434,1088.46814,0.003612,0.146586,0.042807,0.0,1.0,2668.028564,
93.356667,210.512634,211.706085,7.344393,-0.033063,7.344393,-0.033063,210.000137,210.0,318.689697,74.857567,1106.727661,295.090485,277.596924,0.075635,0.023793,1091.673096,0.002267,0.146786,0.040985,0.0,1.0,2668.287109,
93.371452,214.212051,215.405487,7.344563,0.005729,7.344563,0.005729,210.000137,210.0,322.381439,74.945313,1108.194336,295.015442,277.591766,0.075187,0.010267,1093.799683,4.72E-4,0.146888,0.042966,0.0,1.0,2668.457031,
93.398888,219.772919,220.966354,7.343518,-0.03899,7.343518,-0.03899,220.000137,220.0,327.926544,75.073357,1109.686523,294.892029,277.587769,0.067639,-0.011051,1096.928101,-8.2E-5,0.146891,0.046718,0.0,1.0,2668.715332,
93.419441,223.486023,224.679474,7.344182,-0.120001,7.344182,-0.120001,220.000137,220.0,331.626831,75.156448,1110.444092,294.837921,277.58667,0.0604,-0.019952,1098.881348,5.57E-4,0.14687,0.052889,0.0,1.0,2668.891357,
Command: turn_+45
93.450249,229.06665,230.260101,7.350566,-0.256792,7.350566,-0.256792,230.000137,230.0,337.18222,75.277824,1111.743896,294.842804,277.586639,0.051144,-0.018318,1101.760376,0.001714,0.146884,0.055594,0.0,1.0,2669.1604,
93.467606,232.792465,233.985901,7.359451,-0.32723,7.359451,-0.32723,230.000137,230.0,340.890076,75.356575,1112.982178,294.911194,277.587708,0.043072,-0.006077,1103.557617,0.001223,0.147011,0.1,0.0,1.0,2669.340088,
93.477142,238.389008,239.582458,7.384161,-0.362139,7.384161,-0.362139,240.000137,240.0,346.461304,75.471291,1115.643677,295.23233,277.592224,0.041754,0.046426,1106.103027,0.001558,0.147189,0.1,0.0,1.0,2669.597412,
93.466606,242.125671,243.319107,7.410195,-0.255995,7.410195,-0.255995,240.000137,240.0,350.184631,75.545319,1118.403687,295.534668,277.599091,0.054515,0.093299,1107.741333,0.001724,0.147683,0.1,0.0,1.0,2669.748535,
93.427322,247.741013,248.934448,7.443954,0.124331,7.443954,0.124331,250.000137,250.0,355.790283,75.652283,1123.859009,295.974457,277.618958,0.08672,0.157023,1110.231079,0.001219,0.148204,0.1,0.0,1.0,2669.92749,
93.392487,251.493073,252.686523,7.458375,0.488614,7.458375,0.488614,250.000137,250.0,359.543121,75.720695,1127.694702,296.194458,277.64035,0.110755,0.184917,1111.991333,-5.92E-4,0.148879,0.1,0.0,1.0,2670.013184,
93.34137,257.136322,258.329773,7.45984,1.081617,7.45984,1.081617,260.000153,260.0,365.194519,75.818855,1132.37146,296.367065,277.686035,0.141121,0.198057,1114.866577,-0.002327,0.149167,0.1,0.0,1.0,2670.104248,
93.313499,260.909058,262.102509,7.454766,1.449354,7.454766,1.449354,260.000153,260.0,368.972565,75.881416,1134.220337,296.386139,277.725281,0.153668,0.190194,1116.932007,-0.005151,0.149197,0.1,0.0,1.0,2670.151611,
93.28363,266.581818,267.775269,7.446154,1.868196,7.446154,1.868196,270.000153,270.0,374.647217,75.97123,1135.303101,296.331055,277.79541,0.159109,0.164277,1120.091309,-0.006902,0.149095,0.1,0.0,1.0,2670.221436,
93.27095,270.372894,271.566315,7.440418,2.048254,7.440418,2.048254,270.000153,270.0,378.431427,76.028656,1135.119263,296.284698,277.848145,0.155207,0.145712,1122.230591,-0.008896,0.148923,0.1,0.0,1.0,2670.27417,
93.259254,276.068512,277.261963,7.433073,2.180051,7.433073,2.180051,280.000153,280.0,384.104492,76.111504,1134.033813,296.27063,277.933899,0.143259,0.1272,1125.239624,-0.009754,0.148808,0.1,0.0,1.0,2670.367432,
93.253822,279.8685,281.061951,7.428025,2.210455,7.428025,2.210455,280.000153,280.0,387.882996,76.164711,1133.08606,296.323181,277.994568,0.13473,0.124961,1126.983154,-0.010381,0.148661,0.1,0.0,1.0,2670.438477,
93.245262,285.573608,286.767059,7.422749,2.231897,7.422749,2.231897,290.000153,290.0,393.545013,76.241661,1131.822388,296.503021,278.090576,0.12588,0.137196,1129.322388,-0.010526,0.14856,0.1,0.0,1.0,2670.553955,
93.236923,289.377747,290.571198,7.420646,2.26321,7.420646,2.26321,290.000153,290.0,397.316772,76.291107,1131.312622,296.677185,278.158356,0.124111,0.153155,1130.605713,-0.010628,0.148455,0.1,0.0,1.0,2670.632568,
93.218582,295.083923,296.277374,7.420133,2.367588,7.420133,2.367588,290.000153,290.0,402.972687,76.36245,1131.175293,296.979858,278.267059,0.127648,0.181689,1132.152222,-0.010777,0.148413,0.1,0.0,1.0,2670.745605,
93.20282,298.887817,300.081268,7.420191,2.478701,7.420191,2.478701,300.000153,300.0,406.743683,76.408119,1131.442627,297.184174,278.345154,0.132933,0.199566,1132.9729,-0.011274,0.148403,0.1,0.0,1.0,2670.814697,
93.176453,304.593597,305.787018,7.419206,2.686856,7.419206,2.686856,300.000153,300.0,412.402405,76.473732,1132.031006,297.461945,278.471954,0.142308,0.219445,1133.972656,-0.011803,0.148404,0.1,0.0,1.0,2670.907471,
93.158928,308.397614,309.591064,7.417455,2.837016,7.417455,2.837016,310.000153,310.0,416.176422,76.515572,1132.334839,297.619171,278.563293,0.147775,0.226919,1134.527832,-0.012795,0.148384,0.1,0.0,1.0,2670.964111,
93.135246,314.104095,315.297546,7.413463,3.042685,7.413463,3.042685,310.000153,310.0,421.838501,76.575569,1132.403198,297.816101,278.710541,0.152879,0.230359,1135.23938,-0.01351,0.148349,0.1,0.0,1.0,2671.044922,
93.121758,317.90744,319.100891,7.409854,3.156052,7.409854,3.156052,320.000153,320.0,425.612762,76.613808,1132.119141,297.931213,278.815216,0.1538,0.229392,1135.588135,-0.014489,0.148269,0.1,0.0,1.0,2671.099121,
93.105438,323.614044,324.807495,7.404067,3.277004,7.404067,3.277004,320.000153,320.0,431.271332,76.668709,1131.258667,298.101807,278.981323,0.15208,0.226874,1136.102783,-0.015029,0.148197,0.1,0.0,1.0,2671.184814,
93.096466,327.417572,328.611023,7.399528,3.33005,7.399528,3.33005,330.000153,330.0,435.040894,76.703766,1130.477661,298.226105,279.097626,0.149693,0.226533,1136.349365,-0.015605,0.148081,0.1,0.0,1.0,2671.245605,
93.084511,333.120575,334.313995,7.393124,3.38067,7.393124,3.38067,330.000153,330.0,440.689972,76.754189,1129.194946,298.441101,279.279999,0.145931,0.229963,1136.556274,-0.015857,0.147991,0.1,0.0,1.0,2671.342529,
93.076599,336.919342,338.112793,7.388685,3.40713,7.388685,3.40713,340.000153,340.0,444.452545,76.786415,1128.375,298.605042,279.406677,0.144119,0.235063,1136.526611,-0.016098,0.147862,0.1,0.0,1.0,2671.409912,
93.064125,342.615753,343.809174,7.383293,3.451289,7.383293,3.451289,340.000153,340.0,450.091614,76.832764,1127.329956,298.875977,279.604401,0.143204,0.245751,1136.425049,-0.016224,0.147774,0.1,0.0,1.0,2671.513184,
Command_Fault: set /instrumentation/magnetic-compass/serviceable false
93.054932,346.410583,347.604034,7.37989,3.490046,7.37989,3.490046,350.000153,350.0,453.848419,76.862358,1126.791748,299.066559,279.741425,0.143811,0.253743,1136.253418,-0.016435,0.147666,0.1,0.0,1.0,2671.582031,
93.039963,352.098724,353.292175,7.375823,3.563277,7.375823,3.563277,350.000153,350.0,459.480713,76.904823,1126.177856,299.355042,279.811554,0.146013,0.264962,1135.874268,-0.016619,0.147598,0.1,0.0,1.0,2671.683594,
93.029579,355.888184,357.081635,7.373076,3.6201,7.373076,3.6201,360.000153,360.0,463.2341,76.931877,1125.851196,299.543304,279.811554,0.147827,0.271054,1135.561646,-0.016968,0.147516,0.1,0.0,1.0,2671.750244,
93.014198,361.568634,362.762085,7.369297,3.70712,7.369297,3.70712,360.000153,360.0,468.862122,76.970627,1125.365967,299.814911,279.811554,0.150244,0.27744,1135.035767,-0.017239,0.147462,0.1,0.0,1.0,2671.848877,
93.004501,365.353241,366.546692,7.366457,3.762043,7.366457,3.762043,360.000153,360.0,472.612732,76.995277,1124.996582,299.989014,279.811554,0.151291,0.280033,1134.661011,-0.017653,0.147386,0.1,0.0,1.0,2671.914551,
92.991249,371.026733,372.220154,7.362272,3.831179,7.362272,3.831179,370.000153,370.0,478.236023,77.030556,1124.325073,300.244171,279.811554,0.151813,0.282272,1134.074951,-0.017914,0.147329,0.1,0.0,1.0,2672.01416,
92.983261,374.806732,376.000183,7.35908,3.867856,7.35908,3.867856,370.000153,370.0,481.98291,77.053001,1123.800171,300.41394,279.811554,0.151539,0.283356,1133.67041,-0.018244,0.147245,0.1,0.0,1.0,2672.082031,
92.972321,380.473145,381.666565,7.354508,3.908582,7.354508,3.908582,380.000153,380.0,487.599701,77.085152,1122.935181,300.673981,279.811554,0.150597,0.285351,1133.040283,-0.018418,0.147182,0.1,0.0,1.0,2672.186279,
92.965485,384.24823,385.441681,7.35118,3.929401,7.35118,3.929401,380.000153,380.0,491.341797,77.105621,1122.342407,300.853088,279.811554,0.149894,0.287306,1132.602173,-0.018612,0.14709,0.1,0.0,1.0,2672.257324,
92.955482,389.906921,391.100372,7.346737,3.955752,7.346737,3.955752,390.000153,390.0,496.951294,77.134933,1121.48584,301.131439,279.811554,0.149133,0.291291,1131.915649,-0.018711,0.147024,0.1,0.0,1.0,2672.366211,
92.948669,393.675598,394.869049,7.343689,3.973341,7.343689,3.973341,390.000153,390.0,500.68866,77.153595,1120.963257,301.322449,279.811554,0.148956,0.29448,1131.38501,-0.018837,0.146935,0.1,0.0,1.0,2672.439697,
92.938538,399.326538,400.519989,7.339821,4.002346,7.339821,4.002346,400.000153,400.0,506.291656,77.180305,1120.267944,301.613983,279.811554,0.149216,0.299512,1130.676392,-0.018921,0.146874,0.1,0.0,1.0,2672.551025,
92.931641,403.091156,404.284607,7.337219,4.024254,7.337219,4.024254,400.000153,400.0,510.025177,77.197289,1119.861328,301.809509,279.811554,0.149649,0.302692,1130.188599,-0.019059,0.146796,0.1,0.0,1.0,2672.625244,
92.91597,408.734222,409.927673,7.333884,4.05905,7.333884,4.05905,410.000153,410.0,515.622986,77.221558,1119.269409,302.101746,279.811554,0.150314,0.306759,1129.446899,-0.019163,0.146744,0.1,0.0,1.0,2672.735596,
92.897766,412.493774,413.687225,7.331662,4.079106,7.331662,4.079106,410.000153,410.0,519.352966,77.236977,1118.694458,302.296722,279.811554,0.14991,0.309132,1128.950684,-0.019329,0.146678,0.1,0.0,1.0,2672.800293,
92.871979,418.129211,419.322662,7.327806,4.096013,7.327806,4.096013,420.000153,420.0,524.943726,77.259056,1117.61499,302.59668,279.811554,0.14843,0.313199,1128.197266,-0.019424,0.146633,0.1,0.0,1.0,2672.884766,
92.855545,421.883392,423.076813,7.324091,4.100818,7.324091,4.100818,420.000153,420.0,528.667725,77.273117,1116.782593,302.804535,279.811554,0.147361,0.316706,1127.680176,-0.019505,0.146556,0.1,0.0,1.0,2672.936279,
92.831528,427.51004,428.703491,7.318122,4.105108,7.318122,4.105108,430.000153,430.0,534.248169,77.293282,1115.429443,303.129089,279.811554,0.146254,0.323275,1126.865845,-0.019528,0.146482,0.1,0.0,1.0,2673.009033,
92.815559,431.256714,432.450165,7.313791,4.110038,7.313791,4.110038,430.000153,430.0,537.964661,77.306129,1114.511841,303.352264,279.811554,0.146032,0.328236,1126.235107,-0.019548,0.146362,0.1,0.0,1.0,2673.05542,
92.791924,436.873383,438.066803,7.308121,4.124326,7.308121,4.124326,440.000153,440.0,543.533813,77.324562,1113.190063,303.692352,279.811554,0.146466,0.33574,1125.341187,-0.019572,0.146276,0.1,0.0,1.0,2673.122803,
92.776215,440.612854,441.806305,7.304121,4.138856,7.304121,4.138856,440.000153,440.0,547.242981,77.336296,1112.353027,303.919403,279.811554,0.147122,0.340287,1124.637329,-0.01964,0.146162,0.1,0.0,1.0,2673.166748,
92.753143,446.218536,447.411987,7.298623,4.165557,7.298623,4.165557,450.000153,450.0,552.801575,77.353111,1111.124268,304.256439,279.811554,0.148271,0.345836,1123.653931,-0.019709,0.146082,0.1,0.0,1.0,2673.231689,
92.738304,449.951782,451.145233,7.29462,4.184577,7.29462,4.184577,450.000153,450.0,556.503906,77.363815,1110.300903,304.477631,279.811554,0.148939,0.348568,1122.960083,-0.019836,0.145972,0.1,0.0,1.0,2673.275146,
92.717117,455.545807,456.739258,7.289015,4.210407,7.289015,4.210407,460.000153,460.0,562.052124,77.379158,1109.025757,304.804626,279.811554,0.14955,0.351382,1121.873169,-0.019927,0.145892,0.1,0.0,1.0,2673.341064,
Command_Fault: set /instrumentation/magnetic-compass/serviceable true
92.703766,459.27124,460.464691,7.284882,4.224481,7.284882,4.224481,460.000153,460.0,565.747375,77.388931,1108.14563,305.020599,279.811554,0.149646,0.352656,1121.121948,-0.02005,0.14578,0.1,0.0,1.0,2673.38623,
92.684891,464.853394,466.046844,7.279057,4.23922,7.279057,4.23922,460.000153,460.0,571.284607,77.402985,1106.783813,305.34433,279.976532,0.149402,0.354187,1119.959595,-0.020117,0.145698,0.1,0.0,1.0,2673.456055,
92.672997,468.57077,469.764221,7.2748,4.24543,7.2748,4.24543,470.000153,470.0,574.97229,77.411957,1105.864136,305.561432,280.186005,0.149085,0.355221,1119.162231,-0.020187,0.145581,0.1,0.0,1.0,2673.504395,
92.655991,474.140686,475.334137,7.26897,4.250923,7.26897,4.250923,470.000153,470.0,580.498108,77.424889,1104.493774,305.890656,280.579559,0.148584,0.357073,1117.935059,-0.020216,0.145496,0.1,0.0,1.0,2673.57959,
92.645096,477.849792,479.043243,7.264832,4.253525,7.264832,4.253525,480.000153,480.0,584.178223,77.433182,1103.607544,306.112701,280.891693,0.148336,0.358539,1117.098145,-0.020242,0.145379,0.1,0.0,1.0,2673.631592,
92.629288,483.407196,484.600647,7.25934,4.25782,7.25934,4.25782,480.000153,480.0,589.692932,77.445145,1102.335693,306.448944,281.428467,0.148182,0.360972,1115.820068,-0.020255,0.145297,0.1,0.0,1.0,2673.71167,
92.619034,487.108002,488.301453,7.255519,4.261719,7.255519,4.261719,490.000153,490.0,593.365967,77.45282,1101.535889,306.674316,281.828156,0.14823,0.362611,1114.957275,-0.020275,0.145187,0.1,0.0,1.0,2673.766602,
92.604042,492.653107,493.846558,7.250503,4.269351,7.250503,4.269351,490.000153,490.0,598.870728,77.463928,1100.397827,307.012726,282.483398,0.148463,0.364865,1113.656006,-0.020294,0.14511,0.1,0.0,1.0,2673.85083,
92.594337,496.345856,497.539307,7.24701,4.275367,7.24701,4.275367,500.000153,500.0,602.537476,77.471069,1099.678833,307.237823,282.953003,0.148663,0.366122,1112.789063,-0.02033,0.14501,0.1,0.0,1.0,2673.907959,
92.580292,501.879181,503.072632,7.242366,4.284593,7.242366,4.284593,500.000153,500.0,608.033142,77.481415,1098.638306,307.574127,283.69873,0.148929,0.367576,1111.497681,-0.020359,0.14494,0.1,0.0,1.0,2673.99585,
92.571297,505.564301,506.757721,7.239089,4.29032,7.239089,4.29032,510.000153,510.0,611.694092,77.488083,1097.966675,307.797394,284.218842,0.149038,0.368275,1110.646851,-0.020403,0.144847,0.1,0.0,1.0,2674.05542,
92.558464,511.086456,512.279907,7.234677,4.297248,7.234677,4.297248,510.000153,510.0,617.181396,77.497772,1096.97876,308.13147,285.02536,0.149071,0.36904,1109.390747,-0.02043,0.144782,0.1,0.0,1.0,2674.147217,
92.550316,514.764343,515.957764,7.231546,4.30063,7.231546,4.30063,510.000153,510.0,620.836853,77.504036,1096.336304,308.354065,285.575989,0.149014,0.369446,1108.568481,-0.020463,0.144694,0.1,0.0,1.0,2674.209717,
92.538635,520.27594,521.46936,7.227334,4.303862,7.227334,4.303862,520.000122,520.0,626.316101,77.513168,1095.395508,308.688568,286.413452,0.148859,0.370042,1107.359985,-0.020479,0.144631,0.1,0.0,1.0,2674.30542,
92.531181,523.946899,525.140381,7.224363,4.305152,7.224363,4.305152,520.000122,520.0,629.96637,77.519089,1094.791138,308.912231,286.975067,0.148745,0.370478,1106.571533,-0.020495,0.144547,0.1,0.0,1.0,2674.37085,
92.520424,529.448486,530.641907,7.220417,4.306436,7.220417,4.306436,530.000122,530.0,635.43811,77.527763,1093.920532,309.248901,287.815094,0.14861,0.371224,1105.415894,-0.020501,0.144487,0.1,0.0,1.0,2674.470703,
92.513496,533.112915,534.306396,7.217664,4.307243,7.217664,4.307243,530.000122,530.0,639.083557,77.533401,1093.370728,309.473969,288.369568,0.148561,0.371759,1104.664185,-0.020507,0.144408,0.1,0.0,1.0,2674.53833,
92.503464,538.604919,539.798401,7.214039,4.308786,7.214039,4.308786,540.000122,540.0,644.54834,77.541687,1092.588013,309.812164,289.186493,0.148553,0.372566,1103.566406,-0.020511,0.144353,0.1,0.0,1.0,2674.641602,
92.496437,542.26001,543.453491,7.211496,4.310186,7.211496,4.310186,540.000122,540.0,648.189453,77.547104,1092.093262,310.03772,289.717834,0.14858,0.373056,1102.696777,-0.020518,0.144281,0.1,0.0,1.0,2674.711182,
92.487343,547.743958,548.937439,7.208155,4.31249,7.208155,4.31249,550.000122,550.0,653.648071,77.555069,1091.389648,310.375854,290.489563,0.148636,0.373679,1101.744995,-0.020525,0.14423,0.1,0.0,1.0,2674.817871,
92.481384,551.396973,552.590454,7.205856,4.314022,7.205856,4.314022,550.000122,550.0,657.285278,77.560287,1090.946533,310.601044,290.984406,0.148672,0.374008,1101.114624,-0.020536,0.144163,0.1,0.0,1.0,2674.889893,
92.472771,556.872314,558.065796,7.202803,4.316038,7.202803,4.316038,560.000122,560.0,662.738342,77.566673,1090.311157,310.938507,291.693054,0.148701,0.374387,1100.184814,-0.020543,0.144117,0.1,0.0,1.0,2674.999268,
92.467094,560.518799,561.71228,7.200653,4.317115,7.200653,4.317115,560.000122,560.0,666.372009,77.570107,1089.906006,311.163269,292.141022,0.148689,0.374574,1099.527466,-0.020553,0.144056,0.1,0.0,1.0,2675.073242,
92.45919,565.986572,567.179993,7.19778,4.318139,7.19778,4.318139,570.000122,570.0,671.820068,77.575256,1089.321655,311.500427,292.773407,0.148656,0.374805,1098.672119,-0.020558,0.144013,0.1,0.0,1.0,2675.185547,
92.45414,569.629211,570.822693,7.195769,4.318463,7.195769,4.318463,570.000122,570.0,675.4505,77.57869,1088.949585,311.72525,293.167297,0.14862,0.374944,1098.114502,-0.020563,0.143956,0.1,0.0,1.0,2675.26123,
92.446846,575.0896,576.283081,7.193103,4.318538,7.193103,4.318538,570.000122,570.0,680.89386,77.583862,1088.415894,312.062775,293.715057,0.14856,0.375163,1097.301392,-0.020564,0.143915,0.1,0.0,1.0,2675.376465,
