airspeed_indicator_indicated_speed_kt,altimeter_indicated_altitude_ft,altimeter_pressure_alt_ft,attitude_indicator_indicated_pitch_deg,attitude_indicator_indicated_roll_deg,attitude_indicator_internal_pitch_deg,attitude_indicator_internal_roll_deg,encoder_indicated_altitude_ft,encoder_pressure_alt_ft,gps_indicated_altitude_ft,gps_indicated_ground_speed_kt,gps_indicated_vertical_speed,indicated_heading_deg,magnetic_compass_indicated_heading_deg,slip_skid_ball_indicated_slip_skid,turn_indicator_indicated_turn_rate,vertical_speed_indicator_indicated_speed_fpm,flight_aileron,flight_elevator,flight_rudder,flight_flaps,engine_throttle,engine_rpm,
Command: takeoff
6.541804,-87.984444,-86.791,2.970183,1.356661,2.591034,0.09283,-89.999855,-90.0,2.286523,0.0,0.008173,297.866943,278.62439,0.01238,-0.044599,-14.219509,-0.0,0.0,0.0,0.0,0.0,600.22168,
6.639549,-87.998665,-86.805214,2.921061,1.192984,2.590921,0.092516,-89.999855,-90.0,2.286565,0.0,0.003316,297.865631,282.124207,0.012397,-0.038227,-18.580849,-0.019381,0.051821,0.0,0.0,1.0,610.115601,
6.711326,-88.006111,-86.812668,2.759947,0.684368,2.582191,0.091848,-89.999855,-90.0,2.286551,4.4E-5,-0.011858,297.864685,284.436554,0.012333,-0.034473,-17.050116,-0.017043,0.051818,6.6E-5,0.0,1.0,680.540405,
6.817194,-88.014137,-86.820694,2.576735,0.196222,2.544508,0.0888,-89.999855,-90.0,2.286425,2.34E-4,-0.041334,297.86322,287.477264,0.012209,-0.030037,-18.41156,-0.009777,0.051644,1.13E-4,0.0,1.0,852.969971,
6.926239,-88.018822,-86.825378,2.508409,0.084133,2.508409,0.084133,-89.999855,-90.0,2.286316,7.89E-4,-0.016413,297.862,289.615723,0.012355,-0.027235,-16.772591,-0.002803,0.05089,1.86E-4,0.0,1.0,1011.368164,
7.159778,-88.024025,-86.830582,2.489524,0.073669,2.489524,0.073669,-89.999855,-90.0,2.286387,0.003843,0.04331,297.860046,292.442047,0.012105,-0.023897,-16.853382,-0.001202,0.050168,2.47E-4,0.0,1.0,1245.637817,
7.405898,-88.027054,-86.833603,2.493735,0.063567,2.493735,0.063567,-89.999855,-90.0,2.286625,0.009373,0.085616,297.858124,294.397461,0.011552,-0.021846,-18.550705,-0.001052,0.04979,3.45E-4,0.0,1.0,1413.498047,
7.827984,-88.030121,-86.836678,2.51018,0.048616,2.51018,0.048616,-89.999855,-90.0,2.287162,0.023221,0.138473,297.854095,296.747498,0.010141,-0.019769,-8.54088,-9.08E-4,0.049875,4.41E-4,0.0,1.0,1610.506104,
8.1944,-88.031776,-86.838333,2.524755,0.03764,2.524755,0.03764,-89.999855,-90.0,2.287692,0.03897,0.175787,297.849579,298.25415,0.011342,-0.018751,-17.184267,-6.95E-4,0.050204,6.42E-4,0.0,1.0,1729.809814,
8.630754,-88.033119,-86.839676,2.540256,0.026392,2.540256,0.026392,-89.999855,-90.0,2.288378,0.061812,0.217557,297.842865,299.681854,0.010765,-0.018111,-11.627813,-5.38E-4,0.050495,8.68E-4,0.0,1.0,1835.667603,
8.630754,-88.033119,-86.839676,2.540256,0.026392,2.540256,0.026392,-89.999855,-90.0,2.288378,0.061812,0.217557,297.842865,299.681854,0.010765,-0.018111,-11.627813,-5.38E-4,0.050495,8.68E-4,0.0,1.0,1835.667603,
10.165652,-88.035469,-86.842026,2.580126,-0.001642,2.580126,-0.001642,-89.999855,-90.0,2.291238,0.174178,0.344742,297.8078,302.97641,0.014825,-0.018824,-10.406564,-3.77E-4,0.050805,0.001204,0.0,1.0,2048.095703,
10.735309,-88.035561,-86.84211,2.590893,-0.008666,2.590893,-0.008666,-89.999855,-90.0,2.292473,0.227919,0.391837,297.790314,303.765991,0.017331,-0.019863,-10.950554,2.3E-5,0.051603,0.002957,0.0,1.0,2092.675293,
11.578455,-88.035255,-86.841812,2.602073,-0.016887,2.602073,-0.016887,-89.999855,-90.0,2.294493,0.319412,0.462983,297.764282,304.633423,0.020114,-0.021306,-8.924829,1.24E-4,0.051818,0.003831,0.0,1.0,2140.19165,
12.221131,-88.034752,-86.841301,2.609097,-0.021807,2.609097,-0.021807,-89.999855,-90.0,2.296196,0.398456,0.515973,297.744202,305.0849,0.02209,-0.02236,-3.384935,2.41E-4,0.052041,0.005133,0.0,1.0,2165.821533,
13.167681,-88.033607,-86.840164,2.617692,-0.027506,2.617692,-0.027506,-89.999855,-90.0,2.298985,0.530028,0.595962,297.71637,305.463409,0.024153,-0.023467,11.898318,3.12E-4,0.052182,0.006137,0.0,1.0,2192.246094,
13.809533,-88.032593,-86.839149,2.622839,-0.030587,2.622839,-0.030587,-89.999855,-90.0,2.301071,0.629394,0.651298,297.699066,305.542877,0.025341,-0.023897,16.678129,3.93E-4,0.052354,0.007529,0.0,1.0,2204.72168,
14.81011,-88.030632,-86.837189,2.629767,-0.034241,2.629767,-0.034241,-89.999855,-90.0,2.304651,0.800708,0.737784,297.677429,305.406799,0.02694,-0.023643,14.073541,4.37E-4,0.052457,0.008394,0.0,1.0,2219.84082,
15.464571,-88.029114,-86.83567,2.634054,-0.03614,2.634054,-0.03614,-89.999855,-90.0,2.307213,0.923454,0.794795,297.667053,305.159454,0.02797,-0.02291,7.599126,4.89E-4,0.052595,0.009476,0.0,1.0,2227.703125,
16.396919,-88.026627,-86.833183,2.639795,-0.038549,2.639795,-0.038549,-89.999855,-90.0,2.311171,1.112752,0.878769,297.658875,304.610016,0.029347,-0.020941,7.059779,5.16E-4,0.052681,0.009995,0.0,1.0,2236.848633,
17.085943,-88.024559,-86.831116,2.644053,-0.040192,2.644053,-0.040192,-89.999855,-90.0,2.314329,1.263281,0.937488,297.657776,304.068268,0.030616,-0.018889,18.099743,5.51E-4,0.052796,0.010403,0.0,1.0,2242.403564,
18.108932,-88.021118,-86.827675,2.650239,-0.042543,2.650239,-0.042543,-89.999855,-90.0,2.319391,1.503338,1.027793,297.663574,303.074097,0.032405,-0.015063,10.091516,5.74E-4,0.052881,0.010458,0.0,1.0,2249.253174,
18.71841,-88.018852,-86.825409,2.654011,-0.043886,2.654011,-0.043886,-89.999855,-90.0,2.322621,1.655659,1.081387,297.670807,302.385742,0.033455,-0.012465,7.918481,6.08E-4,0.053005,0.010168,0.0,1.0,2252.72168,
19.772861,-88.014572,-86.821129,2.660418,-0.046101,2.660418,-0.046101,-89.999855,-90.0,2.328587,1.935196,1.174238,297.687988,301.050598,0.03562,-0.007779,17.041372,6.27E-4,0.05308,0.009807,0.0,1.0,2257.919189,
20.411638,-88.011742,-86.818298,2.664403,-0.047356,2.664403,-0.047356,-89.999855,-90.0,2.332437,2.11429,1.230679,297.700592,300.165955,0.036865,-0.004947,17.97929,6.59E-4,0.053208,0.008948,0.0,1.0,2260.684082,
21.411982,-88.006966,-86.813522,2.67055,-0.049145,2.67055,-0.049145,-89.999855,-90.0,2.338825,2.409215,1.31864,297.721039,298.689514,0.038561,-9.31E-4,16.576464,6.77E-4,0.053288,0.008318,0.0,1.0,2264.582031,
22.07893,-88.003548,-86.810097,2.674766,-0.050229,2.674766,-0.050229,-89.999855,-90.0,2.343328,2.615511,1.377559,297.734528,297.656982,0.039504,0.001402,6.568675,7.02E-4,0.053411,0.007295,0.0,1.0,2266.953613,
23.106974,-87.997894,-86.804451,2.681235,-0.051695,2.681235,-0.051695,-89.999855,-90.0,2.350656,2.948312,1.468434,297.75293,296.014862,0.040541,0.004182,10.51808,7.18E-4,0.053495,0.006621,0.0,1.0,2270.345459,
23.773182,-87.993988,-86.800545,2.685593,-0.052574,2.685593,-0.052574,-89.999855,-90.0,2.35566,3.173527,1.52732,297.763275,294.931152,0.040958,0.005523,17.010267,7.38E-4,0.053625,0.005701,0.0,1.0,2272.412598,
24.716074,-87.988121,-86.794678,2.691726,-0.053677,2.691726,-0.053677,-89.999855,-90.0,2.363084,3.504826,1.61431,297.775024,293.391357,0.0412,0.006748,19.456905,7.51E-4,0.053712,0.005183,0.0,1.0,2275.20752,
25.409475,-87.983566,-86.790123,2.696408,-0.054509,2.696408,-0.054509,-89.999855,-90.0,2.368794,3.757364,1.672157,297.781921,292.268433,0.041194,0.00728,17.174772,7.67E-4,0.053835,0.004596,0.0,1.0,2277.185059,
26.433893,-87.976448,-86.782997,2.703349,-0.055744,2.703349,-0.055744,-89.999855,-90.0,2.377637,4.144622,1.762731,297.7901,290.642487,0.040982,0.007658,14.44286,7.79E-4,0.053928,0.004251,0.0,1.0,2280.021973,
27.069939,-87.971786,-86.778343,2.707858,-0.05661,2.707858,-0.05661,-89.999855,-90.0,2.38337,4.393265,1.819507,297.7948,289.664001,0.040812,0.007813,11.754798,7.96E-4,0.054067,0.003842,0.0,1.0,2281.743896,
28.063938,-87.964134,-86.770691,2.717217,-0.056481,2.717217,-0.056481,-89.999855,-90.0,2.392937,4.794273,2.033747,297.802643,288.199097,0.041076,0.008161,11.784549,8.09E-4,0.054157,0.003607,0.0,1.0,2284.391357,
28.72529,-87.958725,-86.765282,2.725542,-0.053196,2.725542,-0.053196,-89.999855,-90.0,2.399928,5.069421,2.184011,297.80896,287.27655,0.040956,0.008605,13.177336,8.07E-4,0.054344,0.003215,0.0,1.0,2286.131104,
29.715227,-87.950066,-86.756622,2.733136,-0.054515,2.733136,-0.054515,-89.999855,-90.0,2.411092,5.493504,2.279341,297.820831,285.987366,0.040814,0.009444,17.220598,7.6E-4,0.054511,0.002899,0.0,1.0,2288.713379,
30.375034,-87.943947,-86.750496,2.737812,-0.055953,2.737812,-0.055953,-89.999855,-90.0,2.418792,5.783599,2.338495,297.831085,285.197937,0.041192,0.010297,9.518388,7.79E-4,0.054663,0.002306,0.0,1.0,2290.420654,
31.362375,-87.934258,-86.740807,2.744973,-0.058257,2.744973,-0.058257,-89.999855,-90.0,2.430744,6.22947,2.434829,297.849487,284.128815,0.042258,0.011892,18.714432,7.99E-4,0.054756,0.001793,0.0,1.0,2292.96582,
32.04686,-87.927193,-86.733749,2.750265,-0.059938,2.750265,-0.059938,-89.999855,-90.0,2.439329,6.54647,2.502692,297.864441,283.472534,0.043202,0.013201,15.896973,8.32E-4,0.054899,8.73E-4,0.0,1.0,2294.725098,
33.031563,-87.916573,-86.723129,2.757822,-0.062209,2.757822,-0.062209,-89.999855,-90.0,2.452104,7.013227,2.605994,297.887421,282.657837,0.044743,0.015079,16.644722,8.56E-4,0.055005,1.25E-4,0.0,1.0,2297.250244,
33.658115,-87.909508,-86.716064,2.762779,-0.063626,2.762779,-0.063626,-89.999855,-90.0,2.460518,7.317611,2.660794,297.902649,282.220123,0.045755,0.016221,13.711761,8.89E-4,0.055156,-0.001024,0.0,1.0,2298.859131,
34.631451,-87.898026,-86.704582,2.770378,-0.065547,2.770378,-0.065547,-89.999855,-90.0,2.474083,7.803405,2.755789,297.925415,281.666656,0.047061,0.017618,18.113306,9.09E-4,0.055256,-0.001785,0.0,1.0,2301.371582,
35.282139,-87.889763,-86.69632,2.775732,-0.066142,2.775732,-0.066142,-89.999855,-90.0,2.483764,8.147303,2.81501,297.939636,281.377075,0.047944,0.018226,19.724119,9.36E-4,0.055408,-0.002924,0.0,1.0,2303.097412,
36.19138,-87.877777,-86.684334,2.787188,-0.065066,2.787188,-0.065066,-89.999855,-90.0,2.497938,8.63749,3.276418,297.952454,281.100677,0.048391,0.017855,15.150661,9.45E-4,0.055515,-0.003635,0.0,1.0,2305.484131,
36.812958,-87.869164,-86.675713,2.794712,-0.063343,2.794712,-0.063343,-89.999855,-90.0,2.508871,8.979342,3.307636,297.954468,280.996277,0.047687,0.016572,18.351629,9.3E-4,0.055744,-0.004276,0.0,1.0,2307.107422,
37.743973,-87.855537,-86.662094,2.801227,-0.059541,2.801227,-0.059541,-89.999855,-90.0,2.525657,9.50058,3.402631,297.945618,280.964539,0.044757,0.01304,19.996149,9.05E-4,0.055894,-0.004376,0.0,1.0,2309.529297,
38.673038,-87.841164,-86.64772,2.807851,-0.055063,2.807851,-0.055063,-89.999855,-90.0,2.542945,10.031649,3.506235,297.923645,281.074829,0.039914,0.008008,14.313147,8.51E-4,0.056025,-0.003934,0.0,1.0,2311.94165,
39.291092,-87.831169,-86.637726,2.812437,-0.052039,2.812437,-0.052039,-89.999855,-90.0,2.55476,10.390984,3.576442,297.903992,281.221954,0.036035,0.004289,11.690795,8.1E-4,0.056109,-0.003296,0.0,1.0,2313.545898,
39.908325,-87.820892,-86.627449,2.817266,-0.049132,2.817266,-0.049132,-89.999855,-90.0,2.566813,10.75443,3.647621,297.881958,281.423737,0.031978,5.68E-4,11.83479,7.43E-4,0.056249,-0.001852,0.0,1.0,2315.148438,
40.832451,-87.804939,-86.611496,2.824493,-0.045499,2.824493,-0.045499,-89.999855,-90.0,2.585337,11.30709,3.754675,297.85022,281.82016,0.026484,-0.004109,12.666979,7.02E-4,0.056345,-7.51E-4,0.0,1.0,2317.550049,
41.448013,-87.793983,-86.600533,2.829003,-0.043181,2.829003,-0.043181,-89.999855,-90.0,2.597922,11.680381,3.768911,297.832031,282.140686,0.023732,-0.006372,13.159325,6.5E-4,0.05649,8.36E-4,0.0,1.0,2319.150635,
42.393341,-87.776581,-86.583138,2.841983,-0.037239,2.841983,-0.037239,-89.999855,-90.0,2.618536,12.263218,4.43786,297.813171,282.711304,0.021707,-0.007903,20.110857,6.17E-4,0.05658,0.001746,0.0,1.0,2321.617188,
42.979877,-87.765236,-86.571793,2.847618,-0.033248,2.847618,-0.033248,-89.999855,-90.0,2.632558,12.629877,4.40758,297.807678,283.106293,0.021111,-0.00779,12.494016,5.32E-4,0.05684,0.002689,0.0,1.0,2323.164795,
43.895988,-87.746651,-86.553207,2.855388,-0.033839,2.855388,-0.033839,-89.999855,-90.0,2.654937,13.210251,4.533927,297.808594,283.775055,0.022523,-0.006272,15.525327,4.75E-4,0.056952,0.002963,0.0,1.0,2326.706055,
44.506065,-87.733765,-86.540321,2.860416,-0.033628,2.860416,-0.033628,-89.999855,-90.0,2.6702,13.601431,4.615122,297.814148,284.248505,0.024564,-0.004614,13.697322,4.83E-4,0.057108,0.002917,0.0,1.0,2329.79248,
45.420551,-87.71373,-86.520287,2.867571,-0.032573,2.867571,-0.032573,-89.999855,-90.0,2.693592,14.194405,4.733832,297.825378,284.988739,0.02832,-0.001993,17.98711,4.8E-4,0.057208,0.00264,0.0,1.0,2335.075684,
46.030071,-87.699928,-86.506485,2.872428,-0.031321,2.872428,-0.031321,-89.999855,-90.0,2.709516,14.593757,4.813184,297.832092,285.495697,0.030679,-5.95E-4,19.208641,4.65E-4,0.057351,0.002078,0.0,1.0,2338.878174,
46.968815,-87.677856,-86.484406,2.886136,-0.028217,2.886136,-0.028217,-89.999855,-90.0,2.736248,15.215569,5.407338,297.835724,286.286804,0.033048,2.28E-4,10.759531,4.47E-4,0.057449,0.001743,0.0,1.0,2345.004639,
47.856655,-87.655777,-86.462334,2.893576,-0.02266,2.893576,-0.02266,-89.999855,-90.0,2.762915,15.810443,5.55596,297.827881,287.033325,0.033059,-8.18E-4,16.739632,4.03E-4,0.057723,0.001561,0.0,1.0,2350.980225,
48.439846,-87.640686,-86.447243,2.897653,-0.019433,2.897653,-0.019433,-89.999855,-90.0,2.780803,16.204802,5.639599,297.815887,287.516693,0.031862,-0.002513,14.512122,3.24E-4,0.057872,0.001953,0.0,1.0,2354.966553,
49.099602,-87.623131,-86.429688,2.902257,-0.015543,2.902257,-0.015543,-89.999855,-90.0,2.801334,16.653807,5.728163,297.796478,288.051208,0.028911,-0.005154,20.29586,2.78E-4,0.057953,0.002553,0.0,1.0,2359.510742,
49.987633,-87.598701,-86.405251,2.908828,-0.010172,2.908828,-0.010172,-89.999855,-90.0,2.829507,17.263493,5.855314,297.763214,288.743011,0.023434,-0.009365,18.641975,2.22E-4,0.058045,0.003523,0.0,1.0,2365.672363,
50.875301,-87.573441,-86.379997,2.915698,-0.005047,2.915698,-0.005047,-89.999855,-90.0,2.858304,17.879047,5.987724,297.726105,289.393494,0.017809,-0.01355,20.916401,1.45E-4,0.058177,0.005186,0.0,1.0,2371.869629,
51.534737,-87.554153,-86.360703,2.926954,0.005038,2.926954,0.005038,-89.999855,-90.0,2.880947,18.340014,6.571761,297.699524,289.844452,0.013631,-0.015913,21.386274,7.2E-5,0.058314,0.007042,0.0,1.0,2376.490723,
52.395439,-87.527695,-86.334244,2.938168,0.012503,2.938168,0.012503,-89.999855,-90.0,2.913836,18.947426,7.025733,297.670563,290.386475,0.008695,-0.017897,18.90147,-7.2E-5,0.058539,0.008371,0.0,1.0,2382.549316,
53.028969,-87.507301,-86.313858,2.942643,0.015062,2.942643,0.015062,-89.999855,-90.0,2.938393,19.397306,7.115201,297.655029,290.747223,0.005926,-0.018323,12.532782,-1.79E-4,0.058763,0.009819,0.0,1.0,2387.014648,
53.915691,-87.477623,-86.28418,2.948542,0.017626,2.948542,0.017626,-89.999855,-90.0,2.973337,20.031654,7.258196,297.642853,291.194336,0.004791,-0.017361,15.995575,-2.15E-4,0.058853,0.010596,0.0,1.0,2393.28125,
54.524242,-87.456589,-86.263145,2.953033,0.019194,2.953033,0.019194,-89.999855,-90.0,2.997698,20.469612,7.355301,297.640045,291.460114,0.005241,-0.015928,16.489447,-2.52E-4,0.058971,0.011204,0.0,1.0,2397.588623,
55.183395,-87.43322,-86.239777,2.957848,0.020768,2.957848,0.020768,-89.999855,-90.0,3.02446,20.946737,7.460077,297.640472,291.709381,0.006948,-0.014011,12.954761,-2.74E-4,0.059061,0.011345,0.0,1.0,2402.263672,
56.071194,-87.400887,-86.207443,2.964275,0.023137,2.964275,0.023137,-89.999855,-90.0,3.061098,21.593309,7.607025,297.642639,291.980408,0.010133,-0.011524,20.85449,-2.97E-4,0.059157,0.011324,0.0,1.0,2408.57251,
56.958385,-87.36763,-86.174187,2.970625,0.026057,2.970625,0.026057,-89.999855,-90.0,3.098441,22.244673,7.753637,297.641144,292.177124,0.01293,-0.009993,18.205334,-3.31E-4,0.059285,0.011215,0.0,1.0,2414.898682,
57.567207,-87.344337,-86.150887,2.974964,0.028452,2.974964,0.028452,-89.999855,-90.0,3.124454,22.694021,7.851613,297.635254,292.269409,0.014443,-0.009843,18.576136,-3.72E-4,0.059413,0.01129,0.0,1.0,2419.246826,
58.479572,-87.30864,-86.115196,2.981207,0.03257,2.981207,0.03257,-89.999855,-90.0,3.164094,23.372049,8.000804,297.61673,292.344147,0.015136,-0.011159,12.331716,-4.06E-4,0.059499,0.011584,0.0,1.0,2425.782959,
59.138199,-87.282356,-86.088913,2.984924,0.036984,2.984924,0.036984,-89.999855,-90.0,3.192902,23.864639,7.996818,297.595856,292.351929,0.0141,-0.013134,17.111681,-4.65E-4,0.059624,0.012511,0.0,1.0,2430.512939,
60.023418,-87.246414,-86.052963,2.991102,0.041503,2.991102,0.041503,-89.999855,-90.0,3.232157,24.531464,8.149527,297.560486,292.303711,0.011022,-0.016604,14.95815,-5.28E-4,0.059698,0.013554,0.0,1.0,2436.891602,
60.605141,-87.222427,-86.028984,2.995451,0.044465,2.995451,0.044465,-89.999855,-90.0,3.258341,24.971918,8.24278,297.534393,292.23703,0.008672,-0.019051,22.06489,-5.93E-4,0.059822,0.015323,0.0,1.0,2441.121826,
61.51384,-87.184296,-85.990845,3.006146,0.046868,3.006146,0.046868,-89.999855,-90.0,3.30089,25.664799,8.851705,297.494263,292.080444,0.00405,-0.022329,18.876085,-6.35E-4,0.059909,0.016627,0.0,1.0,2447.832764,
62.118633,-87.158203,-85.964752,3.011452,0.049584,3.011452,0.049584,-89.999855,-90.0,3.330564,26.129002,8.944724,297.469635,291.942963,0.001124,-0.023881,13.086751,-6.7E-4,0.060123,0.018634,0.0,1.0,2452.346436,
63.023781,-87.117882,-85.924438,3.026213,0.052974,3.026213,0.052974,-89.999855,-90.0,3.378391,26.828602,9.987322,297.440155,291.691742,-0.00223,-0.024738,18.697826,-7.08E-4,0.060229,0.019865,0.0,1.0,2459.155518,
63.62627,-87.089851,-85.896408,3.030978,0.055271,3.030978,0.055271,-89.999855,-90.0,3.411842,27.297121,10.083691,297.425995,291.497131,-0.003561,-0.024382,19.068729,-7.57E-4,0.060524,0.021339,0.0,1.0,2463.71167,
Command_Fault: set /systems/static/serviceable false
Command: fly_strait
64.528938,-87.04628,-85.852837,3.036299,0.058389,3.036299,0.058389,-89.999855,-90.0,3.462644,28.002966,10.23918,297.4133,291.169952,-0.003913,-0.022588,16.515482,-7.9E-4,0.06062,0.022047,0.0,1.0,2470.564209,
65.149918,-87.04628,-85.852837,3.040664,0.062549,3.040664,0.062549,-89.999855,-90.0,3.4984,28.495226,10.350051,297.40332,290.921509,-0.003711,-0.021977,16.515482,-8.34E-4,0.060726,0.0,0.0,1.0,2475.331543,
66.042854,-87.04628,-85.852837,3.046061,0.068662,3.046061,0.068662,-89.999855,-90.0,3.55061,29.206984,10.644448,297.311066,290.539001,-0.006985,-0.033834,16.515482,-8.94E-4,0.060813,4.99E-4,0.0,1.0,2482.206543,
66.638222,-87.04628,-85.852837,3.053767,0.074079,3.053767,0.074079,-89.999855,-90.0,3.587291,29.683346,11.195793,297.200348,290.27063,-0.012929,-0.048336,16.515482,-9.81E-4,0.060921,0.005112,0.0,1.0,2486.798828,
67.506279,-87.04628,-85.852837,3.057978,0.070744,3.057978,0.070744,-89.999855,-90.0,3.642126,30.380636,11.361197,297.004852,289.863831,-0.025065,-0.072201,16.515482,-0.001058,0.061075,0.010648,0.0,1.0,2493.510498,
68.099968,-87.04628,-85.852837,3.061565,0.067087,3.061565,0.067087,-89.999855,-90.0,3.6802,30.860495,11.480912,296.869598,289.576355,-0.035917,-0.086619,16.515482,-0.001011,0.06116,0.020422,0.0,1.0,2498.119629,
68.987625,-87.04628,-85.852837,3.055779,0.030756,3.055779,0.030756,-89.999855,-90.0,3.740118,31.582737,12.663457,296.713226,289.135834,-0.052451,-0.098797,16.515482,-9.58E-4,0.061231,0.027185,0.0,1.0,2505.037109,
69.579124,-87.04628,-85.852837,3.031726,-0.051763,3.031726,-0.051763,-89.999855,-90.0,3.786386,32.065781,14.619159,296.657318,288.838654,-0.061056,-0.099583,16.515482,-4.39E-4,0.061116,0.035004,0.0,1.0,2509.653564,
70.468895,-87.04628,-85.852837,2.944698,-0.251246,2.944698,-0.251246,-89.999855,-90.0,3.861501,32.792587,15.204,296.667999,288.394409,-0.065549,-0.087453,16.515482,7.39E-4,0.060635,0.037799,0.0,1.0,2516.594727,
71.064728,-87.04628,-85.852837,2.880938,-0.396063,2.880938,-0.396063,-89.999855,-90.0,3.912019,33.278622,15.025165,296.733215,288.104401,-0.061465,-0.071546,16.515482,0.003589,0.058894,0.037265,0.0,1.0,2521.240723,
71.952423,-87.04628,-85.852837,2.822289,-0.564379,2.822289,-0.564379,-89.999855,-90.0,3.986134,34.009892,14.685246,296.878754,287.688202,-0.045708,-0.042363,16.515482,0.005658,0.057619,0.034004,0.0,1.0,2528.227295,
72.564842,-87.04628,-85.852837,2.798244,-0.652331,2.798244,-0.652331,-89.999855,-90.0,4.037197,34.519165,14.71201,296.979004,287.417694,-0.02855,-0.024438,16.515482,0.008063,0.056446,0.026727,0.0,1.0,2533.076416,
73.415329,-87.04628,-85.852837,2.769117,-0.762661,2.769117,-0.762661,-89.999855,-90.0,4.109344,35.233955,15.030256,297.056305,287.071259,-0.007916,-0.012461,16.515482,0.009319,0.055965,0.021715,0.0,1.0,2539.848145,
74.046455,-87.04628,-85.852837,2.734879,-0.863882,2.734879,-0.863882,-89.999855,-90.0,4.164423,35.766212,15.424639,297.041534,286.841644,0.007514,-0.016628,16.515482,0.010895,0.055382,0.01785,0.0,1.0,2544.86792,
74.872986,-87.04628,-85.852837,2.673877,-1.032148,2.673877,-1.032148,-89.999855,-90.0,4.238359,36.463768,15.870707,296.919617,286.580566,0.019987,-0.038306,16.515482,0.012341,0.054698,0.018588,0.0,1.0,2551.431641,
75.458359,-87.04628,-85.852837,2.624392,-1.174817,2.624392,-1.174817,-89.999855,-90.0,4.292717,36.957188,16.921881,296.774658,286.424194,0.025131,-0.06146,16.515482,0.014745,0.053478,0.024684,0.0,1.0,2556.073242,
76.332909,-87.04628,-85.852837,2.62859,-1.440674,2.62859,-1.440674,-89.999855,-90.0,4.386038,37.698879,21.800415,296.514801,286.23349,0.024799,-0.099458,16.515482,0.016783,0.052488,0.031932,0.0,1.0,2563.049561,
76.955452,-87.04628,-85.852837,2.699344,-1.670909,2.699344,-1.670909,-89.999855,-90.0,4.482977,38.237461,32.531113,296.330475,286.127289,0.021206,-0.123459,16.515482,0.020581,0.052572,0.044925,0.0,1.0,2568.087891,
77.747147,-87.04628,-85.852837,2.837831,-1.962495,2.837831,-1.962495,-89.999855,-90.0,4.688336,38.943359,55.160522,296.150391,286.02478,0.015629,-0.140826,16.515482,0.02387,0.053987,0.054141,0.0,1.0,2574.652832,
78.283768,-87.04628,-85.852837,2.95459,-2.130833,2.95459,-2.130833,-89.999855,-90.0,4.906291,39.442051,75.273804,296.080078,285.97467,0.013002,-0.141723,16.515482,0.028036,0.056757,0.063145,0.0,1.0,2579.253174,
79.047417,-87.04628,-85.852837,3.132096,-2.262702,3.132096,-2.262702,-89.999855,-90.0,5.367265,40.190109,108.491356,296.064209,285.92926,0.013445,-0.126158,16.515482,0.03044,0.059092,0.066661,0.0,1.0,2586.060303,
79.522919,-87.04628,-85.852837,3.266236,-2.255605,3.266236,-2.255605,-89.999855,-90.0,5.768528,40.6884,131.541809,296.09201,285.916077,0.017675,-0.109053,16.515482,0.032324,0.062642,0.067455,0.0,1.0,2590.480469,
80.217049,-87.04628,-85.852837,3.465481,-2.086414,3.465481,-2.086414,-89.999855,-90.0,6.563349,41.475708,168.408783,296.141449,285.916962,0.030271,-0.081308,16.515482,0.032223,0.065325,0.066064,0.0,1.0,2596.260498,
80.586464,-87.04628,-85.852837,3.565695,-1.92216,3.565695,-1.92216,-89.999855,-90.0,7.110505,41.930115,188.523178,296.146454,285.926361,0.037874,-0.069629,16.515482,0.030836,0.068121,0.064211,0.0,1.0,2598.98877,
81.147186,-87.04628,-85.852837,3.715859,-1.607955,3.715859,-1.607955,-89.999855,-90.0,8.132825,42.670666,219.537888,296.088593,285.94931,0.050346,-0.062178,16.515482,0.027459,0.071314,0.063342,0.0,1.0,2602.79248,
81.492943,-87.04628,-85.852837,3.808271,-1.405672,3.808271,-1.405672,-89.999855,-90.0,8.899776,43.161877,239.780334,296.004211,285.96579,0.056137,-0.065141,16.515482,0.022971,0.074317,0.066235,0.0,1.0,2604.999268,
81.972878,-87.04628,-85.852837,3.929609,-1.177866,3.929609,-1.177866,-89.999855,-90.0,10.173525,43.894356,268.581329,295.842072,285.985229,0.059488,-0.075985,16.515482,0.020081,0.076165,0.070454,0.0,1.0,2607.968994,
82.281532,-87.04628,-85.852837,4.019088,-1.074205,4.019088,-1.074205,-89.999855,-90.0,11.140592,44.399651,287.697601,295.732117,285.990967,0.058722,-0.083135,16.515482,0.016827,0.078592,0.078561,0.0,1.0,2609.854736,
82.675079,-87.04628,-85.852837,4.136773,-0.999252,4.136773,-0.999252,-89.999855,-90.0,12.604243,45.101963,313.44342,295.633789,285.983185,0.055961,-0.084406,16.515482,0.015346,0.080382,0.084059,0.0,1.0,2612.316162,
82.919975,-87.04628,-85.852837,4.221203,-0.962482,4.221203,-0.962482,-89.999855,-90.0,13.678487,45.579826,330.680969,295.618866,285.964966,0.055113,-0.077131,16.515482,0.014275,0.082735,0.088976,0.0,1.0,2613.907227,
83.264626,-87.04628,-85.852837,4.354475,-0.876131,4.354475,-0.876131,-89.999855,-90.0,15.506292,46.32967,361.771729,295.680206,285.912323,0.058079,-0.053244,16.515482,0.01375,0.084424,0.089722,0.0,1.0,2616.293457,
83.445274,-87.04628,-85.852837,4.448818,-0.785448,4.448818,-0.785448,-89.999855,-90.0,16.696266,46.779163,382.570587,295.74762,285.865662,0.063474,-0.035138,16.515482,0.013008,0.086211,0.088086,0.0,1.0,2617.668213,
83.674217,-87.04628,-85.852837,4.614404,-0.585386,4.614404,-0.585386,-89.999855,-90.0,18.635664,47.456287,413.653717,295.846954,285.77243,0.073807,-0.010279,16.515482,0.011221,0.088976,0.083284,0.0,1.0,2619.665039,
83.804634,-87.04628,-85.852837,4.714544,-0.418784,4.714544,-0.418784,-89.999855,-90.0,20.046968,47.915504,432.026184,295.88736,285.692322,0.082342,8.41E-4,16.515482,0.008363,0.092288,0.078317,0.0,1.0,2620.97168,
83.972,-87.04628,-85.852837,4.79219,-0.18033,4.79219,-0.18033,-89.999855,-90.0,22.267122,48.596203,454.751953,295.881134,285.546631,0.093359,0.004685,16.515482,0.005983,0.094291,0.076297,0.0,1.0,2622.8479,
84.068245,-87.04628,-85.852837,4.830478,-0.051192,4.830478,-0.051192,-89.999855,-90.0,23.806129,49.044487,467.979675,295.837372,285.432556,0.097518,1.21E-4,16.515482,0.002576,0.095844,0.076608,0.0,1.0,2624.05249,
84.194275,-87.04628,-85.852837,4.897438,0.052303,4.897438,0.052303,-89.999855,-90.0,26.194548,49.708565,486.784363,295.745972,285.236542,0.098205,-0.011663,16.515482,7.31E-4,0.09661,0.078796,0.0,1.0,2625.802979,
84.265594,-87.04628,-85.852837,4.955125,0.066145,4.955125,0.066145,-89.999855,-90.0,27.839125,50.145687,499.569702,295.692871,285.08963,0.09603,-0.018347,16.515482,-7.47E-4,0.097949,0.083366,0.0,1.0,2626.936523,
84.3507,-87.04628,-85.852837,5.04789,0.026987,5.04789,0.026987,-89.999855,-90.0,30.533224,50.828514,521.011353,295.667084,284.831757,0.090685,-0.019588,16.515482,-9.45E-4,0.099102,0.086021,0.0,1.0,2628.680176,
84.386986,-87.04628,-85.852837,5.11259,-0.003512,5.11259,-0.003512,-89.999855,-90.0,32.294426,51.25383,535.265076,295.695984,284.654236,0.08904,-0.013264,16.515482,-3.86E-4,0.100958,0.087311,0.0,1.0,2629.749512,
84.414253,-87.04628,-85.852837,5.196629,-0.009889,5.196629,-0.009889,-89.999855,-90.0,34.871956,51.848324,555.714355,295.78421,284.386139,0.090211,0.002751,16.515482,5.0E-5,0.102252,0.085866,0.0,1.0,2631.221436,
84.414703,-87.04628,-85.852837,5.259806,0.023566,5.259806,0.023566,-89.999855,-90.0,36.749142,52.262207,570.115051,295.860657,284.187195,0.093626,0.015628,16.515482,1.41E-4,0.103933,0.081455,0.0,1.0,2632.230225,
84.391281,-87.04628,-85.852837,5.353587,0.133612,5.353587,0.133612,-89.999855,-90.0,39.821041,52.907597,593.330444,295.954498,283.859741,0.102305,0.030132,16.515482,-3.37E-4,0.105196,0.077632,0.0,1.0,2633.775635,
84.360031,-87.04628,-85.852837,5.41675,0.218216,5.41675,0.218216,-89.999855,-90.0,41.824112,53.308865,607.975342,295.979309,283.647064,0.107022,0.032946,16.515482,-0.001909,0.107072,0.07294,0.0,1.0,2634.72168,
84.297951,-87.04628,-85.852837,5.491354,0.312083,5.491354,0.312083,-89.999855,-90.0,44.744934,53.868862,628.299805,295.959442,283.340271,0.110759,0.027233,16.515482,-0.003117,0.108335,0.0717,0.0,1.0,2636.027344,
84.243706,-87.04628,-85.852837,5.544338,0.343174,5.544338,0.343174,-89.999855,-90.0,46.86327,54.25819,642.152466,295.917877,283.120941,0.1106,0.018677,16.515482,-0.004458,0.109827,0.072693,0.0,1.0,2636.928223,
84.14592,-87.04628,-85.852837,5.621338,0.319191,5.621338,0.319191,-89.999855,-90.0,50.126667,54.832996,662.527466,295.851593,282.789459,0.106031,0.005512,16.515482,-0.004902,0.110887,0.074771,0.0,1.0,2638.251953,
84.067123,-87.04628,-85.852837,5.679089,0.268431,5.679089,0.268431,-89.999855,-90.0,52.358437,55.210106,676.05542,295.826569,282.567932,0.101619,2.22E-4,16.515482,-0.00456,0.112427,0.078085,0.0,1.0,2639.117188,
83.924171,-87.04628,-85.852837,5.761925,0.178815,5.761925,0.178815,-89.999855,-90.0,55.791306,55.766644,696.482788,295.843597,282.237061,0.095558,0.001627,16.515482,-0.003835,0.113582,0.079337,0.0,1.0,2640.387451,
83.81617,-87.04628,-85.852837,5.822525,0.133938,5.822525,0.133938,-89.999855,-90.0,58.136463,56.131557,710.153381,295.890503,282.019073,0.093707,0.008334,16.515482,-0.002555,0.115239,0.078485,0.0,1.0,2641.214355,
83.616615,-87.04628,-85.852837,5.91032,0.125679,5.91032,0.125679,-89.999855,-90.0,61.943604,56.699245,731.860352,295.99231,281.681549,0.09547,0.023055,16.515482,-0.001913,0.116451,0.07614,0.0,1.0,2642.486816,
83.47242,-87.04628,-85.852837,5.969566,0.158043,5.969566,0.158043,-89.999855,-90.0,64.406609,57.051357,745.456116,296.05246,281.475037,0.098712,0.031185,16.515482,-0.001795,0.118206,0.071049,0.0,1.0,2643.265869,
83.246132,-87.04628,-85.852837,6.041282,0.233269,6.041282,0.233269,-89.999855,-90.0,67.973289,57.541595,764.397278,296.098114,281.193573,0.103669,0.035572,16.515482,-0.002258,0.119391,0.068042,0.0,1.0,2644.337402,
83.080154,-87.04628,-85.852837,6.091467,0.284793,6.091467,0.284793,-89.999855,-90.0,70.543419,57.881596,777.152771,296.095947,281.003693,0.105953,0.03283,16.515482,-0.003332,0.120826,0.065759,0.0,1.0,2645.073486,
82.809601,-87.04628,-85.852837,6.158809,0.3198,6.158809,0.3198,-89.999855,-90.0,74.47686,58.382263,795.494324,296.050323,280.733521,0.105694,0.021764,16.515482,-0.004068,0.121829,0.065868,0.0,1.0,2646.151123,
82.602814,-87.04628,-85.852837,6.209228,0.303849,6.209228,0.303849,-89.999855,-90.0,77.373154,58.736977,808.125671,296.00589,280.549652,0.102197,0.012245,16.515482,-0.004569,0.123176,0.068149,0.0,1.0,2646.912598,
82.315659,-87.04628,-85.852837,6.26794,0.236538,6.26794,0.236538,-89.999855,-90.0,81.228455,59.19223,824.0672,295.969635,280.323792,0.096113,0.003958,16.515482,-0.004341,0.124185,0.070371,0.0,1.0,2647.889404,
82.104416,-87.04628,-85.852837,6.311246,0.175985,6.311246,0.175985,-89.999855,-90.0,83.994019,59.507782,834.842773,295.973236,280.174622,0.091886,0.003204,16.515482,-0.003379,0.125359,0.072183,0.0,1.0,2648.566162,
81.763718,-87.04628,-85.852837,6.375544,0.106716,6.375544,0.106716,-89.999855,-90.0,88.209305,59.972137,850.776855,296.027191,279.967743,0.088185,0.010256,16.515482,-0.002514,0.126225,0.072003,0.0,1.0,2649.558594,
81.521233,-87.04628,-85.852837,6.42305,0.089477,6.42305,0.089477,-89.999855,-90.0,91.063591,60.275734,861.428833,296.084412,279.841736,0.088307,0.018254,16.515482,-0.001525,0.127511,0.069305,0.0,1.0,2650.203369,
81.138031,-87.04628,-85.852837,6.485864,0.118961,6.485864,0.118961,-89.999855,-90.0,95.41201,60.722134,877.381287,296.165771,279.6716,0.091953,0.029048,16.515482,-0.001278,0.128461,0.066444,0.0,1.0,2651.137451,
80.870087,-87.04628,-85.852837,6.526523,0.16274,6.526523,0.16274,-89.999855,-90.0,98.354393,61.013737,887.632385,296.199249,279.571167,0.095012,0.032499,16.515482,-0.001699,0.129717,0.062376,0.0,1.0,2651.727783,
80.428772,-87.04628,-85.852837,6.579896,0.230459,6.579896,0.230459,-89.999855,-90.0,103.081306,61.465691,902.951477,296.19812,279.433258,0.098576,0.028704,16.515482,-0.002325,0.13053,0.060703,0.0,1.0,2652.617432,
80.142731,-87.04628,-85.852837,6.614925,0.251789,6.614925,0.251789,-89.999855,-90.0,106.106926,61.74506,912.044922,296.169189,279.35907,0.098116,0.021783,16.515482,-0.003292,0.131598,0.060759,0.0,1.0,2653.157471,
79.723976,-87.04628,-85.852837,6.657408,0.23268,6.657408,0.23268,-89.999855,-90.0,110.444054,62.132915,924.313416,296.117126,279.269989,0.0945,0.010505,16.515482,-0.003597,0.132298,0.062206,0.0,1.0,2653.900635,
79.418419,-87.04628,-85.852837,6.688315,0.190195,6.688315,0.190195,-89.999855,-90.0,113.539307,62.401203,932.492249,296.090637,279.217621,0.090489,0.004608,16.515482,-0.003324,0.133148,0.064809,0.0,1.0,2654.41333,
78.947548,-87.04628,-85.852837,6.733059,0.109895,6.733059,0.109895,-89.999855,-90.0,118.232506,62.795254,944.379333,296.092285,279.154297,0.08442,0.003091,16.515482,-0.002717,0.133766,0.066133,0.0,1.0,2655.164551,
78.623344,-87.04628,-85.852837,6.767363,0.064537,6.767363,0.064537,-89.999855,-90.0,121.393967,63.052414,952.238037,296.122986,279.121765,0.082048,0.007026,16.515482,-0.00157,0.134661,0.066051,0.0,1.0,2655.653076,
78.087166,-87.04628,-85.852837,6.817867,0.041495,6.817867,0.041495,-89.999855,-90.0,126.453911,63.450562,964.821411,296.199402,279.08551,0.082287,0.017712,16.515482,-9.22E-4,0.135347,0.064516,0.0,1.0,2656.404053,
77.763603,-87.04628,-85.852837,6.847456,0.056871,6.847456,0.056871,-89.999855,-90.0,129.413437,63.676025,972.021179,296.243744,279.072784,0.084071,0.02365,16.515482,-5.93E-4,0.136357,0.060695,0.0,1.0,2656.825195,
77.221092,-87.04628,-85.852837,6.887453,0.112759,6.887453,0.112759,-89.999855,-90.0,134.302933,64.037018,983.309326,296.284424,279.064392,0.088392,0.027717,16.515482,-8.12E-4,0.136949,0.058478,0.0,1.0,2657.493164,
76.820564,-87.04628,-85.852837,6.917459,0.154625,6.917459,0.154625,-89.999855,-90.0,137.868256,64.291656,991.04657,296.282562,279.067108,0.090435,0.025387,16.515482,-0.001611,0.137749,0.056444,0.0,1.0,2657.960938,
76.251602,-87.04628,-85.852837,6.951823,0.178882,6.951823,0.178882,-89.999855,-90.0,142.85022,64.635971,1001.277527,296.244476,279.081177,0.089905,0.016363,16.515482,-0.002209,0.138349,0.056537,0.0,1.0,2658.592285,
75.887207,-87.04628,-85.852837,6.971944,0.167559,6.971944,0.167559,-89.999855,-90.0,145.918976,64.841751,1007.069458,296.21344,279.094604,0.087885,0.009819,16.515482,-0.002555,0.139036,0.058441,0.0,1.0,2658.969727,
75.246033,-87.04628,-85.852837,7.001981,0.109298,7.001981,0.109298,-89.999855,-90.0,150.976563,65.171082,1015.531921,296.181732,279.12265,0.08198,0.002694,16.515482,-0.002394,0.139439,0.059993,0.0,1.0,2659.540771,
74.807747,-87.04628,-85.852837,7.024931,0.05677,7.024931,0.05677,-89.999855,-90.0,154.370773,65.385635,1020.786987,296.185791,279.144592,0.078095,0.002265,16.515482,-0.001561,0.14004,0.061578,0.0,1.0,2659.893311,
74.136086,-87.04628,-85.852837,7.05643,-0.006266,7.05643,-0.006266,-89.999855,-90.0,159.494644,65.700104,1028.466553,296.233948,279.181305,0.074473,0.008627,16.515482,-8.11E-4,0.140499,0.061375,0.0,1.0,2660.38916,
73.673439,-87.04628,-85.852837,7.078228,-0.024566,7.078228,-0.024566,-89.999855,-90.0,162.931381,65.904877,1033.387451,296.284943,279.207886,0.074365,0.01575,16.515482,9.0E-5,0.141129,0.058968,0.0,1.0,2660.700439,
72.972633,-87.04628,-85.852837,7.105742,-0.004714,7.105742,-0.004714,-89.999855,-90.0,168.116837,66.204803,1040.493286,296.357086,279.250519,0.077345,0.025244,16.515482,3.51E-4,0.141565,0.056418,0.0,1.0,2661.14209,
72.452293,-87.04628,-85.852837,7.12457,0.031148,7.12457,0.031148,-89.999855,-90.0,171.883179,66.416061,1045.276855,296.388,279.282959,0.080323,0.028261,16.515482,6.7E-5,0.142115,0.052811,0.0,1.0,2661.44458,
71.720459,-87.04628,-85.852837,7.144099,0.076631,7.144099,0.076631,-89.999855,-90.0,177.125519,66.701294,1051.328857,296.38562,279.329285,0.082697,0.024689,16.515482,-4.45E-4,0.142491,0.051265,0.0,1.0,2661.845947,
71.267395,-87.04628,-85.852837,7.15521,0.087106,7.15521,0.087106,-89.999855,-90.0,180.343201,66.871521,1054.623413,296.363037,279.357727,0.08227,0.019115,16.515482,-0.001095,0.142882,0.051384,0.0,1.0,2662.084473,
70.516487,-87.04628,-85.852837,7.169904,0.059123,7.169904,0.059123,-89.999855,-90.0,185.62915,67.1436,1059.497314,296.316772,279.403076,0.07846,0.0088,16.515482,-0.001244,0.143104,0.052513,0.0,1.0,2662.466797,
69.969818,-87.04628,-85.852837,7.181266,0.010793,7.181266,0.010793,-89.999855,-90.0,189.461121,67.335228,1062.693359,296.294647,279.434052,0.073968,0.00359,16.515482,-8.45E-4,0.143398,0.054826,0.0,1.0,2662.739746,
69.198181,-87.04628,-85.852837,7.197161,-0.066378,7.197161,-0.066378,-89.999855,-90.0,194.78566,67.593979,1066.973267,296.30246,279.47348,0.068594,0.003187,16.515482,-1.54E-4,0.143625,0.055933,0.0,1.0,2663.113037,
68.718063,-87.04628,-85.852837,7.209032,-0.104743,7.209032,-0.104743,-89.999855,-90.0,198.050034,67.748413,1069.608643,296.329651,279.495392,0.066967,0.00668,16.515482,9.48E-4,0.143943,0.055542,0.0,1.0,2663.337891,
67.914909,-87.04628,-85.852837,7.227949,-0.126793,7.227949,-0.126793,-89.999855,-90.0,203.409515,67.995148,1074.071533,296.392731,279.527588,0.067042,0.015371,16.515482,0.001496,0.144181,0.054182,0.0,1.0,2663.697754,
67.372238,-87.04628,-85.852837,7.241212,-0.114988,7.241212,-0.114988,-89.999855,-90.0,206.994949,68.15554,1077.088989,296.432861,279.546631,0.068733,0.020619,16.515482,0.001811,0.144559,0.051028,0.0,1.0,2663.931152,
66.539513,-87.04628,-85.852837,7.256922,-0.072231,7.256922,-0.072231,-89.999855,-90.0,212.391922,68.39006,1081.512085,296.463379,279.571594,0.072294,0.023264,16.515482,0.001643,0.144824,0.049022,0.0,1.0,2664.27124,
65.927933,-87.04628,-85.852837,7.266923,-0.042384,7.266923,-0.042384,-89.999855,-90.0,216.302933,68.554977,1084.45813,296.457642,279.586792,0.073767,0.020541,16.515482,0.001032,0.145138,0.047496,0.0,1.0,2664.510986,
65.117371,-87.04628,-85.852837,7.275982,-0.031864,7.275982,-0.031864,-89.999855,-90.0,221.432648,68.765144,1087.928467,296.423157,279.602509,0.073027,0.012635,16.515482,6.05E-4,0.145338,0.047783,0.0,1.0,2664.819336,
64.540054,-87.04628,-85.852837,7.282029,-0.049209,7.282029,-0.049209,-89.999855,-90.0,225.06282,68.909843,1090.068604,296.393005,279.610413,0.070725,0.006365,16.515482,4.55E-4,0.14552,0.049507,0.0,1.0,2665.035156,
63.664387,-87.04628,-85.852837,7.291557,-0.106114,7.291557,-0.106114,-89.999855,-90.0,230.520935,69.121407,1093.070435,296.365906,279.61676,0.065618,4.43E-4,16.515482,7.03E-4,0.145641,0.051015,0.0,1.0,2665.358154,
63.019123,-87.04628,-85.852837,7.300585,-0.154803,7.300585,-0.154803,-89.999855,-90.0,234.472168,69.270203,1095.245361,296.370026,279.617096,0.062161,3.1E-4,16.515482,0.001516,0.145831,0.05237,0.0,1.0,2665.59082,
62.157902,-87.04628,-85.852837,7.313268,-0.199297,7.313268,-0.199297,-89.999855,-90.0,239.651413,69.459801,1098.249634,296.405487,279.612457,0.060169,0.005271,16.515482,0.002211,0.146012,0.052164,0.0,1.0,2665.891846,
61.526047,-87.04628,-85.852837,7.323791,-0.208759,7.323791,-0.208759,-89.999855,-90.0,243.468887,69.595657,1100.557739,296.443787,279.605682,0.060656,0.01082,16.515482,0.002847,0.146265,0.050391,0.0,1.0,2666.109619,
60.594906,-87.04628,-85.852837,7.337003,-0.185914,7.337003,-0.185914,-89.999855,-90.0,248.827133,69.780823,1103.872559,296.489655,279.592163,0.06321,0.017038,16.515482,0.002982,0.146476,0.048476,0.0,1.0,2666.406738,
59.896351,-87.04628,-85.852837,7.346197,-0.154241,7.346197,-0.154241,-89.999855,-90.0,252.817841,69.914619,1106.274414,296.505157,279.579407,0.065647,0.018412,16.515482,0.002656,0.14674,0.046182,0.0,1.0,2666.62207,
58.96693,-87.04628,-85.852837,7.354571,-0.11885,7.354571,-0.11885,-89.999855,-90.0,258.049194,70.084846,1109.208008,296.493896,279.55957,0.067268,0.014881,16.515482,0.002203,0.146924,0.045407,0.0,1.0,2666.897461,
58.302849,-87.04628,-85.852837,7.359263,-0.110252,7.359263,-0.110252,-89.999855,-90.0,261.749725,70.201843,1111.017822,296.469543,279.543396,0.066845,0.009795,16.515482,0.001698,0.147091,0.04597,0.0,1.0,2667.0896,
57.294998,-87.04628,-85.852837,7.36536,-0.133169,7.36536,-0.133169,-89.999855,-90.0,267.311127,70.372597,1113.423218,296.42926,279.515686,0.0637,0.001889,16.515482,0.001575,0.147185,0.047188,0.0,1.0,2667.376709,
56.609474,-87.04628,-85.852837,7.370403,-0.166511,7.370403,-0.166511,-89.999855,-90.0,271.025146,70.48336,1114.926392,296.412537,279.494873,0.060826,-0.00145,16.515482,0.001902,0.147307,0.049202,0.0,1.0,2667.568115,
55.557323,-87.04628,-85.852837,7.379206,-0.221357,7.379206,-0.221357,-89.999855,-90.0,276.605652,70.645004,1117.226807,296.417938,279.460419,0.056934,-0.001101,16.515482,0.002379,0.147408,0.050038,0.0,1.0,2667.854492,
54.850937,-87.04628,-85.852837,7.386678,-0.247563,7.386678,-0.247563,-89.999855,-90.0,280.33252,70.749825,1118.847778,296.441132,279.435669,0.055774,0.002388,16.515482,0.003162,0.147584,0.049768,0.0,1.0,2668.043701,
53.69413,-87.04628,-85.852837,7.398608,-0.25126,7.398608,-0.25126,-89.999855,-90.0,286.244934,70.911003,1121.587769,296.491058,279.394531,0.056897,0.009958,16.515482,0.003537,0.147734,0.048608,0.0,1.0,2668.338379,
52.945724,-87.04628,-85.852837,7.406599,-0.232731,7.406599,-0.232731,-89.999855,-90.0,289.986664,71.009811,1123.392456,296.518066,279.367889,0.058877,0.013778,16.515482,0.003589,0.147972,0.046112,0.0,1.0,2668.520264,
51.865482,-87.04628,-85.852837,7.414783,-0.19281,7.414783,-0.19281,-89.999855,-90.0,295.297729,71.145866,1125.884399,296.531921,279.329926,0.061715,0.014912,16.515482,0.003325,0.148132,0.044762,0.0,1.0,2668.771973,
51.08469,-87.04628,-85.852837,7.419279,-0.168358,7.419279,-0.168358,-89.999855,-90.0,299.053436,71.239182,1127.461548,296.522064,279.303192,0.062831,0.012444,16.515482,0.002754,0.148296,0.044069,0.0,1.0,2668.946289,
49.892582,-87.04628,-85.852837,7.423966,-0.158833,7.423966,-0.158833,-89.999855,-90.0,304.696228,71.375061,1129.528687,296.487,279.263306,0.062153,0.005509,16.515482,0.002405,0.148386,0.044562,0.0,1.0,2669.205078,
49.080715,-87.04628,-85.852837,7.427094,-0.1732,7.427094,-0.1732,-89.999855,-90.0,308.46344,71.462997,1130.738525,296.461273,279.236816,0.060239,7.2E-4,16.515482,0.002269,0.148479,0.046315,0.0,1.0,2669.377441,
47.83786,-87.04628,-85.852837,7.432273,-0.217772,7.432273,-0.217772,-89.999855,-90.0,314.121582,71.591049,1132.456299,296.441132,279.197296,0.05627,-0.003057,16.515482,0.002474,0.148542,0.047601,0.0,1.0,2669.63623,
46.98637,-87.04628,-85.852837,7.437088,-0.250477,7.437088,-0.250477,-89.999855,-90.0,317.898438,71.673912,1133.622192,296.446442,279.171265,0.054169,-0.002356,16.515482,0.003111,0.148645,0.048608,0.0,1.0,2669.808594,
45.680004,-87.04628,-85.852837,7.445606,-0.279075,7.445606,-0.279075,-89.999855,-90.0,323.57132,71.794502,1135.511963,296.479462,279.133148,0.052995,0.002896,16.515482,0.003578,0.148742,0.048343,0.0,1.0,2670.064941,
44.703365,-87.04628,-85.852837,7.453028,-0.278264,7.453028,-0.278264,-89.999855,-90.0,327.67453,71.878853,1137.016113,296.51178,279.106812,0.054079,0.007911,16.515482,0.003987,0.148912,0.046692,0.0,1.0,2670.247314,
43.308884,-87.04628,-85.852837,7.461533,-0.248135,7.461533,-0.248135,-89.999855,-90.0,333.365234,71.99189,1139.187622,296.544647,279.072784,0.057118,0.012607,16.515482,0.003975,0.149061,0.045076,0.0,1.0,2670.494385,
42.391384,-87.04628,-85.852837,7.465917,-0.221417,7.465917,-0.221417,-89.999855,-90.0,337.006531,72.061844,1140.500488,296.550171,279.052734,0.058964,0.012914,16.515482,0.003545,0.149231,0.043433,0.0,1.0,2670.648438,
40.955051,-87.04628,-85.852837,7.469891,-0.191962,7.469891,-0.191962,-89.999855,-90.0,342.555176,72.164986,1142.257813,296.53241,279.024902,0.060126,0.008987,16.515482,0.003163,0.149318,0.043156,0.0,1.0,2670.879395,
39.93922,-87.04628,-85.852837,7.472084,-0.187734,7.472084,-0.187734,-89.999855,-90.0,346.364471,72.233467,1143.272949,296.508514,279.007599,0.059542,0.004494,16.515482,0.002742,0.149398,0.044044,0.0,1.0,2671.036621,
38.278236,-87.04628,-85.852837,7.475255,-0.213418,7.475255,-0.213418,-89.999855,-90.0,352.402344,72.338287,1144.694214,296.473816,278.982819,0.056295,-0.001798,16.515482,0.002682,0.149442,0.045239,0.0,1.0,2671.285889,
37.273724,-87.04628,-85.852837,7.477798,-0.239755,7.477798,-0.239755,-89.999855,-90.0,355.901276,72.397018,1145.477417,296.4646,278.969818,0.054359,-0.003465,16.515482,0.003049,0.149505,0.046974,0.0,1.0,2671.430664,
Command_Fault: set /systems/static/serviceable true
Command: turn_+45
35.589809,-87.04628,-85.852837,7.483337,-0.280208,7.483337,-0.280208,-89.999855,-90.0,361.63205,72.490089,1146.811035,296.476013,278.950714,0.051683,-0.001627,16.515482,0.003425,0.149556,0.047435,0.0,1.0,2671.667236,
50.363834,-23.649681,-22.456236,7.488605,-0.303237,7.488605,-0.303237,-49.999859,-50.0,365.456451,72.550079,1147.817993,296.511139,278.939606,0.046337,0.004619,2776.462158,0.001334,0.149667,0.1,0.0,1.0,2671.82373,
65.206436,58.088985,59.282429,7.508046,-0.325314,7.508046,-0.325314,40.000141,40.0,371.519409,72.641594,1149.837646,296.806763,278.925812,0.041332,0.052037,3993.680664,0.001444,0.149772,0.1,0.0,1.0,2672.060547,
70.838661,96.093201,97.286644,7.528831,-0.238703,7.528831,-0.238703,80.000145,80.0,375.035706,72.692497,1151.796875,297.070404,278.92157,0.050135,0.092389,4377.072754,0.001549,0.150161,0.1,0.0,1.0,2672.181152,
77.600128,147.446671,148.640121,7.560214,0.121018,7.560214,0.121018,130.000137,130.0,380.9664,72.774246,1156.412231,297.521667,278.924591,0.083137,0.157305,4763.347168,0.001137,0.150577,0.1,0.0,1.0,2672.339111,
80.634422,173.061142,174.254593,7.573026,0.4543,7.573026,0.4543,160.000137,160.0,384.66571,72.822426,1159.558838,297.745087,278.934631,0.10277,0.185807,4896.722656,-5.76E-4,0.151204,0.1,0.0,1.0,2672.406982,
84.357056,207.312256,208.505707,7.573117,1.069482,7.573117,1.069482,200.000137,200.0,390.797852,72.897408,1163.72998,297.956604,278.966705,0.137298,0.203834,4999.25293,-0.002163,0.151461,0.1,0.0,1.0,2672.477783,
85.973236,223.499512,224.692963,7.567319,1.410867,7.567319,1.410867,220.000137,220.0,394.356018,72.938225,1165.063232,297.992279,278.993927,0.14886,0.199103,5009.561035,-0.005093,0.151462,0.1,0.0,1.0,2672.505615,
88.006088,245.579956,246.773392,7.557003,1.849993,7.557003,1.849993,240.000137,240.0,400.183685,73.00116,1165.68811,297.963898,279.050629,0.157527,0.176453,4970.839844,-0.006718,0.151346,0.1,0.0,1.0,2672.547607,
89.041252,257.885925,259.079346,7.550181,2.048395,7.550181,2.048395,250.000137,250.0,404.068695,73.04068,1165.231934,297.927917,279.095398,0.155571,0.158737,4915.782715,-0.008809,0.15114,0.1,0.0,1.0,2672.581299,
90.295593,274.36438,275.557831,7.541293,2.211756,7.541293,2.211756,270.000153,270.0,410.214569,73.099678,1163.668823,297.920654,279.17511,0.143949,0.13901,4793.588379,-0.009754,0.151004,0.1,0.0,1.0,2672.650146,
90.899002,283.276398,284.469849,7.53536,2.253517,7.53536,2.253517,280.000153,280.0,414.0914,73.134865,1162.454834,297.975372,279.230133,0.13579,0.136216,4699.526367,-0.010532,0.150826,0.1,0.0,1.0,2672.703125,
91.563072,294.379578,295.573029,7.529032,2.283842,7.529032,2.283842,290.000153,290.0,419.576721,73.182159,1160.845581,298.142395,279.314026,0.127619,0.146081,4549.723633,-0.010731,0.150707,0.1,0.0,1.0,2672.787109,
91.923111,301.361511,302.554962,7.525599,2.316555,7.525599,2.316555,300.000153,300.0,423.444672,73.213776,1160.004028,298.313385,279.377869,0.125047,0.160741,4435.062012,-0.010875,0.150581,0.1,0.0,1.0,2672.848633,
92.35173,311.315033,312.508453,7.522427,2.424679,7.522427,2.424679,310.000153,310.0,429.564667,73.260841,1159.292603,298.633606,279.48822,0.127958,0.189746,4242.86084,-0.011031,0.150512,0.1,0.0,1.0,2672.943115,
92.552658,317.051666,318.245117,7.52066,2.533919,7.52066,2.533919,320.000153,320.0,433.428711,73.288643,1159.175049,298.8414,279.564789,0.132907,0.207386,4116.646484,-0.011546,0.150449,0.1,0.0,1.0,2672.997559,
92.76545,324.613586,325.807007,7.517851,2.726026,7.517851,2.726026,320.000153,320.0,438.902618,73.325439,1159.190796,299.113159,279.683441,0.140949,0.226607,3933.66748,-0.012066,0.150413,0.1,0.0,1.0,2673.06543,
92.881989,329.841858,331.035309,7.514731,2.880103,7.514731,2.880103,330.000153,330.0,442.927521,73.350571,1159.145874,299.286255,279.778748,0.147381,0.235107,3797.316406,-0.012981,0.150357,0.1,0.0,1.0,2673.110352,
93.015236,337.193817,338.387268,7.508853,3.091729,7.508853,3.091729,340.000153,340.0,448.883331,73.384865,1158.716675,299.502228,279.932251,0.152603,0.239568,3594.745361,-0.013715,0.150295,0.1,0.0,1.0,2673.173828,
93.078835,341.762909,342.956329,7.504145,3.206691,7.504145,3.206691,340.000153,340.0,452.744781,73.405327,1158.130493,299.625641,280.03952,0.153682,0.239083,3463.652588,-0.014723,0.150177,0.1,0.0,1.0,2673.215332,
93.148033,348.02417,349.217621,7.497598,3.325764,7.497598,3.325764,350.000153,350.0,458.210968,73.432083,1156.937744,299.797272,280.20105,0.152527,0.237137,3279.447754,-0.01527,0.150083,0.1,0.0,1.0,2673.278076,
93.184631,352.326385,353.519836,7.492401,3.382993,7.492401,3.382993,350.000153,350.0,462.065704,73.449486,1155.922241,299.927216,280.321442,0.150427,0.236797,3151.172852,-0.015837,0.149952,0.1,0.0,1.0,2673.326172,
93.227036,358.992554,360.186005,7.484285,3.441318,7.484285,3.441318,360.000153,360.0,468.161774,73.474686,1154.20105,300.16214,280.522095,0.146408,0.240233,2952.345947,-0.016109,0.149848,0.1,0.0,1.0,2673.409912,
93.245865,363.125916,364.319366,7.478839,3.469858,7.478839,3.469858,360.000153,360.0,472.007263,73.489189,1153.134521,300.331116,280.655029,0.14462,0.245198,2829.974121,-0.016387,0.149686,0.1,0.0,1.0,2673.466064,
93.261253,368.897522,370.090942,7.472641,3.512769,7.472641,3.512769,370.000153,370.0,477.449249,73.507927,1151.793457,300.593262,280.85141,0.143643,0.254988,2661.574219,-0.016523,0.149577,0.1,0.0,1.0,2673.547607,
93.268654,372.925293,374.118744,7.46844,3.551027,7.46844,3.551027,370.000153,370.0,481.28717,73.519913,1151.007324,300.788361,280.995758,0.144035,0.262812,2546.731689,-0.016727,0.149453,0.1,0.0,1.0,2673.605957,
93.271027,379.245667,380.439087,7.462545,3.627358,7.462545,3.627358,380.000153,380.0,487.359039,73.536819,1149.978516,301.101227,281.2341,0.146267,0.274559,2372.720459,-0.01691,0.149369,0.1,0.0,1.0,2673.697754,
93.269188,383.207886,384.401306,7.458676,3.683692,7.458676,3.683692,380.000153,380.0,491.191315,73.546211,1149.399658,301.295288,281.390747,0.148015,0.280646,2268.213379,-0.017273,0.149251,0.1,0.0,1.0,2673.755127,
93.262138,388.785675,389.979095,7.453999,3.765139,7.453999,3.765139,390.000153,390.0,496.617065,73.557877,1148.60144,301.560944,281.620453,0.150147,0.286846,2127.838379,-0.017541,0.149174,0.1,0.0,1.0,2673.835449,
93.258118,392.701355,393.894806,7.450484,3.819872,7.450484,3.819872,390.000153,390.0,500.444733,73.56498,1148.014526,301.741913,281.787781,0.151285,0.289631,2034.511963,-0.017929,0.14908,0.1,0.0,1.0,2673.89209,
93.248238,398.882111,400.075562,7.444847,3.893184,7.444847,3.893184,400.000153,400.0,506.500977,73.574402,1146.986206,302.02179,282.06073,0.151972,0.292211,1897.452881,-0.01819,0.14901,0.1,0.0,1.0,2673.984131,
93.24231,402.77359,403.967041,7.440827,3.930169,7.440827,3.930169,400.000153,400.0,510.323029,73.579269,1146.257935,302.198059,282.237701,0.151727,0.293383,1817.835083,-0.018539,0.148897,0.1,0.0,1.0,2674.044189,
93.216385,408.271301,409.464752,7.435807,3.968756,7.435807,3.968756,410.000153,410.0,515.733154,73.584801,1145.043945,302.452606,282.493652,0.150654,0.295355,1714.44873,-0.018715,0.148817,0.1,0.0,1.0,2674.125,
93.183746,412.463837,413.657257,7.431755,3.985021,7.431755,3.985021,410.000153,410.0,519.865662,73.588028,1143.738647,302.656952,282.693146,0.148469,0.297973,1642.870605,-0.018899,0.148716,0.1,0.0,1.0,2674.165039,
93.139915,418.257141,419.450592,7.424655,3.990451,7.424655,3.990451,420.000153,420.0,525.579041,73.591202,1141.625488,302.963043,282.974121,0.14539,0.304444,1554.505005,-0.018976,0.148635,0.1,0.0,1.0,2674.198242,
93.110962,422.111084,423.304535,7.418221,3.990741,7.418221,3.990741,420.000153,420.0,529.381836,73.592537,1140.075806,303.182983,283.164398,0.143953,0.310668,1502.312256,-0.019002,0.148493,0.1,0.0,1.0,2674.210693,
93.067444,427.880066,429.073517,7.40846,3.998423,7.40846,3.998423,430.000153,430.0,535.075989,73.59343,1137.659424,303.531311,283.454285,0.143308,0.321891,1433.626587,-0.019004,0.148364,0.1,0.0,1.0,2674.219482,
93.021225,433.313324,434.506775,7.398706,4.020914,7.398706,4.020914,430.000153,430.0,540.442749,73.593102,1135.383057,303.870026,283.733215,0.14419,0.332796,1378.543823,-0.01904,0.148169,0.1,0.0,1.0,2674.219727,
92.994263,437.460999,438.654449,7.392013,4.048266,7.392013,4.048266,440.000153,440.0,544.539551,73.592117,1133.691895,304.128143,283.949951,0.1457,0.340185,1342.407227,-0.019101,0.14804,0.1,0.0,1.0,2674.216553,
92.955513,443.031738,444.225189,7.381861,4.093778,7.381861,4.093778,440.000153,440.0,550.044861,73.589821,1131.398193,304.467682,284.246399,0.147842,0.347848,1300.953003,-0.019277,0.14784,0.1,0.0,1.0,2674.209473,
92.92382,447.006317,448.199768,7.375214,4.127158,7.375214,4.127158,450.000153,450.0,553.970276,73.587524,1129.725098,304.703033,284.461365,0.148997,0.351557,1276.056274,-0.019424,0.147699,0.1,0.0,1.0,2674.204102,
92.898819,450.495544,451.688995,7.368713,4.154468,7.368713,4.154468,450.000153,450.0,557.419861,73.585091,1128.212036,304.90567,284.652557,0.149662,0.353761,1256.767456,-0.019653,0.147504,0.1,0.0,1.0,2674.199463,
92.859505,456.51413,457.707581,7.357731,4.191279,7.357731,4.191279,460.000153,460.0,563.367004,73.580025,1125.494873,305.249756,284.986908,0.149982,0.356008,1228.938354,-0.019783,0.147374,0.1,0.0,1.0,2674.195068,
92.836021,460.308197,461.501648,7.34984,4.207026,7.34984,4.207026,460.000153,460.0,567.11554,73.576317,1123.692627,305.466461,285.200409,0.149635,0.357017,1214.353027,-0.019958,0.147155,0.1,0.0,1.0,2674.195068,
92.802704,465.98761,467.181061,7.339266,4.220269,7.339266,4.220269,470.000153,470.0,572.726929,73.570099,1120.949829,305.795624,285.52359,0.14872,0.358797,1196.010864,-0.020033,0.146997,0.1,0.0,1.0,2674.199951,
92.783058,469.450104,470.643555,7.332298,4.224369,7.332298,4.224369,470.000153,470.0,576.149414,73.565941,1119.300049,306.00058,285.722626,0.148181,0.36028,1186.499878,-0.020097,0.146785,0.1,0.0,1.0,2674.205566,
92.750748,475.41983,476.613281,7.32121,4.228926,7.32121,4.228926,470.000153,470.0,582.049255,73.558197,1116.520996,306.362,286.068787,0.1474,0.363639,1172.745361,-0.020116,0.146646,0.1,0.0,1.0,2674.220459,
92.731056,479.18277,480.376221,7.31371,4.232381,7.31371,4.232381,480.000153,480.0,585.768005,73.552963,1114.825562,306.594208,286.288818,0.147221,0.366122,1165.482422,-0.020138,0.146424,0.1,0.0,1.0,2674.23291,
92.702278,484.815338,486.008759,7.304158,4.240818,7.304158,4.240818,480.000153,480.0,591.335815,73.54467,1112.404297,306.945648,286.620697,0.147378,0.369947,1156.195313,-0.020154,0.146274,0.1,0.0,1.0,2674.255127,
92.684959,488.249298,489.442749,7.298061,4.24818,7.298061,4.24818,490.000153,490.0,594.732605,73.539345,1111.010498,307.160645,286.824493,0.147627,0.372092,1151.24231,-0.020194,0.146083,0.1,0.0,1.0,2674.270752,
92.655632,494.168091,495.361542,7.288548,4.263648,7.288548,4.263648,490.000153,490.0,600.589966,73.529755,1108.693604,307.53009,287.177979,0.14826,0.375099,1143.829102,-0.020229,0.145961,0.1,0.0,1.0,2674.301025,
92.638733,497.901215,499.094635,7.282129,4.273915,7.282129,4.273915,500.000153,500.0,604.283142,73.523453,1107.273193,307.761475,287.401978,0.148577,0.376466,1139.903687,-0.020303,0.145771,0.1,0.0,1.0,2674.322998,
92.613762,503.488892,504.682343,7.273842,4.28754,7.273842,4.28754,500.000153,500.0,609.814087,73.513702,1105.192139,308.106049,287.738831,0.148853,0.37785,1134.658325,-0.020352,0.145643,0.1,0.0,1.0,2674.359375,
92.599274,506.898102,508.091553,7.268466,4.294194,7.268466,4.294194,510.000153,510.0,613.189148,73.507576,1103.963135,308.315613,287.944946,0.148875,0.378409,1131.836304,-0.020417,0.145477,0.1,0.0,1.0,2674.384033,
92.574982,512.772705,513.966187,7.259934,4.302029,7.259934,4.302029,510.000153,510.0,619.009888,73.496758,1101.870239,308.677399,288.301117,0.148701,0.379155,1127.309692,-0.020449,0.145369,0.1,0.0,1.0,2674.429932,
92.560791,516.478577,517.671997,7.254129,4.304787,7.254129,4.304787,520.000122,520.0,622.680542,73.488235,1100.576416,308.906494,288.52597,0.148493,0.379626,1124.859253,-0.020486,0.145199,0.1,0.0,1.0,2674.462402,
92.540344,522.027344,523.220825,7.246646,4.306592,7.246646,4.306592,520.000122,520.0,628.178528,73.475052,1098.697632,309.252167,288.862823,0.148172,0.380515,1121.474854,-0.020499,0.145083,0.1,0.0,1.0,2674.514648,
92.521698,527.256042,528.449524,7.239405,4.307278,7.239405,4.307278,530.000122,530.0,633.362732,73.462563,1097.020874,309.580872,289.180267,0.147964,0.381561,1118.481323,-0.020508,0.144933,0.1,0.0,1.0,2674.568115,
92.509995,530.939697,532.133118,7.234275,4.307992,7.234275,4.307992,530.000122,530.0,637.017517,73.453751,1095.876221,309.813873,289.403809,0.147886,0.382371,1116.455566,-0.020511,0.144788,0.1,0.0,1.0,2674.607666,
92.495613,534.926758,536.120178,7.229342,4.309253,7.229342,4.309253,530.000122,530.0,640.972595,73.444206,1094.678589,310.066803,289.645386,0.147883,0.383253,1114.491211,-0.020514,0.144686,0.1,0.0,1.0,2674.652832,
92.478012,540.439758,541.633179,7.223165,4.31174,7.223165,4.31174,540.000122,540.0,646.442017,73.431038,1093.15625,310.417267,289.97879,0.14796,0.384367,1112.002075,-0.02052,0.144587,0.1,0.0,1.0,2674.71875,
92.461693,545.635925,546.829346,7.216936,4.314727,7.216936,4.314727,550.000122,550.0,651.600769,73.418655,1091.785156,310.74765,290.292358,0.148073,0.385197,1109.717407,-0.020532,0.144463,0.1,0.0,1.0,2674.783691,
92.45031,549.295105,550.488525,7.212646,4.317029,7.212646,4.317029,550.000122,550.0,655.238403,73.409973,1090.831665,310.980316,290.512848,0.148133,0.385626,1108.011353,-0.020546,0.144339,0.1,0.0,1.0,2674.831055,
92.439751,552.952026,554.145447,7.208837,4.319115,7.208837,4.319115,550.000122,550.0,658.872925,73.401337,1089.915161,311.212463,290.732635,0.148175,0.385933,1106.499512,-0.020557,0.144253,0.1,0.0,1.0,2674.880127,
92.423958,558.737915,559.931335,7.203126,4.321215,7.203126,4.321215,560.000122,560.0,664.621521,73.387787,1088.559204,311.579437,291.078979,0.14813,0.386242,1104.449585,-0.020567,0.144177,0.1,0.0,1.0,2674.961426,
92.414574,562.388428,563.581848,7.199135,4.321623,7.199135,4.321623,560.000122,560.0,668.248657,73.379326,1087.722534,311.811188,291.296692,0.148066,0.386391,1103.259644,-0.020577,0.144063,0.1,0.0,1.0,2675.015137,
92.401352,567.549744,568.743225,7.1943,4.321354,7.1943,4.321354,570.000122,570.0,673.382263,73.36747,1086.566772,312.139893,291.603699,0.147968,0.386621,1101.415405,-0.020579,0.143983,0.1,0.0,1.0,2675.092773,
92.391624,571.491638,572.68512,7.190581,4.320841,7.190581,4.320841,570.000122,570.0,677.304443,73.358528,1085.735962,312.39151,291.837311,0.147882,0.386812,1100.085815,-0.020578,0.143886,0.1,0.0,1.0,2675.153809,
92.379341,576.947876,578.141296,7.185812,4.319612,7.185812,4.319612,580.000122,580.0,682.730286,73.346336,1084.64502,312.740509,292.15918,0.147772,0.387127,1098.571289,-0.020575,0.143812,0.1,0.0,1.0,2675.242188,
92.371437,580.580872,581.774292,7.182485,4.318724,7.182485,4.318724,580.000122,580.0,686.344543,73.338333,1083.947632,312.973511,292.372772,0.14773,0.387362,1097.565186,-0.02057,0.143716,0.1,0.0,1.0,2675.30249,
92.35997,585.870117,587.063538,7.17829,4.317744,7.17829,4.317744,590.000122,590.0,691.611267,73.326874,1082.97644,313.313568,292.682861,0.147674,0.38771,1095.977051,-0.020565,0.14365,0.1,0.0,1.0,2675.39209,
92.351883,589.644714,590.838135,7.175181,4.317299,7.175181,4.317299,590.000122,590.0,695.370422,73.318832,1082.322998,313.556396,292.903412,0.147686,0.387922,1094.931519,-0.020561,0.143566,0.1,0.0,1.0,2675.45752,
92.341476,595.076172,596.269592,7.17118,4.316848,7.17118,4.316848,590.000122,590.0,700.779724,73.307495,1081.428467,313.905792,293.219696,0.147701,0.388155,1093.585449,-0.020559,0.143504,0.1,0.0,1.0,2675.554199,
92.33461,598.693115,599.886597,7.168423,4.316507,7.168423,4.316507,600.000122,600.0,704.383484,73.300095,1080.86145,314.138519,293.429749,0.147709,0.388257,1092.691406,-0.020556,0.143424,0.1,0.0,1.0,2675.619873,
92.325317,603.812744,605.006165,7.164995,4.315836,7.164995,4.315836,600.000122,600.0,709.485657,73.289841,1080.093018,314.468048,293.726379,0.147703,0.388352,1091.47168,-0.020555,0.143368,0.1,0.0,1.0,2675.714844,
92.318733,607.420898,608.614319,7.162514,4.315292,7.162514,4.315292,610.000122,610.0,713.085083,73.282776,1079.578125,314.700439,293.93512,0.147687,0.38838,1090.5177,-0.020552,0.1433,0.1,0.0,1.0,2675.782715,
92.309273,613.132813,614.326233,7.158866,4.314094,7.158866,4.314094,610.000122,610.0,718.780762,73.271866,1078.804321,315.068268,294.264679,0.14762,0.388387,1089.327881,-0.020549,0.14325,0.1,0.0,1.0,2675.892822,
92.303604,616.737427,617.930908,7.15644,4.313012,7.15644,4.313012,620.000122,620.0,722.375916,73.265167,1078.331909,315.300629,294.47229,0.147577,0.388393,1088.610229,-0.020543,0.143177,0.1,0.0,1.0,2675.963623,
92.296074,621.841431,623.034851,7.153562,4.311241,7.153562,4.311241,620.000122,620.0,727.466492,73.255936,1077.698242,315.630035,294.765839,0.14752,0.388431,1087.688965,-0.020538,0.143129,0.1,0.0,1.0,2676.065918,
