airspeed_indicator_indicated_speed_kt,altimeter_indicated_altitude_ft,altimeter_pressure_alt_ft,attitude_indicator_indicated_pitch_deg,attitude_indicator_indicated_roll_deg,attitude_indicator_internal_pitch_deg,attitude_indicator_internal_roll_deg,encoder_indicated_altitude_ft,encoder_pressure_alt_ft,gps_indicated_altitude_ft,gps_indicated_ground_speed_kt,gps_indicated_vertical_speed,indicated_heading_deg,magnetic_compass_indicated_heading_deg,slip_skid_ball_indicated_slip_skid,turn_indicator_indicated_turn_rate,vertical_speed_indicator_indicated_speed_fpm,flight_aileron,flight_elevator,flight_rudder,flight_flaps,engine_throttle,engine_rpm,
Command: takeoff
6.548514,-87.985352,-86.791901,2.970654,1.358139,2.591057,0.092814,-89.999855,-90.0,2.286526,0.0,0.007838,297.866852,278.815094,0.012376,-0.044229,-17.902855,-0.0,0.0,0.0,0.0,0.0,600.224609,
6.611019,-87.995247,-86.801804,2.969182,1.352091,2.591341,0.09262,-89.999855,-90.0,2.286555,0.0,0.008374,297.865997,281.185547,0.012407,-0.039851,-15.282822,-0.0,0.0,0.0,0.0,0.0,600.260681,
6.713903,-88.006393,-86.81295,2.772659,0.722741,2.583409,0.091908,-89.999855,-90.0,2.286558,3.7E-5,-0.010618,297.864655,284.527832,0.012321,-0.034326,-18.065212,-0.019316,0.051827,4.3E-5,0.0,1.0,672.798889,
6.78673,-88.012222,-86.818779,2.635334,0.334217,2.562136,0.090221,-89.999855,-90.0,2.286491,1.45E-4,-0.031185,297.863678,286.685944,0.012239,-0.031127,-9.00132,-0.010325,0.051668,1.1E-4,0.0,1.0,784.616333,
6.929972,-88.019157,-86.825714,2.509616,0.084353,2.509616,0.084353,-89.999855,-90.0,2.286322,7.49E-4,-0.017518,297.861938,289.782471,0.012178,-0.027003,-18.056732,-0.004775,0.051243,1.59E-4,0.0,1.0,1004.768066,
7.07696,-88.02282,-86.829376,2.49182,0.077704,2.49182,0.077704,-89.999855,-90.0,2.286333,0.002354,0.022643,297.860657,291.734985,0.012659,-0.024661,-11.058158,-0.001205,0.050192,2.46E-4,0.0,1.0,1165.383423,
7.394022,-88.027161,-86.833717,2.493105,0.064369,2.493105,0.064369,-89.999855,-90.0,2.286605,0.008814,0.082199,297.858215,294.468872,0.014468,-0.021726,-18.935467,-0.00111,0.049836,3.1E-4,0.0,1.0,1401.003174,
7.675711,-88.029404,-86.83596,2.503608,0.053985,2.503608,0.053985,-89.999855,-90.0,2.286947,0.017316,0.119179,297.855652,296.147797,0.016261,-0.020185,-17.867701,-9.2E-4,0.049862,4.32E-4,0.0,1.0,1544.471191,
8.188035,-88.031921,-86.838478,2.524034,0.038065,2.524034,0.038065,-89.999855,-90.0,2.287671,0.038197,0.176926,297.849731,298.371399,0.020338,-0.018574,-17.710922,-7.71E-4,0.050072,5.6E-4,0.0,1.0,1725.150269,
8.621456,-88.033241,-86.839798,2.53967,0.026767,2.53967,0.026767,-89.999855,-90.0,2.288352,0.060757,0.21605,297.843109,299.786682,0.022263,-0.017948,-12.241119,-5.44E-4,0.050481,8.56E-4,0.0,1.0,1831.747681,
8.621456,-88.033241,-86.839798,2.53967,0.026767,2.53967,0.026767,-89.999855,-90.0,2.288352,0.060757,0.21605,297.843109,299.786682,0.022263,-0.017948,-12.241119,-5.44E-4,0.050481,8.56E-4,0.0,1.0,1831.747681,
9.833319,-88.035393,-86.841942,2.572593,0.003215,2.572593,0.003215,-89.999855,-90.0,2.290551,0.144985,0.314763,297.816986,302.522278,0.019743,-0.018227,-9.809125,-3.82E-4,0.050793,0.001187,0.0,1.0,2014.610474,
10.672136,-88.035637,-86.842194,2.589124,-0.00788,2.589124,-0.00788,-89.999855,-90.0,2.292311,0.2207,0.385473,297.792969,303.760864,0.022023,-0.019511,-11.371316,-4.6E-5,0.051452,0.002493,0.0,1.0,2087.607178,
11.286382,-88.035477,-86.842033,2.598158,-0.014246,2.598158,-0.014246,-89.999855,-90.0,2.293745,0.285008,0.436789,297.774017,304.426788,0.023363,-0.020611,-10.395843,1.13E-4,0.051782,0.003694,0.0,1.0,2125.219727,
12.204399,-88.034813,-86.84137,2.60869,-0.021666,2.60869,-0.021666,-89.999855,-90.0,2.296128,0.395069,0.513495,297.745605,305.108154,0.025003,-0.022123,-4.3948,2.04E-4,0.051963,0.004642,0.0,1.0,2164.878174,
12.832733,-88.034103,-86.84066,2.6148,-0.025662,2.6148,-0.025662,-89.999855,-90.0,2.297936,0.480055,0.567256,297.726349,305.383514,0.025976,-0.023029,8.711201,3.1E-4,0.052174,0.006062,0.0,1.0,2183.886719,
13.792156,-88.032661,-86.839211,2.622578,-0.030521,2.622578,-0.030521,-89.999855,-90.0,2.300986,0.625018,0.648819,297.700073,305.536743,0.027175,-0.023768,16.439449,3.67E-4,0.052296,0.007025,0.0,1.0,2204.217773,
14.386539,-88.031555,-86.838112,2.626912,-0.032846,2.626912,-0.032846,-89.999855,-90.0,2.303054,0.723885,0.702781,297.686005,305.482574,0.027981,-0.023833,8.720302,4.36E-4,0.052452,0.008339,0.0,1.0,2213.781738,
15.391988,-88.029327,-86.835884,2.633484,-0.035981,2.633484,-0.035981,-89.999855,-90.0,2.306889,0.907543,0.787727,297.668365,305.152679,0.029076,-0.022943,5.554276,4.69E-4,0.052538,0.009042,0.0,1.0,2226.789795,
16.077604,-88.027557,-86.834114,2.637836,-0.037789,2.637836,-0.037789,-89.999855,-90.0,2.309737,1.043814,0.851102,297.66098,304.770447,0.029882,-0.021696,16.362123,5.14E-4,0.05267,0.009924,0.0,1.0,2233.859863,
17.067722,-88.024651,-86.831207,2.643869,-0.040209,2.643869,-0.040209,-89.999855,-90.0,2.314206,1.256981,0.934741,297.657928,304.013641,0.031244,-0.018919,17.798527,5.4E-4,0.052757,0.010294,0.0,1.0,2242.210693,
17.731543,-88.022476,-86.829033,2.647948,-0.041742,2.647948,-0.041742,-89.999855,-90.0,2.317429,1.41,0.997011,297.660645,303.385773,0.032274,-0.016542,16.302977,5.74E-4,0.052877,0.010446,0.0,1.0,2246.843994,
18.727667,-88.018852,-86.825409,2.65397,-0.04397,2.65397,-0.04397,-89.999855,-90.0,2.322628,1.655536,1.08132,297.67099,302.280792,0.033983,-0.012415,7.962996,5.96E-4,0.052959,0.01031,0.0,1.0,2252.740479,
19.393471,-88.016197,-86.822754,2.658099,-0.045389,2.658099,-0.045389,-89.999855,-90.0,2.326339,1.829682,1.139938,297.681458,301.448761,0.035172,-0.009441,8.878169,6.28E-4,0.053079,0.009793,0.0,1.0,2256.125977,
20.393616,-88.011871,-86.818428,2.664185,-0.047383,2.664185,-0.047383,-89.999855,-90.0,2.332273,2.106201,1.229306,297.700165,300.081451,0.036984,-0.00505,17.815432,6.48E-4,0.053162,0.00927,0.0,1.0,2260.590576,
21.060022,-88.008743,-86.8153,2.668361,-0.048615,2.668361,-0.048615,-89.999855,-90.0,2.336475,2.300524,1.286885,297.713867,299.104523,0.038091,-0.002278,6.629668,6.77E-4,0.053284,0.008334,0.0,1.0,2263.249023,
22.060385,-88.003685,-86.810242,2.674576,-0.050267,2.674576,-0.050267,-89.999855,-90.0,2.343144,2.606587,1.375215,297.733917,297.565247,0.039509,0.001294,19.325617,6.94E-4,0.053367,0.007649,0.0,1.0,2266.880371,
22.727179,-88.000076,-86.806633,2.678857,-0.051277,2.678857,-0.051277,-89.999855,-90.0,2.347837,2.820122,1.434101,297.746521,296.503876,0.040221,0.003272,12.872945,7.18E-4,0.053492,0.006647,0.0,1.0,2269.116943,
23.699272,-87.994476,-86.801033,2.685037,-0.05255,2.685037,-0.05255,-89.999855,-90.0,2.355031,3.144777,1.520286,297.762207,294.927826,0.040957,0.005388,14.916464,7.33E-4,0.053577,0.006017,0.0,1.0,2272.181641,
24.365122,-87.990402,-86.796959,2.689435,-0.053389,2.689435,-0.053389,-89.999855,-90.0,2.360207,3.376266,1.578636,297.771149,293.840668,0.041202,0.006395,8.479687,7.51E-4,0.053701,0.005232,0.0,1.0,2274.177734,
25.363585,-87.983932,-86.790489,2.696042,-0.05455,2.696042,-0.05455,-89.999855,-90.0,2.368338,3.736655,1.669143,297.781738,292.221558,0.041241,0.007283,15.645479,7.63E-4,0.053789,0.004785,0.0,1.0,2277.052002,
26.055962,-87.979187,-86.785744,2.700807,-0.055401,2.700807,-0.055401,-89.999855,-90.0,2.374245,3.995979,1.730842,297.78775,291.118225,0.041132,0.007624,13.586177,7.79E-4,0.053921,0.004256,0.0,1.0,2278.982422,
27.023796,-87.972198,-86.778755,2.707482,-0.056661,2.707482,-0.056661,-89.999855,-90.0,2.382873,4.371144,1.814382,297.795135,289.620972,0.040884,0.00789,9.104128,7.91E-4,0.054016,0.003955,0.0,1.0,2281.618164,
27.714771,-87.966957,-86.773514,2.712858,-0.057706,2.712858,-0.057706,-89.999855,-90.0,2.389319,4.647548,1.911822,297.800598,288.596161,0.040774,0.008099,10.171112,8.09E-4,0.05415,0.003586,0.0,1.0,2283.464355,
28.679274,-87.959183,-86.765739,2.724995,-0.053368,2.724995,-0.053368,-89.999855,-90.0,2.39933,5.045963,2.176474,297.809509,287.239075,0.0411,0.008691,10.571555,8.24E-4,0.054257,0.003313,0.0,1.0,2286.009766,
29.339771,-87.953506,-86.760063,2.730652,-0.053971,2.730652,-0.053971,-89.999855,-90.0,2.406705,5.326679,2.239212,297.817017,286.368805,0.040831,0.009192,13.633614,7.62E-4,0.0545,0.002867,0.0,1.0,2287.735352,
30.356562,-87.944199,-86.750748,2.737604,-0.056,2.737604,-0.056,-89.999855,-90.0,2.418475,5.771069,2.335413,297.831604,285.135864,0.041187,0.010328,7.465072,7.71E-4,0.054613,0.002492,0.0,1.0,2290.372559,
30.960182,-87.938354,-86.744911,2.74203,-0.057424,2.74203,-0.057424,-89.999855,-90.0,2.425713,6.041808,2.395103,297.842407,284.470673,0.041772,0.011255,11.824455,8.0E-4,0.054752,0.001762,0.0,1.0,2291.929932,
32.001064,-87.927765,-86.734322,2.749836,-0.059888,2.749836,-0.059888,-89.999855,-90.0,2.438642,6.520529,2.49683,297.863831,283.449799,0.04305,0.01309,13.249564,8.2E-4,0.054841,0.001222,0.0,1.0,2294.607422,
32.62994,-87.921059,-86.727615,2.754773,-0.061399,2.754773,-0.061399,-89.999855,-90.0,2.44673,6.816916,2.559234,297.878387,282.914307,0.04405,0.014317,19.547882,8.56E-4,0.054997,1.51E-4,0.0,1.0,2296.22168,
33.612606,-87.910126,-86.716682,2.762358,-0.063583,2.762358,-0.063583,-89.999855,-90.0,2.459786,7.290557,2.655937,297.901703,282.205292,0.045553,0.016081,10.211113,8.77E-4,0.055095,-5.77E-4,0.0,1.0,2298.741943,
34.293377,-87.902222,-86.708778,2.767781,-0.065054,2.767781,-0.065054,-89.999855,-90.0,2.469137,7.626267,2.722996,297.91806,281.80722,0.046462,0.017185,10.500875,9.08E-4,0.055247,-0.001743,0.0,1.0,2300.488037,
35.209557,-87.890755,-86.697311,2.775104,-0.066112,2.775104,-0.066112,-89.999855,-90.0,2.482595,8.105321,2.807205,297.938721,281.380371,0.047824,0.018179,15.948724,9.29E-4,0.055356,-0.00256,0.0,1.0,2302.910645,
35.833317,-87.882614,-86.689171,2.780408,-0.065672,2.780408,-0.065672,-89.999855,-90.0,2.49209,8.439761,2.914392,297.949066,281.174957,0.048374,0.018185,16.489552,9.44E-4,0.055502,-0.003593,0.0,1.0,2304.550293,
36.766842,-87.869888,-86.676445,2.794275,-0.063297,2.794275,-0.063297,-89.999855,-90.0,2.507951,8.950212,3.30432,297.954285,280.99704,0.047708,0.016574,14.978709,9.38E-4,0.055608,-0.004111,0.0,1.0,2306.98877,
37.387539,-87.860924,-86.66748,2.799083,-0.060893,2.799083,-0.060893,-89.999855,-90.0,2.519072,9.296206,3.364412,297.94989,280.962494,0.046044,0.014408,19.593897,9.04E-4,0.055886,-0.004372,0.0,1.0,2308.604492,
38.265736,-87.847626,-86.654182,2.804926,-0.056802,2.804926,-0.056802,-89.999855,-90.0,2.535196,9.793927,3.459005,297.933258,281.023132,0.042379,0.010082,19.86442,8.7E-4,0.055982,-0.004152,0.0,1.0,2310.885254,
38.961784,-87.836624,-86.643181,2.810023,-0.053309,2.810023,-0.053309,-89.999855,-90.0,2.54833,10.195314,3.538391,297.912689,281.157715,0.038135,0.005932,10.135993,8.11E-4,0.056099,-0.00332,0.0,1.0,2312.691895,
39.888298,-87.821335,-86.627892,2.817032,-0.048964,2.817032,-0.048964,-89.999855,-90.0,2.566304,10.738677,3.646784,297.880188,281.446838,0.032081,3.38E-4,9.028626,7.62E-4,0.0562,-0.002292,0.0,1.0,2315.096191,
40.504398,-87.810776,-86.617332,2.821959,-0.046351,2.821959,-0.046351,-89.999855,-90.0,2.578584,11.105959,3.716188,297.858002,281.703339,0.028239,-0.00301,9.665074,6.99E-4,0.056341,-6.67E-4,0.0,1.0,2316.69751,
41.427528,-87.794449,-86.600998,2.828809,-0.043185,2.828809,-0.043185,-89.999855,-90.0,2.597396,11.664196,3.76124,297.829926,282.173126,0.02372,-0.006584,10.567076,6.62E-4,0.056439,4.42E-4,0.0,1.0,2319.098145,
42.015968,-87.78373,-86.590279,2.835148,-0.040128,2.835148,-0.040128,-89.999855,-90.0,2.609584,12.025313,3.885544,297.816956,282.520691,0.022009,-0.007786,12.047939,6.17E-4,0.056576,0.001846,0.0,1.0,2320.631348,
42.934605,-87.766235,-86.572792,2.846879,-0.033186,2.846879,-0.033186,-89.999855,-90.0,2.631324,12.597286,4.402623,297.806946,283.127716,0.021085,-0.007783,19.101225,5.73E-4,0.056703,0.002495,0.0,1.0,2323.035645,
43.570999,-87.753471,-86.560028,2.852877,-0.033726,2.852877,-0.033726,-89.999855,-90.0,2.646777,12.999189,4.490818,297.806824,283.587341,0.02176,-0.006838,19.173679,4.74E-4,0.056938,0.002995,0.0,1.0,2325.269287,
44.486469,-87.734314,-86.540863,2.860239,-0.033661,2.860239,-0.033661,-89.999855,-90.0,2.669555,13.584467,4.613682,297.814392,284.292114,0.024598,-0.00444,10.680756,4.82E-4,0.057058,0.003001,0.0,1.0,2329.685059,
45.095955,-87.721054,-86.527611,2.865117,-0.033069,2.865117,-0.033069,-89.999855,-90.0,2.685073,13.978825,4.691426,297.822144,284.783386,0.027109,-0.002624,20.679396,4.81E-4,0.057205,0.002623,0.0,1.0,2333.130371,
45.985195,-87.701088,-86.507645,2.871954,-0.031338,2.871954,-0.031338,-89.999855,-90.0,2.708174,14.559743,4.807992,297.832275,285.519928,0.030775,-4.99E-4,14.578989,4.72E-4,0.057302,0.002235,0.0,1.0,2338.590576,
46.619434,-87.686356,-86.492912,2.882363,-0.029516,2.882363,-0.029516,-89.999855,-90.0,2.725795,14.978806,5.336962,297.835785,286.053925,0.032564,2.41E-4,20.578629,4.48E-4,0.057439,0.001729,0.0,1.0,2342.694336,
47.532192,-87.664093,-86.47065,2.890862,-0.024286,2.890862,-0.024286,-89.999855,-90.0,2.752909,15.588121,5.492551,297.83136,286.823486,0.033487,-2.77E-4,13.850093,4.22E-4,0.057647,0.001553,0.0,1.0,2348.783447,
48.141323,-87.648605,-86.455154,2.895474,-0.020821,2.895474,-0.020821,-89.999855,-90.0,2.771429,15.998085,5.593174,297.821075,287.330841,0.032535,-0.001743,14.2262,3.47E-4,0.057817,0.001775,0.0,1.0,2352.920166,
49.054607,-87.624474,-86.431023,2.901856,-0.015472,2.901856,-0.015472,-89.999855,-90.0,2.799733,16.618517,5.720794,297.795441,288.073486,0.028984,-0.005255,15.112241,2.97E-4,0.057909,0.002289,0.0,1.0,2359.198486,
49.663483,-87.607841,-86.414398,2.906449,-0.011709,2.906449,-0.011709,-89.999855,-90.0,2.818962,17.035707,5.808051,297.772675,288.550964,0.025454,-0.008195,15.652892,2.21E-4,0.058037,0.003571,0.0,1.0,2363.41748,
50.57682,-87.582153,-86.38871,2.913344,-0.00638,2.913344,-0.00638,-89.999855,-90.0,2.848352,17.666712,5.939389,297.734955,289.232239,0.019246,-0.012591,18.660574,1.67E-4,0.058129,0.004709,0.0,1.0,2369.780518,
51.18573,-87.56456,-86.371109,2.918365,-0.003046,2.918365,-0.003046,-89.999855,-90.0,2.868345,18.090776,6.06386,297.709656,289.65863,0.015066,-0.015181,12.253362,9.1E-5,0.058267,0.006595,0.0,1.0,2374.039795,
52.097534,-87.53714,-86.343697,2.935883,0.011356,2.935883,0.011356,-89.999855,-90.0,2.902152,18.731813,6.980581,297.677124,290.249664,0.009873,-0.017502,13.073342,4.4E-5,0.058367,0.00786,0.0,1.0,2380.447998,
52.654758,-87.519554,-86.326111,2.940489,0.013877,2.940489,0.013877,-89.999855,-90.0,2.923615,19.126408,7.059699,297.661407,290.579132,0.007077,-0.018234,18.650349,-1.62E-4,0.058718,0.009486,0.0,1.0,2384.373291,
53.617607,-87.487862,-86.294418,2.946488,0.016884,2.946488,0.016884,-89.999855,-90.0,2.961273,19.812935,7.205607,297.644928,291.086639,0.005059,-0.0177,16.05056,-1.98E-4,0.05881,0.010272,0.0,1.0,2391.170166,
54.225998,-87.467087,-86.273643,2.950861,0.018514,2.950861,0.018514,-89.999855,-90.0,2.985469,20.249693,7.303248,297.640625,291.364899,0.005183,-0.016471,16.250509,-2.41E-4,0.05893,0.011096,0.0,1.0,2395.473633,
55.138721,-87.434944,-86.241501,2.957491,0.020681,2.957491,0.020681,-89.999855,-90.0,3.022379,20.909298,7.45167,297.640503,291.718384,0.007183,-0.013886,16.964754,-2.64E-4,0.059017,0.011311,0.0,1.0,2401.943848,
55.747326,-87.41291,-86.219467,2.96204,0.022275,2.96204,0.022275,-89.999855,-90.0,3.0474,21.35195,7.550985,297.64212,291.910675,0.009249,-0.012131,17.403254,-2.95E-4,0.05915,0.011317,0.0,1.0,2406.267822,
56.660347,-87.379036,-86.185593,2.968468,0.025097,2.968468,0.025097,-89.999855,-90.0,3.085551,22.020185,7.698804,297.64212,292.133545,0.012504,-0.010226,18.01598,-3.18E-4,0.059241,0.011237,0.0,1.0,2412.768799,
57.269028,-87.355927,-86.162483,2.972816,0.027368,2.972816,0.027368,-89.999855,-90.0,3.111398,22.468449,7.799091,297.637939,292.238647,0.014217,-0.009779,18.400652,-3.59E-4,0.059369,0.011237,0.0,1.0,2417.113037,
58.181824,-87.320526,-86.127083,2.97904,0.031341,2.97904,0.031341,-89.999855,-90.0,3.150789,23.144894,7.947345,297.622528,292.332214,0.015348,-0.010624,20.42691,-3.91E-4,0.059456,0.011446,0.0,1.0,2423.644287,
58.789818,-87.296455,-86.103012,2.98294,0.034916,2.98294,0.034916,-89.999855,-90.0,3.177383,23.598486,7.983922,297.605438,292.352875,0.014943,-0.012166,14.866103,-4.48E-4,0.059581,0.012216,0.0,1.0,2428.007324,
59.675762,-87.260796,-86.067352,2.988518,0.039997,2.988518,0.039997,-89.999855,-90.0,3.216364,24.263618,8.083941,297.572754,292.325439,0.012423,-0.015357,12.452888,-4.99E-4,0.059659,0.013071,0.0,1.0,2434.381592,
60.30793,-87.234901,-86.041458,2.993269,0.043268,2.993269,0.043268,-89.999855,-90.0,3.244635,24.741287,8.189622,297.545135,292.265808,0.009833,-0.018026,17.34296,-5.71E-4,0.05977,0.014705,0.0,1.0,2438.951172,
61.217278,-87.197021,-86.003578,3.001894,0.046869,3.001894,0.046869,-89.999855,-90.0,3.286182,25.432772,8.577373,297.504395,292.124786,0.00515,-0.021538,22.325218,-6.18E-4,0.059865,0.016086,0.0,1.0,2445.629883,
61.8223,-87.171227,-85.977783,3.009125,0.048474,3.009125,0.048474,-89.999855,-90.0,3.315681,25.896072,8.896556,297.478699,291.996948,0.002229,-0.023353,14.821557,-6.7E-4,0.060038,0.018123,0.0,1.0,2450.130127,
62.728607,-87.131454,-85.938011,3.022214,0.051987,3.022214,0.051987,-89.999855,-90.0,3.361776,26.59437,9.927834,297.447357,291.75885,-0.001421,-0.024578,19.74341,-6.92E-4,0.060183,0.019408,0.0,1.0,2456.926025,
63.331215,-87.103889,-85.910446,3.028844,0.054348,3.028844,0.054348,-89.999855,-90.0,3.395066,27.062052,10.029125,297.431732,291.572052,-0.003016,-0.024466,18.228888,-7.43E-4,0.060444,0.020975,0.0,1.0,2461.476318,
Command: fly_strait
64.234268,-87.060883,-85.867439,3.034344,0.05751,3.034344,0.05751,-89.999855,-90.0,3.445609,27.76668,10.180393,297.417114,291.255066,-0.003754,-0.02295,13.432587,-7.76E-4,0.060577,0.021756,0.0,1.0,2468.321533,
64.835457,-87.03125,-85.837807,3.038459,0.06137,3.038459,0.06137,-89.999855,-90.0,3.479744,28.238434,10.290796,297.407379,291.022552,-0.003846,-0.022332,20.027718,-8.22E-4,0.060687,0.0,0.0,1.0,2472.894775,
65.736816,-86.98555,-85.792107,3.043822,0.067801,3.043822,0.067801,-89.999855,-90.0,3.531634,28.948967,10.453621,297.318207,290.647705,-0.007096,-0.033641,13.950828,-8.77E-4,0.060769,4.87E-4,0.0,1.0,2479.766357,
66.338051,-86.954315,-85.760872,3.049368,0.071406,3.049368,0.071406,-89.999855,-90.0,3.567113,29.424541,10.899052,297.2099,290.38324,-0.012606,-0.047802,14.356871,-9.69E-4,0.060876,0.004945,0.0,1.0,2484.356201,
67.23951,-86.905991,-85.712547,3.056265,0.070722,3.056265,0.070722,-89.999855,-90.0,3.623219,30.140659,11.301272,297.011139,289.96875,-0.026693,-0.071981,15.158296,-0.00102,0.060987,0.010361,0.0,1.0,2491.256348,
67.838638,-86.872803,-85.679359,3.060011,0.067507,3.060011,0.067507,-89.999855,-90.0,3.661111,30.619843,11.421524,296.876831,289.682678,-0.037846,-0.086265,15.636932,-0.00101,0.061125,0.020299,0.0,1.0,2495.863281,
68.734756,-86.821686,-85.628235,3.062957,0.051475,3.062957,0.051475,-89.999855,-90.0,3.719483,31.341108,12.173644,296.721649,289.242676,-0.053885,-0.097782,16.3356,-9.64E-4,0.0612,0.027014,0.0,1.0,2502.776855,
69.332138,-86.786453,-85.59301,3.047457,-0.007291,3.047457,-0.007291,-89.999855,-90.0,3.762472,31.823532,14.04872,296.665466,288.944702,-0.062465,-0.098165,17.069586,-7.35E-4,0.061259,0.034773,0.0,1.0,2507.389404,
70.229729,-86.730247,-85.536804,2.978474,-0.175132,2.978474,-0.175132,-89.999855,-90.0,3.836114,32.549435,15.085357,296.673248,288.497131,-0.067151,-0.086005,18.977854,1.04E-4,0.060949,0.037582,0.0,1.0,2514.322754,
70.831169,-86.6903,-85.496857,2.914445,-0.316557,2.914445,-0.316557,-89.999855,-90.0,3.886539,33.034882,15.063953,296.735809,288.203278,-0.06316,-0.070598,15.848111,0.002502,0.059569,0.037193,0.0,1.0,2518.962646,
71.729408,-86.627487,-85.434044,2.846179,-0.495812,2.846179,-0.495812,-89.999855,-90.0,3.960951,33.765285,14.728992,296.879425,287.7789,-0.04749,-0.042074,19.590597,0.004522,0.058289,0.034065,0.0,1.0,2525.943359,
72.323517,-86.584251,-85.390808,2.817465,-0.588774,2.817465,-0.588774,-89.999855,-90.0,4.010043,34.253616,14.69409,296.977966,287.512115,-0.032711,-0.02464,16.167778,0.007083,0.056924,0.026884,0.0,1.0,2530.59668,
73.20916,-86.517906,-85.324463,2.785981,-0.707009,2.785981,-0.707009,-89.999855,-90.0,4.083975,34.98801,14.949765,297.067078,287.143616,-0.009083,-0.010871,22.957699,0.008411,0.056349,0.021957,0.0,1.0,2537.560547,
73.798294,-86.472748,-85.279305,2.756166,-0.798419,2.756166,-0.798419,-89.999855,-90.0,4.134472,35.478783,15.299464,297.064087,286.922272,0.004755,-0.013111,23.091156,0.0101,0.05572,0.017502,0.0,1.0,2542.193604,
74.683235,-86.403465,-85.210022,2.694284,-0.971313,2.694284,-0.971313,-89.999855,-90.0,4.212248,36.216599,15.796479,296.950714,286.630859,0.019749,-0.033952,23.661648,0.011406,0.055123,0.017651,0.0,1.0,2549.140625,
75.275261,-86.356194,-85.16275,2.641418,-1.115355,2.641418,-1.115355,-89.999855,-90.0,4.265526,36.709553,16.15291,296.812164,286.465088,0.024785,-0.056572,24.069399,0.013876,0.053886,0.02332,0.0,1.0,2553.779297,
Command_Fault: set /systems/electrical/serviceable false
76.162727,-86.283096,-85.089653,2.608432,-1.365127,2.608432,-1.365127,-89.999855,-90.0,4.352787,37.450588,19.012337,296.558441,286.260345,0.024889,-0.093964,25.040836,0.015934,0.052828,0.030248,0.0,1.0,2560.756592,
76.74929,-86.231468,-85.038025,2.652333,-1.576947,2.652333,-1.576947,-89.999855,-90.0,4.42639,37.946259,25.784605,296.387512,286.152618,0.021747,-0.116928,18.120193,0.019502,0.052169,0.042934,0.0,1.0,2565.41333,
77.611206,-86.140808,-84.947365,2.78667,-1.900428,2.78667,-1.900428,-79.999855,-80.0,4.602999,38.693264,46.167965,296.189423,286.031189,0.015511,-0.137714,21.212357,0.022528,0.053047,0.05148,0.0,1.0,2572.383789,
78.167778,-86.061966,-84.868523,2.902297,-2.08572,2.902297,-2.08572,-79.999855,-80.0,4.788825,39.191841,65.159569,296.112183,285.974579,0.012762,-0.140448,27.033348,0.027149,0.055733,0.061385,0.0,1.0,2577.002197,
78.969032,-85.895836,-84.702393,3.076838,-2.248003,3.076838,-2.248003,-79.999855,-80.0,5.197192,39.939945,97.709641,296.085541,285.9216,0.012882,-0.127429,40.193153,0.029796,0.058046,0.065247,0.0,1.0,2583.847412,
79.477715,-85.741547,-84.548103,3.206496,-2.261985,3.206496,-2.261985,-79.999855,-80.0,5.562236,40.438427,120.593681,296.108307,285.904846,0.016833,-0.111472,51.571476,0.032114,0.061537,0.066579,0.0,1.0,2588.332031,
80.199608,-85.427582,-84.234138,3.391444,-2.133157,3.391444,-2.133157,-79.999855,-80.0,6.254883,41.184956,155.321869,296.153839,285.902222,0.027515,-0.085592,71.859238,0.032314,0.06413,0.06544,0.0,1.0,2594.337158,
80.653885,-85.155205,-83.961754,3.5166,-1.968235,3.5166,-1.968235,-79.999855,-80.0,6.811689,41.681332,177.840637,296.162506,285.911957,0.036252,-0.072289,87.029594,0.030474,0.067829,0.063164,0.0,1.0,2597.565186,
81.301582,-84.642235,-83.448792,3.667988,-1.669567,3.667988,-1.669567,-79.999855,-80.0,7.783674,42.423058,209.587845,296.11026,285.936768,0.048702,-0.063939,111.453896,0.028118,0.070332,0.06273,0.0,1.0,2601.612061,
81.715088,-84.227257,-83.033813,3.760238,-1.469725,3.760238,-1.469725,-79.999855,-80.0,8.517497,42.915226,229.871918,296.029602,285.955933,0.054484,-0.066211,128.396057,0.023851,0.07336,0.065343,0.0,1.0,2603.932861,
82.311234,-83.492126,-82.298683,3.881633,-1.238041,3.881633,-1.238041,-79.999855,-80.0,9.742095,43.649387,258.758179,295.869995,285.981415,0.058258,-0.076473,154.344971,0.020996,0.075205,0.069376,0.0,1.0,2607.026123,
82.693626,-82.926308,-81.732864,3.968912,-1.131993,3.968912,-1.131993,-79.999855,-80.0,10.636676,44.135788,277.262512,295.762512,285.992401,0.057845,-0.08351,171.763092,0.017686,0.077633,0.077356,0.0,1.0,2608.89917,
83.244423,-81.964241,-80.77079,4.093192,-1.045394,4.093192,-1.045394,-79.999855,-80.0,12.093006,44.860352,304.240723,295.652832,285.99411,0.055104,-0.085943,197.848022,0.016171,0.079378,0.08273,0.0,1.0,2611.503418,
83.594734,-81.247871,-80.054428,4.181327,-1.004327,4.181327,-1.004327,-79.999855,-80.0,13.137115,45.339745,321.521088,295.629639,285.983002,0.054165,-0.079772,215.117447,0.014934,0.081864,0.088214,0.0,1.0,2613.131348,
84.095306,-80.062202,-78.868752,4.304017,-0.923479,4.304017,-0.923479,-79.999855,-80.0,14.815788,46.052822,349.810822,295.67334,285.945129,0.056293,-0.058944,240.797623,0.014348,0.083627,0.089374,0.0,1.0,2615.44165,
84.410202,-79.197166,-78.003723,4.401404,-0.832456,4.401404,-0.832456,-79.999855,-80.0,16.017681,46.523869,370.848297,295.737732,285.904999,0.061015,-0.040538,257.988922,0.013193,0.08608,0.087189,0.0,1.0,2616.905518,
84.851433,-77.784012,-76.590569,4.559858,-0.634645,4.559858,-0.634645,-79.999855,-80.0,17.958612,47.223316,404.115784,295.837128,285.821442,0.072013,-0.014826,284.384521,0.011892,0.088028,0.083969,0.0,1.0,2618.997803,
85.126595,-76.762413,-75.56897,4.668725,-0.471047,4.668725,-0.471047,-79.999855,-80.0,19.339907,47.684544,423.57193,295.880066,285.749451,0.080392,-0.002918,302.44696,0.009066,0.091197,0.078999,0.0,1.0,2620.327637,
85.522804,-75.11116,-73.917709,4.768552,-0.230912,4.768552,-0.230912,-69.999855,-70.0,21.521757,48.368378,447.45816,295.881348,285.615753,0.091518,0.002663,329.62616,0.006729,0.093374,0.076852,0.0,1.0,2622.234863,
85.781433,-73.934082,-72.740639,4.81111,-0.097046,4.81111,-0.097046,-69.999855,-70.0,23.037611,48.818798,461.359589,295.842987,285.509277,0.095894,-7.6E-4,347.337952,0.003299,0.095371,0.076788,0.0,1.0,2623.457275,
86.162788,-72.061157,-70.867714,4.8699,0.018156,4.8699,0.018156,-69.999855,-70.0,25.393974,49.486134,480.357208,295.756989,285.323792,0.097323,-0.011381,372.821838,0.001386,0.096222,0.078706,0.0,1.0,2625.231201,
86.411552,-70.745186,-69.551743,4.923879,0.042593,4.923879,0.042593,-69.999855,-70.0,27.016653,49.925461,492.846771,295.704102,285.183411,0.095478,-0.01787,388.984985,-2.59E-4,0.097398,0.083006,0.0,1.0,2626.378906,
86.773605,-68.676003,-67.482559,5.011539,0.019636,5.011539,0.019636,-69.999855,-70.0,29.531231,50.576004,512.651367,295.672241,284.948792,0.09112,-0.020057,412.08783,-6.08E-4,0.098478,0.085651,0.0,1.0,2628.052246,
87.005989,-67.235176,-66.041733,5.075994,-0.006212,5.075994,-0.006212,-69.999855,-70.0,31.264215,51.00399,526.723328,295.692383,284.777496,0.089303,-0.015009,426.89856,-2.81E-4,0.100231,0.087244,0.0,1.0,2629.13623,
87.339264,-64.983528,-63.790089,5.166394,-0.014225,5.166394,-0.014225,-59.999859,-60.0,33.953629,51.637218,548.400452,295.775635,284.501007,0.090124,5.14E-4,448.562866,8.9E-5,0.10152,0.086237,0.0,1.0,2630.714355,
87.551086,-63.422569,-62.229126,5.231593,0.015634,5.231593,0.015634,-59.999859,-60.0,35.80666,52.05344,562.912781,295.848755,284.305695,0.093427,0.012991,462.778992,2.03E-4,0.103328,0.082074,0.0,1.0,2631.734131,
87.855484,-60.991722,-59.798279,5.320107,0.11249,5.320107,0.11249,-59.999859,-60.0,38.678112,52.668705,585.016724,295.939789,283.999878,0.100953,0.027355,483.90921,-2.23E-4,0.104632,0.078418,0.0,1.0,2633.216064,
88.050957,-59.311584,-58.118137,5.381587,0.194369,5.381587,0.194369,-59.999859,-60.0,40.653557,53.072765,599.694275,295.970612,283.789307,0.105789,0.031326,497.925446,-0.001607,0.106402,0.073866,0.0,1.0,2634.174561,
88.336441,-56.702168,-55.508724,5.462661,0.296669,5.462661,0.296669,-59.999859,-60.0,43.70771,53.669609,621.15509,295.958893,283.466095,0.110373,0.026991,518.88324,-0.002777,0.107632,0.072325,0.0,1.0,2635.572754,
88.522629,-54.903439,-53.709995,5.518206,0.332821,5.518206,0.332821,-49.999859,-50.0,45.802387,54.061348,635.122314,295.921967,283.246979,0.11036,0.019266,532.79425,-0.004238,0.109253,0.072911,0.0,1.0,2636.48291,
88.795853,-52.117626,-50.924179,5.594889,0.318321,5.594889,0.318321,-49.999859,-50.0,49.031326,54.639767,655.734009,295.858765,282.914703,0.10625,0.006617,553.524475,-0.004755,0.110364,0.074757,0.0,1.0,2637.819092,
88.9729,-50.202564,-49.009121,5.651657,0.273443,5.651657,0.273443,-49.999859,-50.0,51.240524,55.019283,669.293274,295.832703,282.691925,0.102034,0.001119,567.232422,-0.004547,0.111898,0.077917,0.0,1.0,2638.692139,
89.228683,-47.24427,-46.050823,5.733586,0.18866,5.733586,0.18866,-49.999859,-50.0,54.639553,55.579433,689.693481,295.844452,282.358215,0.096179,0.001595,587.609436,-0.003906,0.113033,0.079221,0.0,1.0,2639.974365,
89.391174,-45.215412,-44.021969,5.793961,0.143791,5.793961,0.143791,-39.999859,-40.0,56.962093,55.946762,703.361389,295.88681,282.137695,0.094333,0.007533,601.078613,-0.002695,0.114672,0.078633,0.0,1.0,2640.809326,
89.622139,-42.087673,-40.89423,5.877954,0.128976,5.877954,0.128976,-39.999859,-40.0,60.532085,56.488518,723.982239,295.97821,281.812866,0.095433,0.020676,621.141724,-0.002054,0.115879,0.076515,0.0,1.0,2642.02832,
89.767868,-39.946404,-38.75296,5.937124,0.154409,5.937124,0.154409,-39.999859,-40.0,62.968967,56.843479,737.649414,296.038391,281.602112,0.098253,0.028867,634.443542,-0.001843,0.117559,0.071945,0.0,1.0,2642.817383,
89.977882,-36.744888,-35.551445,6.012492,0.224877,6.012492,0.224877,-39.999859,-40.0,66.604256,57.352158,757.282532,296.090485,281.305511,0.103484,0.034304,653.622009,-0.002206,0.118742,0.068936,0.0,1.0,2643.934326,
90.111687,-34.398769,-33.205326,6.066844,0.276818,6.066844,0.276818,-29.999857,-30.0,69.258026,57.708977,770.771057,296.093506,281.102631,0.105716,0.032334,667.428467,-0.003213,0.12025,0.066331,0.0,1.0,2644.709961,
90.309387,-30.937609,-29.744164,6.134708,0.313884,6.134708,0.313884,-29.999857,-30.0,73.160446,58.213303,789.423584,296.055023,280.82486,0.105678,0.02241,687.05658,-0.003955,0.121337,0.06618,0.0,1.0,2645.798828,
90.438576,-28.576464,-27.383018,6.181069,0.30438,6.181069,0.30438,-29.999857,-30.0,75.812332,58.543354,801.216125,296.017273,280.649506,0.103065,0.01408,699.986389,-0.004484,0.122694,0.068105,0.0,1.0,2646.509033,
90.627853,-24.956369,-23.762924,6.244003,0.241981,6.244003,0.241981,-19.999857,-20.0,79.862534,59.029308,818.199341,295.978882,280.401733,0.096814,0.00514,719.071167,-0.004348,0.123621,0.069992,0.0,1.0,2647.553955,
90.749916,-22.492121,-21.298676,6.289784,0.185209,6.289784,0.185209,-19.999857,-20.0,82.608849,59.347256,829.170166,295.979614,280.24707,0.092762,0.003806,731.550354,-0.003457,0.12488,0.071912,0.0,1.0,2648.236816,
90.924965,-18.721817,-17.528374,6.354175,0.117074,6.354175,0.117074,-19.999857,-20.0,86.796722,59.815182,845.427429,296.026367,280.03186,0.089009,0.009565,749.867371,-0.002646,0.125796,0.071875,0.0,1.0,2649.238525,
91.035446,-16.160192,-14.966748,6.40068,0.097404,6.40068,0.097404,-19.999857,-20.0,89.633339,60.121147,856.155212,296.078796,279.900208,0.088978,0.016744,761.809937,-0.001672,0.127083,0.069537,0.0,1.0,2649.889404,
91.19239,-12.247387,-11.053943,6.462933,0.119571,6.462933,0.119571,-9.999858,-10.0,93.955322,60.571091,872.068237,296.156067,279.721619,0.092035,0.026882,779.340942,-0.001391,0.128014,0.066916,0.0,1.0,2650.837891,
91.292213,-9.592849,-8.399405,6.505279,0.157492,6.505279,0.157492,-9.999858,-10.0,96.880089,60.865055,882.385742,296.190399,279.61554,0.094842,0.030497,790.788208,-0.001708,0.129259,0.063052,0.0,1.0,2651.440918,
91.437553,-5.543679,-4.350234,6.55861,0.21716,6.55861,0.21716,-9.999858,-10.0,101.330757,61.297047,897.251221,296.197235,279.475952,0.097994,0.028232,807.610535,-0.00225,0.130106,0.061336,0.0,1.0,2652.300781,
91.532722,-2.800412,-1.606967,6.594148,0.240415,6.594148,0.240415,1.42E-4,0.0,104.33783,61.57914,906.589966,296.175415,279.395599,0.097986,0.022444,818.587402,-0.003102,0.131172,0.060994,0.0,1.0,2652.85083,
91.673752,1.50441,2.697855,6.640247,0.22782,6.640247,0.22782,1.42E-4,0.0,108.905342,61.993561,919.841003,296.127167,279.29303,0.094655,0.011522,834.66333,-0.003434,0.131883,0.062085,0.0,1.0,2653.649902,
91.766258,4.46985,5.663294,6.672823,0.191322,6.672823,0.191322,1.42E-4,0.0,111.986008,62.26413,928.214294,296.101868,279.235901,0.090923,0.005725,845.098328,-0.003255,0.132805,0.064497,0.0,1.0,2654.168457,
91.901161,8.979635,10.173079,6.718308,0.117816,6.718308,0.117816,10.000142,10.0,116.658676,62.661552,940.40509,296.099823,279.165955,0.085202,0.00344,860.296204,-0.002733,0.133456,0.065762,0.0,1.0,2654.927734,
91.987328,12.025787,13.219232,6.751896,0.074334,6.751896,0.074334,10.000142,10.0,119.807152,62.920933,948.387878,296.125702,279.129333,0.082863,0.006503,870.119568,-0.001683,0.134366,0.065865,0.0,1.0,2655.421387,
92.109741,16.652302,17.845747,6.79876,0.048164,6.79876,0.048164,20.000143,20.0,124.579887,63.301701,960.305969,296.190674,279.088898,0.082525,0.015348,884.406372,-0.001062,0.135038,0.064571,0.0,1.0,2656.141113,
92.186752,19.773811,20.967255,6.831866,0.05887,6.831866,0.05887,20.000143,20.0,127.794487,63.550026,968.163818,296.236633,279.071289,0.084237,0.021427,893.651917,-6.88E-4,0.135975,0.061322,0.0,1.0,2656.606445,
92.297066,24.510307,25.703753,6.874288,0.106453,6.874288,0.106453,20.000143,20.0,132.665237,63.914276,979.683472,296.279449,279.058167,0.088048,0.025843,907.139954,-8.41E-4,0.136637,0.059024,0.0,1.0,2657.282227,
92.368446,27.703281,28.896725,6.902259,0.142071,6.902259,0.142071,30.000143,30.0,135.943573,64.151657,987.007874,296.282959,279.057587,0.089831,0.024531,915.895569,-0.001521,0.137486,0.056883,0.0,1.0,2657.719482,
92.474213,32.544044,33.737488,6.936919,0.1696,6.936919,0.1696,30.000143,30.0,140.905731,64.499687,997.386536,296.253967,279.067352,0.089946,0.016918,928.682495,-0.00203,0.138045,0.056708,0.0,1.0,2658.358887,
92.565262,37.443146,38.636593,6.97087,0.150065,6.97087,0.150065,40.000141,40.0,145.91748,64.838264,1006.920959,296.210022,279.087555,0.086391,0.007294,940.997314,-0.002423,0.138738,0.058157,0.0,1.0,2658.979004,
92.606018,40.741413,41.934856,6.991795,0.112198,6.991795,0.112198,40.000141,40.0,149.284042,65.058853,1012.677856,296.192169,279.10553,0.082529,0.003057,948.999817,-0.002318,0.139202,0.059665,0.0,1.0,2659.362305,
92.665474,45.733311,46.926754,7.025418,0.040752,7.025418,0.040752,50.000141,50.0,154.368378,65.382225,1020.774597,296.201782,279.137634,0.077135,0.002922,960.57135,-0.001603,0.139836,0.061247,0.0,1.0,2659.894531,
92.702942,49.089401,50.282845,7.045533,0.00294,7.045533,0.00294,50.000141,50.0,157.779953,65.592865,1025.893799,296.234314,279.161835,0.075027,0.007168,967.983459,-9.16E-4,0.140295,0.061203,0.0,1.0,2660.226563,
92.754692,54.163349,55.356796,7.077392,-0.018862,7.077392,-0.018862,50.000141,50.0,162.928482,65.901512,1033.291382,296.305725,279.201569,0.075182,0.016884,978.638611,-4.2E-5,0.140911,0.05914,0.0,1.0,2660.696289,
92.786568,57.571251,58.764694,7.095747,-0.005114,7.095747,-0.005114,60.000141,60.0,166.381104,66.102432,1038.025513,296.350311,279.230103,0.077164,0.022561,985.4375,2.52E-4,0.141347,0.056808,0.0,1.0,2660.992432,
92.831985,62.718994,63.912437,7.122139,0.038241,7.122139,0.038241,60.000141,60.0,171.588669,66.396637,1044.748779,296.389465,279.275269,0.080604,0.026062,995.192627,7.3E-5,0.141915,0.05334,0.0,1.0,2661.415039,
92.862038,66.173615,67.367058,7.135393,0.06555,7.135393,0.06555,70.000145,70.0,175.078445,66.588051,1048.859131,296.388855,279.306427,0.082086,0.023805,1001.408447,-3.21E-4,0.142285,0.051779,0.0,1.0,2661.685303,
92.908348,71.387657,72.5811,7.153668,0.077596,7.153668,0.077596,70.000145,70.0,180.337173,66.868263,1054.37793,296.357147,279.353424,0.081183,0.0155,1010.30249,-9.36E-4,0.142708,0.051413,0.0,1.0,2662.078613,
92.940277,74.883781,76.077225,7.163507,0.057602,7.163507,0.057602,70.000145,70.0,183.857574,67.050583,1057.664917,296.329468,279.384094,0.078565,0.009102,1015.940247,-0.001129,0.142964,0.052335,0.0,1.0,2662.335449,
92.988968,80.155777,81.34922,7.179601,-0.004997,7.179601,-0.004997,80.000145,80.0,189.157684,67.317513,1062.208984,296.303894,279.427826,0.073121,0.002612,1023.948669,-8.23E-4,0.14327,0.054382,0.0,1.0,2662.715576,
93.020988,83.687706,84.881149,7.190376,-0.053889,7.190376,-0.053889,80.000145,80.0,192.703476,67.491196,1065.122681,296.309143,279.454895,0.069675,0.002244,1028.987915,-2.69E-4,0.143486,0.055428,0.0,1.0,2662.966064,
93.066505,89.009605,90.203049,7.209445,-0.11103,7.209445,-0.11103,90.000145,90.0,198.040359,67.745438,1069.539551,296.350433,279.491913,0.066947,0.007274,1036.112915,7.7E-4,0.143808,0.055399,0.0,1.0,2663.335449,
93.094559,92.572701,93.766151,7.221824,-0.124083,7.221824,-0.124083,90.000145,90.0,201.610718,67.910789,1072.539917,296.390198,279.51416,0.067155,0.01259,1040.594849,0.001377,0.144062,0.054202,0.0,1.0,2663.576416,
93.133369,97.939056,99.132507,7.240972,-0.108122,7.240972,-0.108122,100.000145,100.0,206.985077,68.152664,1077.086426,296.444366,279.543884,0.069624,0.019335,1046.962891,0.001773,0.144436,0.051346,0.0,1.0,2663.928223,
93.157837,101.530647,102.724098,7.252505,-0.082082,7.252505,-0.082082,100.000145,100.0,210.580551,68.309845,1080.075317,296.463776,279.561279,0.071697,0.02089,1051.000854,0.001545,0.144819,0.048637,0.0,1.0,2664.15625,
93.194374,106.938377,108.131821,7.264433,-0.046982,7.264433,-0.046982,110.000145,110.0,215.99176,68.539642,1084.178955,296.456909,279.583435,0.073487,0.017173,1056.789063,0.001173,0.14505,0.047667,0.0,1.0,2664.490234,
93.21949,110.556564,111.750008,7.271637,-0.03998,7.271637,-0.03998,110.000145,110.0,219.609924,68.688934,1086.593018,296.433655,279.595276,0.072808,0.011757,1060.480347,6.71E-4,0.145289,0.04801,0.0,1.0,2664.709229,
93.258575,116.002251,117.195694,7.280941,-0.066956,7.280941,-0.066956,120.000145,120.0,225.051514,68.907211,1089.881226,296.393585,279.607941,0.069219,0.003143,1065.7677,5.71E-4,0.145433,0.049173,0.0,1.0,2665.0354,
93.285103,119.644249,120.837692,7.288047,-0.104242,7.288047,-0.104242,120.000145,120.0,228.688019,69.049049,1091.93457,296.376892,279.612701,0.065959,-6.53E-4,1069.124268,9.57E-4,0.145619,0.051176,0.0,1.0,2665.251953,
93.324059,125.123398,126.316841,7.299513,-0.165616,7.299513,-0.165616,120.000145,120.0,234.155579,69.256424,1095.002197,296.383484,279.614105,0.061613,-7.51E-4,1073.908203,0.001489,0.145761,0.052011,0.0,1.0,2665.575195,
93.348495,128.786392,129.979843,7.309062,-0.196464,7.309062,-0.196464,130.000137,130.0,237.809235,69.391144,1097.126221,296.408356,279.611389,0.060262,0.002595,1076.938232,0.002366,0.14599,0.051681,0.0,1.0,2665.788574,
93.381897,134.295609,135.489059,7.323258,-0.206935,7.323258,-0.206935,130.000137,130.0,243.303436,69.587982,1100.473267,296.459381,279.602356,0.060921,0.009776,1081.271362,0.002807,0.146181,0.050438,0.0,1.0,2666.103027,
93.402161,137.978058,139.171494,7.333146,-0.192287,7.333146,-0.192287,140.000137,140.0,246.975632,69.715744,1102.761719,296.489777,279.593414,0.062682,0.013772,1084.039551,0.002956,0.146465,0.047887,0.0,1.0,2666.307861,
93.430939,143.515976,144.709427,7.34451,-0.152786,7.34451,-0.152786,140.000137,140.0,252.498169,69.902267,1106.105347,296.505798,279.576233,0.065691,0.015113,1088.045532,0.002747,0.146663,0.046367,0.0,1.0,2666.607666,
93.45005,147.2173,148.410751,7.351031,-0.129308,7.351031,-0.129308,150.000137,150.0,256.188782,70.023254,1108.153198,296.501556,279.562378,0.066637,0.012571,1090.632568,0.002183,0.14689,0.045566,0.0,1.0,2666.803467,
93.479759,152.782913,153.976364,7.358016,-0.121314,7.358016,-0.121314,150.000137,150.0,261.736816,70.199829,1110.904541,296.484039,279.538055,0.065738,0.005383,1094.395142,0.001847,0.147021,0.045778,0.0,1.0,2667.093506,
93.500435,156.502029,157.695465,7.362663,-0.136891,7.362663,-0.136891,160.000137,160.0,265.442688,70.314362,1112.536499,296.470581,279.51944,0.063719,2.62E-4,1096.821411,0.001733,0.14716,0.046654,0.0,1.0,2667.286133,
93.532021,162.092926,163.286377,7.369772,-0.183874,7.369772,-0.183874,160.000137,160.0,271.011353,70.481544,1114.849854,296.45752,279.487885,0.059736,-0.004711,1100.32605,0.001956,0.147253,0.047327,0.0,1.0,2667.574463,
93.552788,165.827927,167.021362,7.375815,-0.220493,7.375815,-0.220493,170.000137,170.0,274.730194,70.589989,1116.389648,296.456635,279.4646,0.057411,-0.005325,1102.568481,0.002627,0.147395,0.04798,0.0,1.0,2667.766357,
93.58226,171.441376,172.634827,7.385657,-0.260615,7.385657,-0.260615,170.000137,170.0,280.318298,70.748222,1118.804321,296.466736,279.426819,0.055426,-0.002311,1105.794067,0.00315,0.147516,0.048024,0.0,1.0,2668.052246,
93.600296,175.190796,176.384232,7.393364,-0.271773,7.393364,-0.271773,170.000137,170.0,284.050568,70.8508,1120.505249,296.47821,279.400177,0.055404,0.001204,1107.860962,0.003723,0.147713,0.047519,0.0,1.0,2668.240479,
93.624893,180.825394,182.018845,7.403803,-0.260822,7.403803,-0.260822,180.000137,180.0,289.659882,71.000336,1123.133789,296.495026,279.358826,0.056867,0.006197,1110.8573,0.003882,0.147867,0.046945,0.0,1.0,2668.517578,
93.640053,184.588776,185.782211,7.410679,-0.241354,7.410679,-0.241354,180.000137,180.0,293.406677,71.097168,1124.870361,296.502502,279.330811,0.058222,0.008137,1112.798584,0.003726,0.148076,0.046104,0.0,1.0,2668.698486,
93.661873,190.244202,191.437653,7.418523,-0.209606,7.418523,-0.209606,190.000137,190.0,299.037506,71.238205,1127.348267,296.504852,279.288605,0.059844,0.007904,1115.6427,0.003448,0.148214,0.045731,0.0,1.0,2668.964355,
93.676353,194.021317,195.214767,7.423299,-0.194441,7.423299,-0.194441,190.000137,190.0,302.797974,71.329475,1128.859497,296.501221,279.26059,0.060134,0.005973,1117.497559,0.002994,0.14837,0.045613,0.0,1.0,2669.138916,
93.698479,199.696869,200.89032,7.429045,-0.191088,7.429045,-0.191088,200.000137,200.0,308.447723,71.462357,1130.934814,296.492096,279.218903,0.059291,0.001869,1120.21521,0.002778,0.148466,0.045795,0.0,1.0,2669.397949,
93.71347,203.486893,204.680344,7.433128,-0.200687,7.433128,-0.200687,200.000137,200.0,312.219727,71.548332,1132.210693,296.48645,279.191437,0.058109,-6.0E-4,1121.979248,0.00273,0.148581,0.046251,0.0,1.0,2669.569336,
93.73584,209.180923,210.374359,7.439243,-0.225422,7.439243,-0.225422,210.000137,210.0,317.88559,71.673477,1134.060547,296.482849,279.15094,0.056115,-0.002447,1124.544556,0.002867,0.148663,0.046533,0.0,1.0,2669.825439,
93.75032,212.982651,214.176086,7.444136,-0.242578,7.444136,-0.242578,210.000137,210.0,321.667908,71.75441,1135.293091,296.484467,279.124634,0.055131,-0.002197,1126.198242,0.00322,0.148785,0.046713,0.0,1.0,2669.995117,
93.770721,218.693436,219.886887,7.451481,-0.25791,7.451481,-0.25791,220.000137,220.0,327.349243,71.872139,1137.185791,296.491791,279.086578,0.054565,-6.0E-5,1128.595581,0.003465,0.148883,0.046632,0.0,1.0,2670.247559,
93.783287,222.505966,223.699402,7.456922,-0.259327,7.456922,-0.259327,220.000137,220.0,331.14209,71.948204,1138.474854,296.498169,279.062469,0.054831,0.00184,1130.142334,0.003684,0.14903,0.046266,0.0,1.0,2670.413574,
93.800758,228.23259,229.426041,7.464015,-0.248639,7.464015,-0.248639,230.000137,230.0,336.839478,72.058746,1140.408936,296.506287,279.028595,0.055838,0.004073,1132.39563,0.003705,0.149138,0.045947,0.0,1.0,2670.658691,
93.811729,232.055496,233.248932,7.468664,-0.236955,7.468664,-0.236955,230.000137,230.0,340.643005,72.130096,1141.658081,296.50943,279.007721,0.056552,0.004652,1133.858765,0.003552,0.14928,0.045541,0.0,1.0,2670.81958,
93.827721,237.797424,238.990875,7.474144,-0.221389,7.474144,-0.221389,240.000137,240.0,346.355957,72.233673,1143.430664,296.509888,278.979279,0.057227,0.003891,1136.000732,0.003385,0.149373,0.045384,0.0,1.0,2671.057617,
93.838348,241.63031,242.823746,7.47766,-0.215633,7.47766,-0.215633,240.000137,240.0,350.169281,72.300468,1144.522095,296.508026,278.96225,0.057213,0.002604,1137.393921,0.003163,0.149483,0.045361,0.0,1.0,2671.214355,
93.85434,247.386703,248.580154,7.482136,-0.217595,7.482136,-0.217595,250.000137,250.0,355.895905,72.397377,1146.050171,296.504364,278.939545,0.056563,3.73E-4,1139.428833,0.00308,0.149553,0.045454,0.0,1.0,2671.44751,
Command: turn_+45
93.86499,251.228821,252.422272,7.485376,-0.224547,7.485376,-0.224547,250.000137,250.0,359.717743,72.459839,1147.010742,296.502594,278.92627,0.055887,-7.89E-4,1140.745972,0.003109,0.149643,0.045637,0.0,1.0,2671.602051,
93.878632,256.998444,258.191864,7.491533,-0.262573,7.491533,-0.262573,260.000153,260.0,365.456451,72.550385,1148.42334,296.527069,278.909241,0.042558,0.009528,1142.658569,0.001069,0.149708,0.1,0.0,1.0,2671.832031,
93.879013,260.848938,262.042389,7.504081,-0.278301,7.504081,-0.278301,260.000153,260.0,369.286407,72.608604,1149.588013,296.608276,278.900299,0.040697,0.04007,1143.891724,0.00125,0.149831,0.1,0.0,1.0,2671.97876,
93.856651,266.631134,267.824554,7.535733,-0.126125,7.535733,-0.126125,270.000153,270.0,375.041656,72.692467,1152.725952,296.787628,278.893677,0.057094,0.104043,1145.704346,0.001325,0.150082,0.1,0.0,1.0,2672.170898,
93.82666,270.490997,271.684448,7.557733,0.114188,7.557733,0.114188,270.000153,270.0,378.889191,72.745827,1155.797241,296.910431,278.895966,0.07714,0.145131,1146.935913,6.01E-4,0.150715,0.1,0.0,1.0,2672.270264,
93.769455,276.290894,277.484344,7.572058,0.626619,7.572058,0.626619,280.000153,280.0,384.680756,72.821693,1160.556274,297.053558,278.912598,0.111622,0.186967,1148.930908,-5.44E-4,0.151155,0.1,0.0,1.0,2672.372803,
93.730949,280.165436,281.358887,7.572328,1.014929,7.572328,1.014929,280.000153,280.0,388.553711,72.869392,1163.011597,297.108826,278.93335,0.131926,0.197412,1150.400513,-0.002984,0.151441,0.1,0.0,1.0,2672.41626,
93.681923,285.989746,287.183197,7.56382,1.549577,7.56382,1.549577,290.000153,290.0,394.375122,72.936729,1165.137939,297.134979,278.978668,0.151878,0.189266,1152.795166,-0.004833,0.151447,0.1,0.0,1.0,2672.462646,
93.656944,289.880341,291.073792,7.556468,1.835706,7.556468,1.835706,290.000153,290.0,398.259674,72.978966,1165.449829,297.127594,279.017395,0.156674,0.173955,1154.461548,-0.007379,0.151276,0.1,0.0,1.0,2672.491455,
93.629936,295.725433,296.918854,7.547574,2.1153,7.547574,2.1153,300.000153,300.0,404.085541,73.038689,1164.724243,297.109375,279.085846,0.152953,0.148505,1156.923218,-0.008741,0.151129,0.1,0.0,1.0,2672.543457,
93.617081,299.626434,300.819885,7.54154,2.21585,7.54154,2.21585,300.000153,300.0,407.966339,73.076309,1163.731689,297.10849,279.137085,0.145917,0.136534,1158.454102,-0.010073,0.150951,0.1,0.0,1.0,2672.587158,
93.601631,305.481293,306.674744,7.533574,2.279449,7.533574,2.279449,300.000153,300.0,413.780426,73.129738,1161.945679,297.141205,279.220978,0.134151,0.13248,1160.468384,-0.010552,0.150831,0.1,0.0,1.0,2672.666504,
93.591423,309.385132,310.578583,7.528582,2.301221,7.528582,2.301221,310.000153,310.0,417.651611,73.163467,1160.825806,297.18808,279.281433,0.128316,0.139669,1161.580811,-0.010855,0.150671,0.1,0.0,1.0,2672.72583,
93.572647,315.239777,316.433228,7.523924,2.355232,7.523924,2.355232,310.000153,310.0,423.452301,73.211319,1159.589478,297.288391,279.379669,0.125255,0.161465,1162.88208,-0.010958,0.150572,0.1,0.0,1.0,2672.818115,
93.556694,319.141479,320.3349,7.521746,2.424965,7.521746,2.424965,320.000153,320.0,427.316772,73.241371,1159.154541,297.36673,279.451019,0.127171,0.179509,1163.519531,-0.011215,0.150478,0.1,0.0,1.0,2672.877686,
93.528046,324.991486,326.184937,7.519312,2.585557,7.519312,2.585557,320.000153,320.0,433.111847,73.283646,1158.951172,297.485565,279.568298,0.134309,0.205024,1164.190308,-0.011547,0.150435,0.1,0.0,1.0,2672.958984,
93.507179,328.889984,330.083405,7.517082,2.721953,7.517082,2.721953,330.000153,330.0,436.975037,73.309937,1158.959106,297.558441,279.653992,0.140251,0.218069,1164.489502,-0.012312,0.150386,0.1,0.0,1.0,2673.00708,
93.476196,334.735687,335.929138,7.512585,2.938251,7.512585,2.938251,330.000153,330.0,442.769684,73.346558,1158.850586,297.652344,279.794464,0.148213,0.229444,1164.78125,-0.012962,0.150342,0.1,0.0,1.0,2673.072266,
93.457161,338.631592,339.825043,7.508563,3.075058,7.508563,3.075058,340.000153,340.0,446.63205,73.369133,1158.552979,297.705017,279.896027,0.151681,0.23207,1164.89563,-0.013992,0.150252,0.1,0.0,1.0,2673.113281,
93.432312,344.473389,345.66684,7.502163,3.241984,7.502163,3.241984,340.000153,340.0,452.422791,73.400391,1157.681274,297.774719,280.059662,0.153416,0.231299,1164.962769,-0.014643,0.150171,0.1,0.0,1.0,2673.176514,
93.418213,348.366211,349.559631,7.497138,3.32489,7.497138,3.32489,350.000153,350.0,456.280334,73.419586,1156.837036,297.81958,280.175842,0.152506,0.229863,1164.93457,-0.015438,0.150043,0.1,0.0,1.0,2673.221436,
93.399956,354.202026,355.395477,7.489785,3.407108,7.489785,3.407108,350.000153,350.0,462.060699,73.446083,1155.311401,297.89151,280.359924,0.149346,0.229488,1164.766113,-0.015833,0.149943,0.1,0.0,1.0,2673.294922,
93.388954,358.089783,359.283234,7.484364,3.443479,7.484364,3.443479,360.000153,360.0,465.909851,73.462303,1154.225464,297.945221,280.4888,0.146971,0.231611,1164.559692,-0.016224,0.149796,0.1,0.0,1.0,2673.3479,
93.372864,363.916443,365.109894,7.477161,3.486262,7.477161,3.486262,360.000153,360.0,471.67688,73.484573,1152.660889,298.035553,280.691071,0.144356,0.238674,1164.100952,-0.016398,0.149687,0.1,0.0,1.0,2673.432129,
93.361794,367.797241,368.990692,7.472304,3.516852,7.472304,3.516852,370.000153,370.0,475.517487,73.498093,1151.736328,298.101105,280.831787,0.1437,0.245374,1163.698486,-0.016601,0.149543,0.1,0.0,1.0,2673.490234,
93.344101,373.612701,374.806152,7.466333,3.574742,7.466333,3.574742,370.000153,370.0,481.273041,73.516434,1150.564331,298.203735,281.051758,0.144443,0.256571,1162.968628,-0.016747,0.149446,0.1,0.0,1.0,2673.577881,
93.331673,377.48584,378.679291,7.462378,3.623261,7.462378,3.623261,380.000153,380.0,485.107117,73.527397,1149.917725,298.272491,281.204285,0.145799,0.26367,1162.414307,-0.017023,0.149327,0.1,0.0,1.0,2673.635986,
93.312637,383.290009,384.483429,7.457266,3.705517,7.457266,3.705517,380.000153,380.0,490.854462,73.541977,1149.05481,298.372925,281.441833,0.14835,0.272302,1161.512573,-0.017254,0.149248,0.1,0.0,1.0,2673.722168,
93.300148,387.155884,388.349335,7.453635,3.762888,7.453635,3.762888,390.000153,390.0,494.683685,73.550476,1148.499878,298.437073,281.605774,0.149906,0.276357,1160.881226,-0.017645,0.149145,0.1,0.0,1.0,2673.779297,
93.282379,392.949646,394.143097,7.448565,3.842376,7.448565,3.842376,390.000153,390.0,500.42395,73.561493,1147.608032,298.529175,281.859528,0.151464,0.280061,1159.909912,-0.017919,0.149073,0.1,0.0,1.0,2673.865234,
93.271461,396.808838,398.002289,7.444804,3.888308,7.444804,3.888308,400.000153,400.0,504.248199,73.567711,1146.953369,298.588593,282.033478,0.151836,0.281445,1159.25293,-0.018297,0.148971,0.1,0.0,1.0,2673.923584,
93.256409,402.592682,403.786133,7.439455,3.942189,7.439455,3.942189,400.000153,400.0,509.980225,73.57547,1145.878052,298.676788,282.300751,0.151524,0.282924,1158.25647,-0.018516,0.148896,0.1,0.0,1.0,2674.013672,
93.242134,406.44519,407.638641,7.435516,3.969619,7.435516,3.969619,410.000153,410.0,513.798523,73.579636,1145.106934,298.736053,282.482697,0.1509,0.284095,1157.583984,-0.018772,0.148789,0.1,0.0,1.0,2674.074951,
93.193169,412.21875,413.412201,7.430319,3.994247,7.430319,3.994247,410.000153,410.0,519.519958,73.584496,1143.421387,298.827881,282.760529,0.148374,0.287179,1156.554565,-0.018903,0.14871,0.1,0.0,1.0,2674.139404,
93.161842,416.063934,417.257355,7.425814,3.999423,7.425814,3.999423,420.000153,420.0,523.329041,73.586876,1142.073608,298.892883,282.948639,0.146291,0.290875,1155.839233,-0.01902,0.148606,0.1,0.0,1.0,2674.165283,
93.116028,421.825104,423.018524,7.417323,4.000487,7.417323,4.000487,420.000153,420.0,529.033752,73.589272,1139.838379,298.996948,283.234985,0.143894,0.299201,1154.691895,-0.019045,0.148516,0.1,0.0,1.0,2674.188232,
93.085869,425.66098,426.854431,7.410383,4.004073,7.410383,4.004073,430.000153,430.0,532.830505,73.590118,1138.25061,299.069946,283.428589,0.143213,0.306153,1153.862427,-0.01905,0.148346,0.1,0.0,1.0,2674.196289,
93.040871,431.406708,432.600159,7.400775,4.021946,7.400775,4.021946,430.000153,430.0,538.515564,73.590324,1135.85498,299.182129,283.723267,0.143671,0.317236,1152.50293,-0.019067,0.148208,0.1,0.0,1.0,2674.200439,
93.011086,435.231384,436.424835,7.393934,4.043415,7.393934,4.043415,430.000153,430.0,542.299011,73.589775,1134.290649,299.256805,283.922638,0.144733,0.32411,1151.516113,-0.019152,0.148015,0.1,0.0,1.0,2674.199463,
92.967201,440.95929,442.15274,7.384481,4.086082,7.384481,4.086082,440.000153,440.0,547.964478,73.587952,1131.960693,299.366119,284.226166,0.146802,0.332447,1149.918457,-0.019254,0.147879,0.1,0.0,1.0,2674.194336,
92.938858,444.771606,445.965027,7.377491,4.117847,7.377491,4.117847,440.000153,440.0,551.734985,73.586105,1130.387695,299.436432,284.431427,0.148085,0.336369,1148.780396,-0.019458,0.14769,0.1,0.0,1.0,2674.189941,
92.898277,450.480316,451.673767,7.367553,4.162045,7.367553,4.162045,450.000153,450.0,557.380615,73.582443,1127.932983,299.537994,284.743347,0.149363,0.339973,1146.9729,-0.019609,0.14755,0.1,0.0,1.0,2674.183594,
92.872704,454.27948,455.472931,7.360182,4.186384,7.360182,4.186384,450.000153,450.0,561.137512,73.579445,1126.227783,299.603699,284.953766,0.149651,0.341271,1145.704346,-0.019819,0.147351,0.1,0.0,1.0,2674.180908,
92.836647,459.967834,461.161285,7.349771,4.211582,7.349771,4.211582,460.000153,460.0,566.761841,73.574211,1123.576416,299.700836,285.272614,0.149319,0.342494,1143.709717,-0.019935,0.147204,0.1,0.0,1.0,2674.18042,
92.813995,463.752991,464.946442,7.342126,4.221634,7.342126,4.221634,460.000153,460.0,570.503967,73.570267,1121.777588,299.765472,285.487061,0.148763,0.343329,1142.319946,-0.020055,0.146995,0.1,0.0,1.0,2674.183105,
92.781738,469.419708,470.613159,7.331566,4.229231,7.331566,4.229231,470.000153,470.0,576.105896,73.563751,1119.080811,299.863281,285.811157,0.147809,0.345183,1140.148315,-0.020103,0.146843,0.1,0.0,1.0,2674.192383,
92.761131,473.190063,474.383514,7.324016,4.231994,7.324016,4.231994,470.000153,470.0,579.83313,73.559044,1117.323608,299.92923,286.028656,0.147297,0.346907,1138.646606,-0.020139,0.146631,0.1,0.0,1.0,2674.201416,
92.731247,478.834259,480.02771,7.313925,4.236573,7.313925,4.236573,480.000153,480.0,585.413147,73.551476,1114.781006,300.028992,286.356812,0.14692,0.350061,1136.323853,-0.020152,0.14648,0.1,0.0,1.0,2674.219727,
92.711906,482.589478,483.782928,7.30687,4.241492,7.30687,4.241492,480.000153,480.0,589.126282,73.546127,1113.169067,300.095612,286.576752,0.146956,0.352288,1134.737183,-0.020174,0.146279,0.1,0.0,1.0,2674.234375,
92.683708,488.21109,489.404541,7.297562,4.252438,7.297562,4.252438,490.000153,490.0,594.686096,73.537682,1110.860718,300.194946,286.908234,0.147339,0.355379,1132.318115,-0.020198,0.146137,0.1,0.0,1.0,2674.26001,
92.665512,491.951447,493.144897,7.291066,4.261687,7.291066,4.261687,490.000153,490.0,598.386414,73.531784,1109.394287,300.260315,287.130157,0.147701,0.35705,1130.690063,-0.02025,0.145951,0.1,0.0,1.0,2674.279297,
92.639214,497.551178,498.744629,7.282428,4.276412,7.282428,4.276412,500.000153,500.0,603.927856,73.522591,1107.265015,300.356812,287.464172,0.148209,0.358823,1128.243164,-0.020294,0.145821,0.1,0.0,1.0,2674.311768,
92.622429,501.277313,502.470764,7.276339,4.285704,7.276339,4.285704,500.000153,500.0,607.616394,73.516251,1105.888184,300.420013,287.687408,0.148434,0.359527,1126.61731,-0.020364,0.145649,0.1,0.0,1.0,2674.335693,
92.598412,506.856201,508.049652,7.268147,4.296889,7.268147,4.296889,510.000153,510.0,613.140564,73.50647,1103.861328,300.513428,288.022827,0.148534,0.36007,1124.19873,-0.020408,0.145527,0.1,0.0,1.0,2674.375488,
92.583183,510.568756,511.762207,7.262339,4.302186,7.262339,4.302186,510.000153,510.0,616.81781,73.499786,1102.54126,300.575012,288.246582,0.148451,0.360239,1122.604614,-0.020461,0.145363,0.1,0.0,1.0,2674.404785,
92.561432,516.127808,517.321228,7.254525,4.306811,7.254525,4.306811,520.000122,520.0,622.3255,73.487419,1100.604126,300.666687,288.582214,0.148184,0.360466,1120.247192,-0.020487,0.145247,0.1,0.0,1.0,2674.452637,
92.547615,519.827393,521.020874,7.249012,4.308266,7.249012,4.308266,520.000122,520.0,625.992004,73.478775,1099.355347,300.727539,288.805756,0.147972,0.360691,1118.700684,-0.020509,0.145091,0.1,0.0,1.0,2674.487061,
92.527733,525.367432,526.560913,7.241672,4.30915,7.241672,4.30915,520.000122,520.0,631.484131,73.465775,1097.548584,300.818451,289.140594,0.147701,0.361218,1116.422729,-0.020516,0.14498,0.1,0.0,1.0,2674.54248,
92.514977,529.054749,530.248169,7.236546,4.309581,7.236546,4.309581,530.000122,530.0,635.140625,73.4571,1096.401001,300.878815,289.363373,0.147591,0.361662,1114.934204,-0.02052,0.144833,0.1,0.0,1.0,2674.581787,
92.496506,534.576782,535.770264,7.229789,4.310839,7.229789,4.310839,530.000122,530.0,640.618347,73.444092,1094.758301,300.968811,289.696716,0.14755,0.362375,1112.750732,-0.020522,0.144731,0.1,0.0,1.0,2674.644043,
92.484619,538.252441,539.445923,7.225093,4.312271,7.225093,4.312271,540.000122,540.0,644.265747,73.43544,1093.721191,301.02832,289.918365,0.147592,0.362795,1111.330811,-0.020528,0.144596,0.1,0.0,1.0,2674.687744,
92.467415,543.75769,544.951111,7.218907,4.315148,7.218907,4.315148,540.000122,540.0,649.730469,73.422516,1092.234985,301.116669,290.249786,0.147706,0.363251,1109.258301,-0.020535,0.144502,0.1,0.0,1.0,2674.756104,
92.45639,547.422485,548.615967,7.214597,4.317276,7.214597,4.317276,550.000122,550.0,653.369629,73.413948,1091.291504,301.174896,290.470001,0.147783,0.363396,1107.917114,-0.020548,0.144378,0.1,0.0,1.0,2674.803467,
92.440559,552.912048,554.10553,7.208887,4.320131,7.208887,4.320131,550.000122,550.0,658.82251,73.401192,1089.929321,301.26123,290.799133,0.147852,0.363395,1105.968384,-0.020558,0.144292,0.1,0.0,1.0,2674.877441,
92.430458,556.566833,557.760315,7.204888,4.321535,7.204888,4.321535,560.000122,560.0,662.454102,73.392754,1089.058472,301.318115,291.0177,0.147853,0.363271,1104.712036,-0.020572,0.144178,0.1,0.0,1.0,2674.928467,
92.415863,562.040955,563.234375,7.199567,4.322649,7.199567,4.322649,560.000122,560.0,667.896118,73.380234,1087.79541,301.402588,291.344177,0.147811,0.362984,1102.854858,-0.020579,0.144098,0.1,0.0,1.0,2675.007813,
92.406662,565.686584,566.880005,7.195835,4.322672,7.195835,4.322672,570.000122,570.0,671.520752,73.371979,1086.988892,301.458374,291.560913,0.147732,0.362765,1101.699585,-0.020584,0.143991,0.1,0.0,1.0,2675.062744,
92.393433,571.148315,572.341736,7.190887,4.321913,7.190887,4.321913,570.000122,570.0,676.952637,73.359772,1085.825317,301.541382,291.884583,0.147603,0.362464,1100.021973,-0.020584,0.143917,0.1,0.0,1.0,2675.147705,
92.384987,574.785156,575.978577,7.187437,4.321095,7.187437,4.321095,570.000122,570.0,680.570801,73.351746,1085.087158,301.596252,292.099426,0.147526,0.362287,1098.940918,-0.020581,0.143818,0.1,0.0,1.0,2675.206055,
92.372833,580.234253,581.427734,7.182879,4.319802,7.182879,4.319802,580.000122,580.0,685.993469,73.339905,1084.030273,301.677948,292.420319,0.147443,0.362059,1097.376221,-0.020577,0.143749,0.1,0.0,1.0,2675.295898,
92.365051,583.863037,585.056458,7.17971,4.319014,7.17971,4.319014,580.000122,580.0,689.605713,73.332153,1083.363647,301.731903,292.633392,0.147412,0.361906,1096.371094,-0.02057,0.143658,0.1,0.0,1.0,2675.357422,
92.353821,589.300476,590.493896,7.175539,4.3181,7.175539,4.3181,590.000122,590.0,695.020081,73.320732,1082.412231,301.812134,292.951691,0.147397,0.361652,1094.92041,-0.020567,0.143594,0.1,0.0,1.0,2675.45166,
92.346626,592.921753,594.115234,7.172642,4.31763,7.172642,4.31763,590.000122,590.0,698.627075,73.313271,1081.812988,301.865082,293.163116,0.1474,0.361439,1093.991089,-0.020562,0.143511,0.1,0.0,1.0,2675.515869,
92.336266,598.34845,599.541931,7.168821,4.317038,7.168821,4.317038,600.000122,600.0,704.033936,73.302322,1080.955933,301.943695,293.479156,0.147407,0.361049,1092.653687,-0.02056,0.143453,0.1,0.0,1.0,2675.614258,
92.329643,601.962891,603.156311,7.166162,4.316601,7.166162,4.316601,600.000122,600.0,707.636169,73.295181,1080.414185,301.995544,293.689148,0.147405,0.360734,1091.799072,-0.020557,0.143376,0.1,0.0,1.0,2675.681152,
92.320175,607.3797,608.573181,7.162647,4.315756,7.162647,4.315756,610.000122,610.0,713.036194,73.284729,1079.637695,302.07254,294.003265,0.147383,0.360203,1090.571777,-0.020555,0.143323,0.1,0.0,1.0,2675.783447,
92.322472,610.835693,612.029114,7.160292,4.315021,7.160292,4.315021,610.000122,610.0,716.484253,73.278221,1079.167236,302.121216,294.2034,0.147354,0.359835,1089.711304,-0.020551,0.143253,0.1,0.0,1.0,2675.850098,
92.305412,616.394653,617.588135,7.156936,4.313584,7.156936,4.313584,620.000122,620.0,722.028015,73.268028,1078.441284,302.198792,294.524658,0.147305,0.359224,1088.630005,-0.020548,0.143206,0.1,0.0,1.0,2675.95874,
92.299942,619.997131,621.190613,7.154651,4.312432,7.154651,4.312432,620.000122,620.0,725.62207,73.261604,1077.995239,302.248627,294.732605,0.147259,0.358825,1087.929688,-0.020541,0.143139,0.1,0.0,1.0,2676.030762,
