airspeed_indicator_indicated_speed_kt,altimeter_indicated_altitude_ft,altimeter_pressure_alt_ft,attitude_indicator_indicated_pitch_deg,attitude_indicator_indicated_roll_deg,attitude_indicator_internal_pitch_deg,attitude_indicator_internal_roll_deg,encoder_indicated_altitude_ft,encoder_pressure_alt_ft,gps_indicated_altitude_ft,gps_indicated_ground_speed_kt,gps_indicated_vertical_speed,indicated_heading_deg,magnetic_compass_indicated_heading_deg,slip_skid_ball_indicated_slip_skid,turn_indicator_indicated_turn_rate,vertical_speed_indicator_indicated_speed_fpm,flight_aileron,flight_elevator,flight_rudder,flight_flaps,engine_throttle,engine_rpm
24.96118,-193.805786,-192.61235,3.051427,1.363597,2.697136,0.182628,-189.999863,-190.0,18.855429,3.39E-4,0.001541,297.868195,15.704968,-0.046938,-0.04954,-1665.791626,-0.0,0.0,0.0,0.0,0.0,601.95343
24.910698,-200.883423,-199.689972,3.0154,1.245853,2.696473,0.182762,-199.999863,-200.0,18.855434,3.3E-4,-0.002881,297.867126,15.18491,-0.046964,-0.043523,-1670.892578,-0.019429,0.053944,0.0,0.0,1.0,608.836304
24.939867,-208.964569,-207.771133,2.795379,0.564333,2.680769,0.182297,-209.999863,-210.0,18.855371,3.83E-4,-0.021772,297.865753,14.574422,-0.047155,-0.037489,-1671.078613,-0.017798,0.053929,6.3E-5,0.0,1.0,721.982727
24.961882,-214.354065,-213.160629,2.677729,0.268417,2.651291,0.18029,-209.999863,-210.0,18.855263,5.19E-4,-0.045421,297.864685,14.168674,-0.047306,-0.03401,-1671.229004,-0.008062,0.053615,1.31E-4,0.0,1.0,851.625061
24.963642,-222.453949,-221.260513,2.596473,0.173397,2.596473,0.173397,-219.999863,-220.0,18.85511,0.001426,0.003785,297.862823,13.569481,-0.045247,-0.029525,-1671.950317,-0.003835,0.053026,1.85E-4,0.0,1.0,1086.852783
25.005817,-228.079681,-226.88623,2.585011,0.165799,2.585011,0.165799,-219.999863,-220.0,18.855253,0.003763,0.079118,297.861481,13.164367,-0.044409,-0.026858,-1672.366821,-0.002477,0.051929,2.78E-4,0.0,1.0,1258.159424
25.033594,-235.953293,-234.759842,2.596693,0.152198,2.596693,0.152198,-229.999863,-230.0,18.85594,0.011837,0.203355,297.859375,12.618683,-0.045174,-0.023673,-1672.741333,-0.002369,0.0517,3.45E-4,0.0,1.0,1485.34436
25.069778,-241.356842,-240.163391,2.612729,0.141867,2.612729,0.141867,-239.999863,-240.0,18.856792,0.022191,0.305451,297.857513,12.262455,-0.04915,-0.021818,-1673.088623,-0.002174,0.051934,4.5E-4,0.0,1.0,1624.082031
25.158916,-249.687805,-248.49437,2.639175,0.125605,2.639175,0.125605,-249.999863,-250.0,18.858826,0.048658,0.485425,297.851135,11.747606,-0.05712,-0.019938,-1673.512207,-0.002027,0.052255,5.43E-4,0.0,1.0,1803.858765
25.210598,-254.866928,-253.673477,2.654054,0.115657,2.654054,0.115657,-249.999863,-250.0,18.860603,0.072899,0.6243,297.843475,11.451239,-0.064026,-0.01946,-1673.726196,-0.001794,0.052784,8.62E-4,0.0,1.0,1894.384521
25.347088,-263.201355,-262.007904,2.672739,0.101657,2.672739,0.101657,-259.999847,-260.0,18.86441,0.12654,0.86172,297.823486,11.016732,-0.061551,-0.020012,-1674.055054,-0.001652,0.053081,0.001245,0.0,1.0,2008.934814
25.43852,-268.38031,-267.18689,2.6815,0.094164,2.6815,0.094164,-259.999847,-260.0,18.867435,0.169867,1.026722,297.80542,10.774673,-0.056248,-0.02115,-1674.136719,-0.001452,0.053455,0.002245,0.0,1.0,2063.415039
23.284584,-276.073364,-274.879913,2.691168,0.084356,2.691168,0.084356,-269.999847,-270.0,18.873463,0.25683,1.314654,297.770264,10.432845,-0.049867,-0.023656,-1649.580688,-0.001345,0.05363,0.003148,0.0,1.0,2129.487061
21.394596,-279.97403,-278.780579,2.695552,0.079349,2.695552,0.079349,-279.999847,-280.0,18.878189,0.325078,1.514224,297.743683,10.243421,-0.046401,-0.025635,-1593.926514,-0.001205,0.053823,0.004906,0.0,1.0,2160.999512
19.054653,-284.533142,-283.339691,2.699989,0.073563,2.699989,0.073563,-279.999847,-280.0,18.886557,0.445377,1.825938,297.701782,10.007751,-0.042554,-0.028509,-1467.667603,-0.001134,0.053911,0.006235,0.0,1.0,2195.53833
17.854557,-286.801941,-285.60849,2.702085,0.070696,2.702085,0.070696,-279.999847,-280.0,18.892731,0.533608,2.033681,297.674194,9.887685,-0.040595,-0.030233,-1366.944214,-0.001051,0.054,0.00833,0.0,1.0,2211.364746
16.376101,-289.645325,-288.451874,2.704565,0.067051,2.704565,0.067051,-289.999847,-290.0,18.904062,0.694156,2.369914,297.633057,9.743875,-0.038166,-0.032104,-1181.354126,-0.00101,0.054042,0.009709,0.0,1.0,2229.248047
15.719376,-291.014923,-289.821472,2.705888,0.065208,2.705888,0.065208,-289.999847,-290.0,18.911991,0.805448,2.585194,297.610046,9.684536,-0.03689,-0.032709,-1055.175537,-9.58E-4,0.054091,0.011766,0.0,1.0,2236.751221
15.043814,-292.729553,-291.536102,2.707772,0.06261,2.707772,0.06261,-289.999847,-290.0,18.926188,1.002714,2.931208,297.581329,9.635777,-0.035007,-0.032228,-840.929504,-9.32E-4,0.054118,0.012917,0.0,1.0,2244.579102
14.834259,-293.554199,-292.360748,2.708964,0.06113,2.708964,0.06113,-289.999847,-290.0,18.935913,1.136491,3.148966,297.568848,9.633384,-0.033802,-0.031116,-703.913025,-8.94E-4,0.054155,0.014352,0.0,1.0,2247.437012
14.761705,-294.584473,-293.391022,2.710977,0.058879,2.710977,0.058879,-289.999847,-290.0,18.953011,1.369241,3.496923,297.559204,9.671992,-0.031728,-0.027889,-484.505432,-8.73E-4,0.054179,0.014976,0.0,1.0,2249.710938
14.853725,-295.078583,-293.885132,2.712673,0.057918,2.712673,0.057918,-289.999847,-290.0,18.964537,1.524594,3.710461,297.558868,9.720915,-0.030189,-0.025234,-354.616852,-8.41E-4,0.05422,0.015459,0.0,1.0,2250.057373
15.185973,-295.693512,-294.500092,2.719039,0.056247,2.719039,0.056247,-289.999847,-290.0,18.984718,1.79121,4.210256,297.565247,9.836655,-0.028054,-0.020416,-178.198273,-8.27E-4,0.054253,0.015476,0.0,1.0,2249.372803
15.497027,-295.99823,-294.804779,2.726564,0.049592,2.726564,0.049592,-289.999847,-290.0,18.999163,1.974879,4.444561,297.572449,9.934271,-0.027073,-0.017338,-107.659454,-8.04E-4,0.054381,0.015157,0.0,1.0,2248.694824
16.069979,-296.348907,-295.155457,2.73494,0.042655,2.73494,0.042655,-299.999847,-300.0,19.022591,2.265728,4.906304,297.584717,10.110718,-0.023865,-0.012968,-65.84317,-7.08E-4,0.054531,0.014796,0.0,1.0,2249.085449
16.488024,-296.519653,-295.326202,2.736724,0.042969,2.736724,0.042969,-299.999847,-300.0,19.038635,2.460942,5.129388,297.59201,10.240416,-0.02225,-0.010495,-52.173164,-6.09E-4,0.054699,0.014183,0.0,1.0,2249.915771
17.203739,-296.722626,-295.529205,2.739278,0.044308,2.739278,0.044308,-299.999847,-300.0,19.065187,2.780792,5.482269,297.599884,10.466183,-0.021031,-0.007638,-36.282764,-6.14E-4,0.054734,0.013818,0.0,1.0,2251.727539
17.734535,-296.826843,-295.633392,2.741643,0.045318,2.741643,0.045318,-299.999847,-300.0,19.084671,3.01293,5.730843,297.60202,10.636788,-0.020732,-0.006417,-27.934933,-6.33E-4,0.054786,0.013425,0.0,1.0,2253.199707
18.53425,-296.936127,-295.742706,2.745562,0.046897,2.745562,0.046897,-299.999847,-300.0,19.114239,3.361249,6.08761,297.599487,10.898057,-0.021003,-0.005748,-26.282782,-6.47E-4,0.054833,0.013318,0.0,1.0,2255.474609
19.084957,-296.987701,-295.79425,2.748445,0.047984,2.748445,0.047984,-299.999847,-300.0,19.134941,3.602449,6.325532,297.594299,11.079949,-0.021573,-0.0059,-16.759142,-6.7E-4,0.054911,0.013445,0.0,1.0,2257.04126
19.930393,-297.040314,-295.846863,2.75292,0.049611,2.75292,0.049611,-299.999847,-300.0,19.167488,3.977368,6.682098,297.582642,11.360104,-0.022829,-0.006691,-13.78169,-6.85E-4,0.054969,0.013704,0.0,1.0,2259.41626
20.503702,-297.062103,-295.868652,2.756096,0.050626,2.756096,0.050626,-299.999847,-300.0,19.190182,4.235856,6.921562,297.573181,11.549306,-0.023759,-0.007411,-12.42723,-7.09E-4,0.055058,0.014287,0.0,1.0,2261.001465
21.374163,-297.079163,-295.885712,2.760991,0.051925,2.760991,0.051925,-299.999847,-300.0,19.225718,4.636053,7.282314,297.55899,11.832716,-0.025107,-0.00834,-16.014713,-7.23E-4,0.055122,0.01476,0.0,1.0,2263.36792
21.935307,-297.082123,-295.888702,2.764313,0.052601,2.764313,0.052601,-299.999847,-300.0,19.249361,4.899382,7.511495,297.550812,12.011454,-0.025768,-0.008723,-17.387077,-7.42E-4,0.05522,0.015469,0.0,1.0,2264.870117
22.819098,-297.076843,-295.883392,2.769605,0.053321,2.769605,0.053321,-299.999847,-300.0,19.287838,5.323197,7.870305,297.541382,12.284108,-0.026302,-0.008713,7.75519,-7.51E-4,0.055286,0.015878,0.0,1.0,2267.205322
23.411129,-297.06781,-295.874359,2.77332,0.053655,2.77332,0.053655,-299.999847,-300.0,19.314484,5.61345,8.109533,297.53772,12.459188,-0.026258,-0.008295,14.936164,-7.62E-4,0.055392,0.01635,0.0,1.0,2268.751709
24.326923,-297.046875,-295.853424,2.779065,0.053921,2.779065,0.053921,-299.999847,-300.0,19.357122,6.07267,8.475445,297.536682,12.715563,-0.025632,-0.007016,14.039253,-7.67E-4,0.055466,0.016533,0.0,1.0,2271.121826
24.897398,-297.030243,-295.836792,2.782801,0.054052,2.782801,0.054052,-299.999847,-300.0,19.384577,6.365138,8.703821,297.538452,12.86524,-0.024926,-0.005944,16.038246,-7.7E-4,0.055581,0.016585,0.0,1.0,2272.587891
25.819477,-296.998993,-295.805542,2.760767,0.054449,2.760767,0.054449,-299.999847,-300.0,19.427046,6.846607,7.825186,297.544098,13.088163,-0.023578,-0.003983,12.342395,-7.72E-4,0.055656,0.016496,0.0,1.0,2274.938232
26.41971,-296.976776,-295.783325,2.762168,0.054691,2.762168,0.054691,-299.999847,-300.0,19.45355,7.166001,8.065085,297.548859,13.219852,-0.022643,-0.002709,13.652972,-7.78E-4,0.055215,0.016214,0.0,1.0,2276.459717
27.319702,-296.941132,-295.747681,2.771008,0.055401,2.771008,0.055401,-299.999847,-300.0,19.494722,7.655262,8.390366,297.554626,13.396832,-0.021546,-0.001256,18.678659,-7.81E-4,0.055243,0.015976,0.0,1.0,2278.738525
27.919485,-296.915955,-295.722504,2.776891,0.056104,2.776891,0.056104,-299.999847,-300.0,19.523102,7.988046,8.679235,297.55658,13.500456,-0.021162,-6.99E-4,18.829176,-7.91E-4,0.05542,0.015688,0.0,1.0,2280.255859
28.817076,-296.876068,-295.682617,2.7951,0.052715,2.7951,0.052715,-299.999847,-300.0,19.569012,8.496838,9.480261,297.555237,13.633533,-0.021526,-7.48E-4,22.269556,-8.01E-4,0.055538,0.01559,0.0,1.0,2282.530273
29.389984,-296.84906,-295.65564,2.799529,0.053603,2.799529,0.053603,-299.999847,-300.0,19.59963,8.82778,9.681103,297.551605,13.704267,-0.021864,-0.001135,18.421095,-7.53E-4,0.055902,0.015657,0.0,1.0,2283.982178
30.311195,-296.803497,-295.610046,2.804662,0.05553,2.804662,0.05553,-299.999847,-300.0,19.650255,9.369506,10.013485,297.541992,13.794357,-0.023184,-0.002257,21.200441,-7.66E-4,0.055991,0.015839,0.0,1.0,2286.317139
30.908516,-296.772583,-295.579132,2.802183,0.056906,2.802183,0.056906,-299.999847,-300.0,19.683733,9.726898,10.005613,297.533875,13.837119,-0.024421,-0.00318,19.345758,-7.93E-4,0.056093,0.016319,0.0,1.0,2287.831787
31.807442,-296.725098,-295.531647,2.789606,0.058729,2.789606,0.058729,-299.999847,-300.0,19.730003,10.271619,9.295598,297.521637,13.87828,-0.026239,-0.004395,19.681276,-8.13E-4,0.056044,0.016725,0.0,1.0,2290.105469
32.406033,-296.693146,-295.499695,2.794534,0.059706,2.794534,0.059706,-299.999847,-300.0,19.761368,10.640382,9.511146,297.513947,13.890656,-0.027336,-0.005035,19.882082,-8.39E-4,0.055792,0.017337,0.0,1.0,2291.623047
33.302555,-296.64444,-295.450989,2.803386,0.060752,2.803386,0.060752,-299.999847,-300.0,19.809711,11.201697,9.816295,297.504791,13.887447,-0.028417,-0.005504,20.246576,-8.53E-4,0.055891,0.017722,0.0,1.0,2293.900635
33.874405,-296.612823,-295.419373,2.808471,0.061231,2.808471,0.061231,-299.999847,-300.0,19.841381,11.565313,10.004006,297.500885,13.872323,-0.02869,-0.005461,15.357359,-8.68E-4,0.056068,0.018179,0.0,1.0,2295.356934
34.791325,-296.56073,-295.367279,2.82856,0.054312,2.82856,0.054312,-299.999847,-300.0,19.896355,12.158171,11.062583,297.498352,13.828074,-0.028506,-0.004991,21.2533,-8.75E-4,0.056169,0.018375,0.0,1.0,2297.700684
35.359962,-296.527252,-295.333801,2.833464,0.054137,2.833464,0.054137,-299.999847,-300.0,19.931997,12.53148,11.247515,297.498993,13.789194,-0.027498,-0.004289,16.699366,-7.76E-4,0.056571,0.018501,0.0,1.0,2299.157715
36.273903,-296.47171,-295.27829,2.839027,0.054193,2.839027,0.054193,-299.999847,-300.0,19.990597,13.139459,11.553869,297.502716,13.710263,-0.025685,-0.002875,22.615984,-7.73E-4,0.056669,0.018469,0.0,1.0,2301.502686
36.867023,-296.434692,-295.241241,2.823791,0.057332,2.823791,0.057332,-299.999847,-300.0,20.027313,13.538602,10.16844,297.506256,13.649405,-0.024536,-0.001819,22.982828,-7.74E-4,0.056781,0.018283,0.0,1.0,2303.024414
37.758297,-296.379089,-295.185669,2.824157,0.058509,2.824157,0.058509,-299.999847,-300.0,20.078943,14.144187,10.480991,297.511536,13.545778,-0.022941,-5.46E-4,22.91531,-8.19E-4,0.056476,0.018106,0.0,1.0,2305.309814
38.351028,-296.34201,-295.14856,2.830253,0.059125,2.830253,0.059125,-299.999847,-300.0,20.114223,14.552363,10.676207,297.513794,13.469647,-0.022125,-7.0E-6,22.971039,-8.36E-4,0.056483,0.017842,0.0,1.0,2306.834717
39.23719,-296.285919,-295.092468,2.85041,0.052642,2.85041,0.052642,-299.999847,-300.0,20.170376,15.171083,11.821939,297.513519,13.346993,-0.021913,-5.9E-5,23.328941,-8.45E-4,0.056605,0.017729,0.0,1.0,2309.123291
39.801369,-296.249268,-295.055817,2.856817,0.053401,2.856817,0.053401,-299.999847,-300.0,20.208418,15.570303,11.988516,297.510864,13.264541,-0.021803,-3.6E-4,18.757242,-7.52E-4,0.057008,0.017743,0.0,1.0,2310.585693
40.68338,-296.190613,-294.997162,2.862178,0.055352,2.862178,0.055352,-299.999847,-300.0,20.269054,16.201109,12.26171,297.503052,13.131058,-0.022658,-0.001322,21.521273,-7.63E-4,0.057136,0.017876,0.0,1.0,2312.875
41.270382,-296.150543,-294.957123,2.866112,0.056774,2.866112,0.056774,-289.999847,-290.0,20.310259,16.625557,12.451867,297.49585,13.040134,-0.023768,-0.002194,15.605947,-7.91E-4,0.057244,0.018266,0.0,1.0,2314.401611
42.175167,-296.087738,-294.894287,2.857582,0.058962,2.857582,0.058962,-289.999847,-290.0,20.37183,17.285847,11.556719,297.483612,12.898779,-0.025817,-0.003526,17.631151,-8.11E-4,0.057322,0.018626,0.0,1.0,2316.755371
42.735512,-296.048798,-294.855377,2.860425,0.060107,2.860425,0.060107,-289.999847,-290.0,20.409073,17.699833,11.749321,297.476227,12.811099,-0.027181,-0.004218,18.496126,-8.42E-4,0.057152,0.019238,0.0,1.0,2318.214111
43.610161,-295.988342,-294.794922,2.868839,0.061577,2.868839,0.061577,-289.999847,-290.0,20.468527,18.353056,12.037421,297.466736,12.675745,-0.028752,-0.004849,23.679356,-8.59E-4,0.057209,0.019608,0.0,1.0,2320.545898
44.191345,-295.94809,-294.754639,2.87403,0.062332,2.87403,0.062332,-289.999847,-290.0,20.508959,18.791981,12.213879,297.46225,12.587702,-0.029394,-0.004927,19.007219,-8.8E-4,0.057377,0.020082,0.0,1.0,2322.752441
45.085529,-295.885864,-294.692413,2.881122,0.063194,2.881122,0.063194,-289.999847,-290.0,20.572432,19.473856,12.481948,297.459198,12.45701,-0.029486,-0.004437,21.715153,-8.9E-4,0.057481,0.020306,0.0,1.0,2327.215088
45.664692,-295.845215,-294.651764,2.880448,0.061249,2.880448,0.061249,-289.999847,-290.0,20.613976,19.91943,11.569147,297.459473,12.376366,-0.029145,-0.00387,18.594196,-9.03E-4,0.057622,0.020459,0.0,1.0,2330.542725
46.534935,-295.784393,-294.590942,2.880557,0.061207,2.880557,0.061207,-289.999847,-290.0,20.673101,20.592495,11.952007,297.462769,12.262851,-0.027541,-0.002598,23.791584,-8.75E-4,0.057609,0.020445,0.0,1.0,2335.913086
47.114429,-295.744019,-294.550568,2.885541,0.061445,2.885541,0.061445,-289.999847,-290.0,20.713242,21.044264,12.12421,297.465881,12.192836,-0.026249,-0.001721,21.64134,-8.74E-4,0.057611,0.02028,0.0,1.0,2339.654053
47.983059,-295.68338,-294.489929,2.893192,0.062023,2.893192,0.062023,-289.999847,-290.0,20.774506,21.726379,12.37312,297.469818,12.097339,-0.024336,-6.84E-4,17.450722,-8.78E-4,0.057711,0.020125,0.0,1.0,2345.409424
48.561794,-295.642792,-294.449341,2.898216,0.062208,2.898216,0.062208,-289.999847,-290.0,20.816046,22.184025,12.661387,297.471069,12.040515,-0.023524,-3.14E-4,23.918497,-8.86E-4,0.057864,0.019928,0.0,1.0,2349.30835
49.435116,-295.582733,-294.389282,2.870699,0.059792,2.870699,0.059792,-289.999847,-290.0,20.867615,22.874775,9.917123,297.470215,11.966132,-0.022516,-2.86E-4,15.324056,-8.89E-4,0.057964,0.019865,0.0,1.0,2355.218994
50.017345,-295.544189,-294.350769,2.875195,0.06087,2.875195,0.06087,-289.999847,-290.0,20.900976,23.338081,10.090399,297.467529,11.923977,-0.02232,-5.55E-4,18.533487,-8.54E-4,0.057414,0.019908,0.0,1.0,2359.190918
50.865307,-295.489532,-294.296082,2.885349,0.062629,2.885349,0.062629,-289.999847,-290.0,20.95059,24.017653,10.309898,297.460114,11.873318,-0.022912,-0.001443,22.960897,-8.7E-4,0.057504,0.020042,0.0,1.0,2365.011963
51.470673,-295.451263,-294.257813,2.891283,0.06395,2.891283,0.06395,-289.999847,-290.0,20.986641,24.505835,10.449511,297.452728,11.84498,-0.023813,-0.002319,17.527931,-8.95E-4,0.057707,0.020413,0.0,1.0,2369.185303
52.341721,-295.396698,-294.203278,2.898125,0.065763,2.898125,0.065763,-289.999847,-290.0,21.039391,25.212767,10.645127,297.440948,11.815458,-0.025639,-0.003592,17.287739,-9.14E-4,0.057826,0.020783,0.0,1.0,2375.212891
52.922058,-295.360535,-294.167114,2.902594,0.066902,2.902594,0.066902,-289.999847,-290.0,21.075102,25.686579,10.775863,297.433258,11.802972,-0.026964,-0.004309,17.229662,-9.39E-4,0.057962,0.021372,0.0,1.0,2379.240967
53.792042,-295.306335,-294.112885,2.909058,0.068271,2.909058,0.068271,-289.999847,-290.0,21.129482,26.400978,10.97071,297.423981,11.794583,-0.028633,-0.004891,17.241644,-9.56E-4,0.058052,0.021756,0.0,1.0,2385.296143
54.661327,-295.251953,-294.058533,2.915717,0.069301,2.915717,0.069301,-289.999847,-290.0,21.184845,27.119665,11.1675,297.418488,11.797975,-0.02957,-0.004803,17.360279,-9.75E-4,0.058181,0.02222,0.0,1.0,2391.365479
55.240467,-295.215485,-294.022064,2.920358,0.065303,2.920358,0.065303,-289.999847,-290.0,21.222839,27.601101,11.843785,297.417267,11.806398,-0.030251,-0.004524,17.509861,-9.86E-4,0.058271,0.022427,0.0,1.0,2395.418701
56.106613,-295.159729,-293.966278,2.936606,0.0507,2.936606,0.0507,-289.999847,-290.0,21.284088,28.326603,12.471468,297.418396,11.827908,-0.029075,-0.003788,18.178389,-9.33E-4,0.058407,0.022556,0.0,1.0,2401.50708
56.683739,-295.121613,-293.928162,2.94063,0.050905,2.94063,0.050905,-289.999847,-290.0,21.325871,28.812435,12.593528,297.420624,11.847968,-0.027757,-0.002932,18.649998,-7.26E-4,0.058668,0.02254,0.0,1.0,2405.571045
57.524887,-295.064758,-293.871307,2.946035,0.0513,2.946035,0.0513,-289.999847,-290.0,21.387568,29.523954,12.786063,297.424164,11.884754,-0.025459,-0.001794,23.961397,-7.27E-4,0.058813,0.022388,0.0,1.0,2411.505615
58.125469,-295.023315,-293.829865,2.950086,0.051665,2.950086,0.051665,-289.999847,-290.0,21.432219,30.034311,12.928555,297.425781,11.916012,-0.023944,-0.001227,23.631001,-7.31E-4,0.058887,0.022263,0.0,1.0,2415.750732
58.989635,-294.962494,-293.769043,2.956262,0.052364,2.956262,0.052364,-289.999847,-290.0,21.497391,30.772242,13.134423,297.425629,11.967413,-0.02203,-9.1E-4,18.689217,-7.38E-4,0.059002,0.02213,0.0,1.0,2421.872559
59.565399,-294.921234,-293.727783,2.960288,0.052929,2.960288,0.052929,-289.999847,-290.0,21.541414,31.266119,13.273332,297.423401,12.005298,-0.021138,-0.001056,17.777132,-7.44E-4,0.059081,0.022115,0.0,1.0,2425.959717
60.40443,-294.860077,-293.666626,2.966183,0.053865,2.966183,0.053865,-289.999847,-290.0,21.606443,31.989029,13.475581,297.417236,12.064745,-0.020474,-0.001695,16.141314,-7.56E-4,0.059206,0.022249,0.0,1.0,2431.928711
61.003479,-294.815704,-293.622253,2.970374,0.054568,2.970374,0.054568,-289.999847,-290.0,21.653498,32.507278,13.621591,297.411163,12.109593,-0.020454,-0.002351,16.387829,-7.69E-4,0.059324,0.022557,0.0,1.0,2436.203369
61.845982,-294.753632,-293.560181,2.939785,0.055857,2.939785,0.055857,-289.999847,-290.0,21.70701,33.235428,9.197968,297.402069,12.174617,-0.020742,-0.003225,15.770847,-7.8E-4,0.059407,0.022861,0.0,1.0,2442.277344
62.449795,-294.7117,-293.51825,2.939132,0.056445,2.939132,0.056445,-289.999847,-290.0,21.739252,33.757378,9.365381,297.396301,12.221894,-0.021127,-0.003661,17.082598,-7.98E-4,0.058796,0.023315,0.0,1.0,2446.674805
63.292973,-294.655823,-293.462372,2.948014,0.057167,2.948014,0.057167,-289.999847,-290.0,21.785303,34.490608,9.565755,297.390015,12.288203,-0.021595,-0.003915,23.250473,-8.06E-4,0.058783,0.023604,0.0,1.0,2452.882568
63.894428,-294.617432,-293.423981,2.953547,0.057601,2.953547,0.057601,-289.999847,-290.0,21.818731,35.016079,9.67981,297.387115,12.335086,-0.021668,-0.00382,17.483711,-8.17E-4,0.05896,0.023918,0.0,1.0,2457.341553
64.758369,-294.563416,-293.369965,2.967176,0.049506,2.967176,0.049506,-289.999847,-290.0,21.87052,35.775204,10.765785,297.38559,12.401087,-0.021649,-0.003493,17.088667,-8.23E-4,0.059071,0.024063,0.0,1.0,2463.787109
65.333321,-294.527496,-293.334076,2.971585,0.05179,2.971585,0.05179,-289.999847,-290.0,21.906567,36.282833,10.858369,297.380615,12.44377,-0.021437,-0.004085,17.084486,-7.07E-4,0.059344,0.0,0.0,1.0,2468.094971
66.172073,-294.475037,-293.281586,2.975028,0.055271,2.975028,0.055271,-289.999847,-290.0,21.959692,37.025288,10.99778,297.293884,12.503127,-0.025138,-0.017721,22.282927,-7.4E-4,0.059432,2.49E-4,0.0,1.0,2474.391846
66.772079,-294.437408,-293.243958,2.977077,0.053406,2.977077,0.053406,-289.999847,-290.0,21.998077,37.557156,11.110059,297.179077,12.542208,-0.031627,-0.0345,17.275038,-7.9E-4,0.059501,0.004585,0.0,1.0,2478.901611
67.639549,-294.384552,-293.191132,2.938681,0.040815,2.938681,0.040815,-289.999847,-290.0,22.035969,38.325291,6.260198,296.982666,12.59097,-0.045672,-0.060327,15.716008,-7.63E-4,0.059542,0.010326,0.0,1.0,2485.415283
68.215576,-294.352356,-293.158905,2.94347,0.038402,2.94347,0.038402,-289.999847,-290.0,22.057198,38.838795,6.492628,296.856262,12.616939,-0.057902,-0.074374,14.210261,-5.83E-4,0.058774,0.020146,0.0,1.0,2489.76709
69.051811,-294.308502,-293.115051,2.938469,-0.009328,2.938469,-0.009328,-289.999847,-290.0,22.091887,39.589516,7.843155,296.727173,12.643397,-0.075965,-0.084545,14.84998,-5.49E-4,0.058869,0.026466,0.0,1.0,2496.113525
69.649788,-294.278198,-293.084778,2.896005,-0.114517,2.896005,-0.114517,-289.999847,-290.0,22.120653,40.127014,8.61735,296.694397,12.653954,-0.084507,-0.08312,22.636225,1.33E-4,0.058769,0.032921,0.0,1.0,2500.650879
70.490112,-294.235901,-293.04245,2.806061,-0.319585,2.806061,-0.319585,-289.999847,-290.0,22.163363,40.881245,8.787846,296.748566,12.659973,-0.087621,-0.066921,22.689362,0.001636,0.05792,0.03456,0.0,1.0,2507.023193
71.06871,-294.206848,-293.013428,2.748662,-0.456202,2.748662,-0.456202,-289.999847,-290.0,22.192343,41.39962,8.536826,296.844147,12.661269,-0.082264,-0.047968,14.758138,0.004566,0.056121,0.031851,0.0,1.0,2511.411133
71.936516,-294.163513,-292.970062,2.698,-0.608906,2.698,-0.608906,-289.999847,-290.0,22.23398,42.179066,8.210173,297.026398,12.664835,-0.06443,-0.016185,19.290525,0.006517,0.054973,0.027072,0.0,1.0,2518.021729
72.534218,-294.133698,-292.940247,2.683751,-0.695035,2.683751,-0.695035,-289.999847,-290.0,22.263594,42.721611,9.075879,297.142883,12.671762,-0.048608,0.001647,16.018293,0.008699,0.05396,0.01796,0.0,1.0,2522.619141
73.389397,-294.090271,-292.89682,2.652467,-0.814224,2.652467,-0.814224,-289.999847,-290.0,22.310278,43.504513,9.570516,297.230011,12.69238,-0.024627,0.011141,20.841248,0.009929,0.053675,0.012135,0.0,1.0,2529.230469
73.959358,-294.060669,-292.867218,2.613205,-0.920816,2.613205,-0.920816,-289.999847,-290.0,22.342779,44.027439,9.872717,297.216034,12.714664,-0.011235,0.004616,18.845045,0.011632,0.053049,0.007779,0.0,1.0,2533.634521
74.792465,-294.016388,-292.822968,2.542341,-1.111722,2.542341,-1.111722,-289.999847,-290.0,22.391619,44.791409,10.237222,297.089172,12.760879,0.002639,-0.02117,19.411837,0.013155,0.052264,0.008478,0.0,1.0,2540.063477
75.389038,-293.983887,-292.790436,2.499524,-1.278714,2.499524,-1.278714,-289.999847,-290.0,22.428713,45.338097,11.227835,296.937958,12.80421,0.006425,-0.047411,14.289377,0.015882,0.050847,0.014821,0.0,1.0,2544.666992
76.242851,-293.934418,-292.740967,2.538578,-1.607707,2.538578,-1.607707,-289.999847,-290.0,22.495043,46.12677,16.838491,296.687103,12.882177,0.004212,-0.087366,16.120932,0.018267,0.04999,0.022382,0.0,1.0,2551.30835
76.804329,-293.896545,-292.703094,2.615431,-1.880186,2.615431,-1.880186,-289.999847,-290.0,22.568485,46.653423,27.69845,296.531158,12.945585,6.14E-4,-0.109869,23.270979,0.022967,0.050772,0.034924,0.0,1.0,2555.733643
77.624977,-293.818512,-292.625061,2.753778,-2.27029,2.753778,-2.27029,-289.999847,-290.0,22.766167,47.444366,51.859627,296.372314,13.061669,-0.005023,-0.126947,19.789755,0.02686,0.052309,0.042722,0.0,1.0,2562.346436
78.152405,-293.741394,-292.547943,2.862605,-2.479416,2.862605,-2.479416,-289.999847,-290.0,22.971798,47.972008,71.093735,296.325439,13.155511,-0.006701,-0.126432,27.04567,0.032433,0.055076,0.050664,0.0,1.0,2566.718262
78.888451,-293.574646,-292.381226,3.026548,-2.643619,3.026548,-2.643619,-289.999847,-290.0,23.39225,48.741386,101.226555,296.332825,13.319093,-0.004344,-0.110799,41.641819,0.03542,0.057252,0.053008,0.0,1.0,2573.002686
79.387238,-293.405975,-292.212524,3.159097,-2.651226,3.159097,-2.651226,-289.999847,-290.0,23.783638,49.290432,123.520729,296.366089,13.455998,9.66E-4,-0.094351,54.136292,0.037766,0.060531,0.052638,0.0,1.0,2577.397705
80.064674,-293.075043,-291.881592,3.337437,-2.511165,3.337437,-2.511165,-289.999847,-290.0,24.48435,50.079456,155.619598,296.400085,13.680521,0.012784,-0.072695,75.027481,0.037875,0.063182,0.050975,0.0,1.0,2583.544922
80.492058,-292.790192,-291.596741,3.4518,-2.348103,3.4518,-2.348103,-289.999847,-290.0,25.038506,50.603943,175.963943,296.387238,13.844978,0.021358,-0.064203,90.26564,0.035874,0.066749,0.049275,0.0,1.0,2587.509033
81.105499,-292.259552,-291.066101,3.583909,-2.07443,3.583909,-2.07443,-289.999847,-290.0,25.993887,51.387638,205.12088,296.295868,14.105557,0.032127,-0.063671,114.288429,0.033544,0.069036,0.049918,0.0,1.0,2592.827393
81.498573,-291.834381,-290.64093,3.667777,-1.904661,3.667777,-1.904661,-289.999847,-290.0,26.709707,51.907722,223.575882,296.192535,14.282761,0.036411,-0.070221,130.738983,0.029635,0.071678,0.054486,0.0,1.0,2595.672119
82.065346,-291.087189,-289.893738,3.784528,-1.725363,3.784528,-1.725363,-289.999847,-290.0,27.896343,52.683758,250.108749,296.017181,14.543902,0.037564,-0.083336,155.900482,0.027209,0.073356,0.059653,0.0,1.0,2599.224365
82.429512,-290.516144,-289.322693,3.869147,-1.650464,3.869147,-1.650464,-289.999847,-290.0,28.759806,53.198116,267.296082,295.913544,14.71008,0.036222,-0.089693,172.61203,0.024648,0.075691,0.06842,0.0,1.0,2601.258301
82.951843,-289.550354,-288.356903,3.988685,-1.588221,3.988685,-1.588221,-289.999847,-290.0,30.161135,53.964695,292.258179,295.826935,14.941502,0.032991,-0.088068,197.728058,0.023578,0.077383,0.073602,0.0,1.0,2603.967285
83.284065,-288.834625,-287.641174,4.073333,-1.546055,4.073333,-1.546055,-289.999847,-290.0,31.163443,54.472149,308.822754,295.823914,15.081802,0.032729,-0.078443,214.240723,0.022689,0.079774,0.077933,0.0,1.0,2605.604492
83.755257,-287.653625,-286.460175,4.21102,-1.440886,4.21102,-1.440886,-289.999847,-290.0,32.779259,55.227386,337.435547,295.889191,15.26916,0.0365,-0.054037,239.017548,0.022086,0.079774,0.078084,0.0,1.0,2607.873047
84.047997,-286.792877,-285.599426,4.341883,-1.326384,4.341883,-1.326384,-289.999847,-290.0,33.941982,55.726559,359.846741,295.955139,15.377737,0.042222,-0.035447,255.824341,0.020584,0.079774,0.07482,0.0,1.0,2609.283447
84.447357,-285.384949,-284.191498,4.58931,-1.100712,4.58931,-1.100712,-279.999847,-280.0,35.835041,56.468121,396.205017,296.03302,15.514194,0.053941,-0.013404,282.226837,0.018948,0.079774,0.071523,0.0,1.0,2611.266602
84.679733,-284.407745,-283.214325,4.752377,-0.938242,4.752377,-0.938242,-279.999847,-280.0,37.138821,56.936981,418.995972,296.049835,15.583313,0.061714,-0.005917,299.915039,0.015724,0.079774,0.067629,0.0,1.0,2612.45752
85.025948,-282.703247,-281.509796,4.99136,-0.70902,4.99136,-0.70902,-279.999847,-280.0,39.388023,57.682552,455.944519,296.009094,15.661372,0.070422,-0.006675,329.530487,0.013403,0.079774,0.066788,0.0,1.0,2614.262451
85.233932,-281.506378,-280.312958,5.140062,-0.601676,5.140062,-0.601676,-279.999847,-280.0,40.951729,58.160114,481.337891,295.948517,15.688149,0.072688,-0.013273,349.451538,0.010129,0.079774,0.068825,0.0,1.0,2615.368652
85.517403,-279.571289,-278.377838,5.377216,-0.533698,5.377216,-0.533698,-279.999847,-280.0,43.459099,58.867073,520.8396,295.849152,15.691047,0.071372,-0.025056,380.395966,0.008595,0.079774,0.071854,0.0,1.0,2616.942383
85.688248,-278.185181,-276.99173,5.547796,-0.534987,5.547796,-0.534987,-279.999847,-280.0,45.24271,59.331852,548.358948,295.800903,15.668415,0.068655,-0.029959,401.636597,0.007624,0.079774,0.076822,0.0,1.0,2617.937256
85.911285,-275.952362,-274.758942,5.82155,-0.571457,5.82155,-0.571457,-279.999847,-280.0,48.095741,60.018742,592.152588,295.788513,15.600645,0.064632,-0.027622,434.954926,0.007643,0.079774,0.079234,0.0,1.0,2619.347656
86.03772,-274.359009,-273.165558,6.016364,-0.589242,6.016364,-0.589242,-269.999847,-270.0,50.122707,60.46949,622.925537,295.821899,15.535881,0.06379,-0.019573,457.860596,0.008164,0.079774,0.079854,0.0,1.0,2620.232178
86.191788,-271.802338,-270.608887,6.323987,-0.56768,6.323987,-0.56768,-269.999847,-270.0,53.360126,61.134277,671.137329,295.911499,15.415285,0.066308,-0.001906,493.617828,0.008418,0.079774,0.078185,0.0,1.0,2621.471924
86.271362,-269.983398,-268.789948,6.537013,-0.516304,6.537013,-0.516304,-269.999847,-270.0,55.655331,61.569546,704.765625,295.976257,15.322495,0.070159,0.009863,518.24884,0.00811,0.079774,0.073705,0.0,1.0,2622.238525
86.354523,-267.0737,-265.88028,6.865676,-0.402626,6.865676,-0.402626,-269.999847,-270.0,59.31205,62.209965,756.708923,296.038208,15.169113,0.077553,0.020389,556.670654,0.007376,0.079774,0.070467,0.0,1.0,2623.297119
86.388428,-265.008514,-263.815094,7.088287,-0.324138,7.088287,-0.324138,-259.999847,-260.0,61.895859,62.62825,792.223022,296.044128,15.059158,0.081423,0.020981,583.216614,0.005752,0.079774,0.067369,0.0,1.0,2623.942627
86.409271,-261.713348,-260.519897,7.427148,-0.248539,7.427148,-0.248539,-259.999847,-260.0,65.996124,63.242184,846.524353,296.000946,14.884932,0.084009,0.012718,624.51416,0.004631,0.079774,0.067073,0.0,1.0,2624.824707
86.403328,-259.381104,-258.187683,7.657012,-0.237754,7.657012,-0.237754,-259.999847,-260.0,68.88134,63.642216,883.12384,295.95166,14.764039,0.083012,0.003914,652.943237,0.003551,0.079774,0.069232,0.0,1.0,2625.356934
86.362953,-255.780685,-254.58725,7.998357,-0.282323,7.998357,-0.282323,-259.999847,-260.0,73.308464,64.211922,936.840271,295.887177,14.584332,0.078296,-0.007299,695.474365,0.003396,0.079774,0.071696,0.0,1.0,2626.054199
86.315567,-253.061371,-251.86792,8.246822,-0.340423,8.246822,-0.340423,-249.999863,-250.0,76.630936,64.608665,975.380127,295.865112,14.456682,0.074602,-0.011006,726.552368,0.004033,0.079774,0.074921,0.0,1.0,2626.494873
86.211128,-248.923843,-247.730392,8.611263,-0.420812,8.611263,-0.420812,-249.999863,-250.0,81.650803,65.164597,1031.046509,295.885315,14.280564,0.070297,-0.007402,772.242249,0.004863,0.079774,0.076024,0.0,1.0,2627.041504
86.118149,-246.019379,-244.825928,8.857949,-0.452686,8.857949,-0.452686,-249.999863,-250.0,85.152138,65.524857,1068.203491,295.928253,14.172357,0.069514,-2.41E-4,803.133179,0.006012,0.079774,0.075014,0.0,1.0,2627.346191
85.94368,-241.438416,-240.24498,9.230666,-0.446228,9.230666,-0.446228,-239.999863,-240.0,90.636131,66.049164,1123.792358,296.008148,14.030278,0.071727,0.012603,850.201294,0.006467,0.079774,0.072867,0.0,1.0,2627.709229
85.805,-238.235138,-237.041687,9.478569,-0.412587,9.478569,-0.412587,-239.999863,-240.0,94.446007,66.387711,1160.53894,296.053406,13.951868,0.074567,0.019356,881.884033,0.006375,0.079774,0.068872,0.0,1.0,2627.887451
85.566277,-233.207489,-232.014053,9.845571,-0.345643,9.845571,-0.345643,-229.999863,-230.0,100.388466,66.878578,1214.698486,296.080475,13.861692,0.079189,0.022051,929.622437,0.005894,0.079774,0.066609,0.0,1.0,2628.05957
85.390793,-229.705276,-228.511841,10.085215,-0.310395,10.085215,-0.310395,-229.999863,-230.0,104.498734,67.194321,1249.851929,296.067566,13.82066,0.080928,0.018542,961.647156,0.004938,0.079774,0.065256,0.0,1.0,2628.113037
85.098305,-224.228745,-223.035294,10.435713,-0.302073,10.435713,-0.302073,-219.999863,-220.0,110.879662,67.650429,1300.695679,296.014679,13.788331,0.080578,0.007801,1009.772461,0.004434,0.079774,0.065901,0.0,1.0,2628.106445
84.901253,-220.433121,-219.23967,10.66316,-0.328861,10.66316,-0.328861,-219.999863,-220.0,115.271996,67.942726,1333.151367,295.97226,13.786723,0.078501,-1.96E-4,1041.619141,0.004315,0.079774,0.068546,0.0,1.0,2628.046387
84.554375,-214.520523,-213.327087,10.995223,-0.404165,10.995223,-0.404165,-219.999863,-220.0,122.058044,68.363365,1379.505615,295.92984,13.815802,0.073708,-0.00797,1089.313965,0.004698,0.079774,0.070666,0.0,1.0,2627.876465
84.315041,-210.436401,-209.242966,11.210683,-0.46115,11.210683,-0.46115,-209.999863,-210.0,126.707649,68.631859,1408.819702,295.926147,13.85763,0.070925,-0.008735,1120.881104,0.005774,0.079774,0.072788,0.0,1.0,2627.710693
83.931664,-204.105484,-202.912048,11.524385,-0.522478,11.524385,-0.522478,-199.999863,-200.0,133.859711,69.016586,1450.358765,295.960236,13.956849,0.068735,-0.00302,1167.546387,0.006588,0.079774,0.072972,0.0,1.0,2627.383789
83.668724,-199.93512,-198.741684,11.717933,-0.537821,11.717933,-0.537821,-199.999863,-200.0,138.534744,69.251015,1475.324341,295.99881,14.044395,0.069173,0.003286,1196.897705,0.007464,0.079774,0.071268,0.0,1.0,2627.125488
83.241783,-193.040955,-191.847519,12.015038,-0.518618,12.015038,-0.518618,-189.999863,-190.0,146.216476,69.609474,1512.725098,296.06012,14.22572,0.072317,0.012849,1242.612793,0.007683,0.079774,0.069339,0.0,1.0,2626.630859
82.948692,-188.443253,-187.249802,12.196361,-0.488747,12.196361,-0.488747,-189.999863,-190.0,151.298035,69.829666,1535.007324,296.085815,14.369486,0.075029,0.01634,1271.684692,0.007409,0.079774,0.066274,0.0,1.0,2626.259521
82.494102,-181.375443,-180.181992,12.448722,-0.445886,12.448722,-0.445886,-179.999863,-180.0,159.052322,70.141846,1565.191772,296.087067,14.621058,0.078616,0.014973,1314.042358,0.006982,0.079774,0.064989,0.0,1.0,2625.633301
82.188599,-176.559189,-175.365738,12.602832,-0.433136,12.602832,-0.433136,-179.999863,-180.0,164.301056,70.337997,1582.982422,296.064484,14.810508,0.079595,0.010163,1341.182373,0.00637,0.079774,0.064926,0.0,1.0,2625.174072
81.717888,-169.182404,-167.988953,12.812299,-0.453195,12.812299,-0.453195,-169.999863,-170.0,172.276917,70.614532,1605.974487,296.012573,15.123205,0.078682,2.7E-4,1380.513184,0.006188,0.079774,0.066055,0.0,1.0,2624.429932
81.405159,-164.174026,-162.980591,12.937624,-0.489892,12.937624,-0.489892,-169.999863,-170.0,177.652985,70.7873,1618.796509,295.978943,15.348585,0.076876,-0.005778,1405.529541,0.006474,0.079774,0.068651,0.0,1.0,2623.900879
80.926239,-156.540375,-155.346924,13.104702,-0.561382,13.104702,-0.561382,-159.999863,-160.0,185.788651,71.029427,1634.300537,295.952881,15.709207,0.073484,-0.010141,1441.091919,0.006998,0.079774,0.070332,0.0,1.0,2623.063477
80.60965,-151.377411,-150.18396,13.202381,-0.606716,13.202381,-0.606716,-149.999863,-150.0,191.25058,71.179726,1642.203979,295.95694,15.963385,0.071966,-0.009239,1463.463257,0.00802,0.079774,0.071635,0.0,1.0,2622.478271
80.127579,-143.534943,-142.341492,13.327881,-0.647243,13.327881,-0.647243,-139.999863,-140.0,199.484695,71.388916,1650.50293,295.991394,16.363192,0.071662,-0.003056,1494.97229,0.008667,0.079774,0.071433,0.0,1.0,2621.563965
79.808632,-138.249374,-137.055923,13.39677,-0.652393,13.39677,-0.652393,-139.999863,-140.0,204.992432,71.517784,1653.696289,296.024353,16.640482,0.072957,0.002538,1514.548706,0.009246,0.079774,0.06971,0.0,1.0,2620.932129
79.332977,-130.259186,-129.065735,13.475924,-0.63046,13.475924,-0.63046,-129.999863,-130.0,213.265945,71.695663,1654.966309,296.066345,17.068661,0.076659,0.009238,1541.291138,0.00932,0.079774,0.068062,0.0,1.0,2619.955811
79.027016,-125.115768,-123.922325,13.510183,-0.607822,13.510183,-0.607822,-129.999863,-130.0,218.55072,71.799896,1653.532715,296.079834,17.347086,0.079272,0.011028,1557.019531,0.009007,0.079774,0.065962,0.0,1.0,2619.317383
78.562683,-116.808029,-115.614586,13.537279,-0.579646,13.537279,-0.579646,-119.999855,-120.0,227.034027,71.952782,1647.465454,296.071014,17.796602,0.082412,0.00856,1579.415527,0.008683,0.079774,0.065288,0.0,1.0,2618.274414
78.266464,-111.40107,-110.207626,13.536132,-0.576356,13.536132,-0.576356,-109.999855,-110.0,232.514954,72.042587,1641.027588,296.048096,18.085358,0.083274,0.004152,1592.197144,0.008281,0.079774,0.065729,0.0,1.0,2617.592529
77.851486,-103.284065,-102.090622,13.507384,-0.601509,13.507384,-0.601509,-99.999855,-100.0,240.687698,72.1642,1627.713013,296.003601,18.508038,0.082732,-0.003788,1608.526001,0.008234,0.079774,0.066875,0.0,1.0,2616.569824
77.565826,-97.875076,-96.681633,13.470886,-0.634555,13.470886,-0.634555,-99.999855,-100.0,246.094391,72.236984,1616.468872,295.977051,18.779732,0.081565,-0.008228,1617.585205,0.008593,0.079774,0.069099,0.0,1.0,2615.885742
77.171494,-89.776474,-88.583031,13.391491,-0.69299,13.391491,-0.69299,-89.999855,-90.0,254.126389,72.334488,1596.236694,295.958008,19.167812,0.079505,-0.010921,1628.49585,0.009065,0.079774,0.070427,0.0,1.0,2614.344238
76.925285,-84.402275,-83.208824,13.32282,-0.728273,13.32282,-0.728273,-89.999855,-90.0,259.420532,72.392151,1580.625366,295.962158,19.411537,0.078792,-0.009745,1633.692139,0.0099,0.079774,0.071379,0.0,1.0,2613.002197
76.569435,-76.390594,-75.197151,13.196683,-0.758749,13.196683,-0.758749,-79.999855,-80.0,267.257294,72.468369,1554.234985,295.989471,19.751606,0.079328,-0.004447,1638.457764,0.010404,0.079774,0.071172,0.0,1.0,2610.747314
76.348022,-71.088516,-69.895073,13.097098,-0.762049,13.097098,-0.762049,-69.999855,-70.0,272.404694,72.512749,1534.765503,296.014618,19.959482,0.080827,6.1E-5,1639.686646,0.010839,0.079774,0.069806,0.0,1.0,2609.166016
76.039444,-63.212154,-62.018711,12.923933,-0.744532,12.923933,-0.744532,-59.999859,-60.0,279.997925,72.570427,1502.879883,296.045898,20.239532,0.084326,0.005375,1638.401123,0.010886,0.079774,0.068549,0.0,1.0,2606.769287
75.852943,-58.021973,-56.828529,12.792363,-0.725761,12.792363,-0.725761,-59.999859,-60.0,284.967987,72.603386,1479.88916,296.055511,20.402718,0.086755,0.00682,1635.384888,0.010636,0.079774,0.066985,0.0,1.0,2605.191895
75.595596,-50.335407,-49.141964,12.570981,-0.702996,12.570981,-0.702996,-49.999859,-50.0,292.27359,72.645386,1442.88623,296.046814,20.608007,0.089711,0.004962,1627.844971,0.010368,0.079774,0.066504,0.0,1.0,2602.902344
75.447678,-45.289242,-44.095798,12.407908,-0.698353,12.407908,-0.698353,-49.999859,-50.0,297.037933,72.668907,1416.599609,296.02771,20.716213,0.090711,0.001567,1620.595093,0.010043,0.079774,0.066939,0.0,1.0,2601.447754
75.252144,-37.840923,-36.64748,12.141816,-0.71358,12.141816,-0.71358,-39.999859,-40.0,304.014862,72.698326,1374.902466,295.990417,20.832268,0.090652,-0.004661,1606.742676,0.009976,0.079774,0.067894,0.0,1.0,2599.400879
75.145271,-32.964333,-31.770887,11.951412,-0.73617,11.951412,-0.73617,-29.999857,-30.0,308.547516,72.714523,1345.722168,295.967255,20.877537,0.089918,-0.008254,1595.450439,0.010194,0.079774,0.069759,0.0,1.0,2598.138184
75.017761,-25.797106,-24.603661,11.648729,-0.777901,11.648729,-0.777901,-29.999857,-30.0,315.159882,72.734543,1300.151367,295.947815,20.896309,0.088446,-0.010684,1575.303223,0.010517,0.079774,0.070917,0.0,1.0,2596.412109
74.954971,-21.121368,-19.927925,11.43692,-0.803534,11.43692,-0.803534,-19.999857,-20.0,319.439392,72.745537,1268.749268,295.947876,20.876129,0.087895,-0.009997,1559.833496,0.011113,0.079774,0.071889,0.0,1.0,2595.376953
74.889809,-14.459419,-13.265975,11.115437,-0.82523,11.115437,-0.82523,-19.999857,-20.0,325.48999,72.758934,1221.77478,295.964722,20.800602,0.088216,-0.006152,1534.340576,0.011479,0.079774,0.071886,0.0,1.0,2594.014648
74.875008,-9.824104,-8.63066,10.877532,-0.826614,10.877532,-0.826614,-9.999858,-10.0,329.670593,72.767082,1187.531616,295.983826,20.71389,0.089314,-0.002363,1513.867798,0.011789,0.079774,0.071043,0.0,1.0,2593.158936
74.875397,-3.503878,-2.310434,10.533923,-0.809316,10.533923,-0.809316,1.42E-4,0.0,335.32193,72.777214,1138.858398,296.008362,20.547825,0.091988,0.002297,1482.560181,0.011809,0.079774,0.070088,0.0,1.0,2592.142334
74.907715,0.981234,2.174679,10.281611,-0.788431,10.281611,-0.788431,1.42E-4,0.0,339.212891,72.784004,1103.686646,296.018066,20.398022,0.093923,0.004138,1458.088013,0.011562,0.079774,0.068861,0.0,1.0,2591.554443
74.98291,7.400895,8.594339,9.909693,-0.75815,9.909693,-0.75815,10.000142,10.0,344.600281,72.793892,1052.629272,296.014282,20.137852,0.096375,0.003646,1420.088745,0.011263,0.079774,0.068376,0.0,1.0,2590.92334
75.01722,9.486665,10.680109,9.783852,-0.750088,9.783852,-0.750088,10.000142,10.0,346.339233,72.797371,1035.53772,296.008362,20.039747,0.09692,0.002715,1406.727905,0.011263,0.079774,0.068376,0.0,1.0,2590.771729
75.01722,9.486665,10.680109,9.783852,-0.750088,9.783852,-0.750088,10.000142,10.0,346.339233,72.797371,1035.53772,296.008362,20.039747,0.09692,0.002715,1406.727905,0.011263,0.079774,0.068376,0.0,1.0,2590.771729
75.01722,9.486665,10.680109,9.783852,-0.750088,9.783852,-0.750088,10.000142,10.0,346.339233,72.797371,1035.53772,296.008362,20.039747,0.09692,0.002715,1406.727905,0.011263,0.079774,0.068376,0.0,1.0,2590.771729
75.01722,9.486665,10.680109,9.783852,-0.750088,9.783852,-0.750088,10.000142,10.0,346.339233,72.797371,1035.53772,296.008362,20.039747,0.09692,0.002715,1406.727905,0.011263,0.079774,0.068376,0.0,1.0,2590.771729
75.01722,9.486665,10.680109,9.783852,-0.750088,9.783852,-0.750088,10.000142,10.0,346.339233,72.797371,1035.53772,296.008362,20.039747,0.09692,0.002715,1406.727905,0.011263,0.079774,0.068376,0.0,1.0,2590.771729
75.01722,9.486665,10.680109,9.783852,-0.750088,9.783852,-0.750088,10.000142,10.0,346.339233,72.797371,1035.53772,296.008362,20.039747,0.09692,0.002715,1406.727905,0.011263,0.079774,0.068376,0.0,1.0,2590.771729
75.126778,24.89262,26.086065,8.369781,-0.77942,8.369781,-0.77942,20.000143,20.0,363.7052,72.854149,846.99707,295.903107,18.612385,0.094557,-0.012008,1004.499939,0.010716,0.079774,0.068861,0.0,1.0,2591.02832
75.345642,31.542889,32.736332,7.994124,-0.806041,7.994124,-0.806041,30.000143,30.0,367.814392,72.87886,798.230103,295.893433,18.138628,0.092194,-0.011995,1086.71228,0.011135,0.079774,0.074124,0.0,1.0,2591.864258
75.653542,35.442162,36.635605,7.760622,-0.817671,7.760622,-0.817671,30.000143,30.0,370.313385,72.897499,767.796326,295.903442,17.822416,0.091525,-0.009286,1107.500854,0.011515,0.079774,0.074608,0.0,1.0,2592.529785
76.127365,41.231476,42.424923,7.397992,-0.812336,7.397992,-0.812336,40.000141,40.0,374.133301,72.932663,720.526917,295.938232,17.297255,0.092173,-0.002071,1108.950684,0.011681,0.079774,0.074107,0.0,1.0,2593.812988
76.410652,44.422581,45.616028,7.190095,-0.79342,7.190095,-0.79342,40.000141,40.0,376.291626,72.956841,693.573303,295.962524,16.97809,0.093426,0.002563,1096.561646,0.011605,0.079774,0.072368,0.0,1.0,2594.699219
76.885811,49.421112,50.614555,6.85373,-0.740926,6.85373,-0.740926,50.000141,50.0,379.740631,73.00341,650.369812,295.991943,16.434526,0.096379,0.007983,1060.616455,0.011335,0.079774,0.071153,0.0,1.0,2596.392822
77.19117,52.443424,53.636868,6.644932,-0.700353,6.644932,-0.700353,50.000141,50.0,381.862152,73.037811,623.843689,295.997589,16.079803,0.09812,0.009057,1030.119629,0.010585,0.079774,0.069682,0.0,1.0,2597.625977
77.662949,56.801304,57.994751,6.339028,-0.647133,6.339028,-0.647133,60.000141,60.0,384.96521,73.097694,585.37561,295.981781,15.533518,0.09965,0.006458,975.8479,0.010005,0.079774,0.0694,0.0,1.0,2599.730225
77.9701,59.340691,60.534134,6.159708,-0.625411,6.159708,-0.625411,60.000141,60.0,386.797577,73.139297,563.018127,295.960327,15.196229,0.099429,0.002993,939.081726,0.009245,0.079774,0.07019,0.0,1.0,2601.160156
78.443771,63.084335,64.277779,5.898041,-0.616591,5.898041,-0.616591,60.000141,60.0,389.527985,73.211441,530.589355,295.922333,14.675396,0.09747,-0.002932,879.368591,0.008934,0.079774,0.071263,0.0,1.0,2603.578613
78.773254,65.435669,66.629112,5.737921,-0.624097,5.737921,-0.624097,70.000145,70.0,391.261902,73.264458,510.840973,295.901886,14.335317,0.095541,-0.005873,839.05188,0.008808,0.079774,0.073163,0.0,1.0,2605.306885
79.273003,68.856667,70.05011,5.515901,-0.645191,5.515901,-0.645191,70.000145,70.0,393.813446,73.354111,483.604156,295.890625,13.826919,0.092204,-0.006807,777.78479,0.008916,0.079774,0.074185,0.0,1.0,2608.137695
79.6035,70.953636,72.147079,5.389054,-0.655829,5.389054,-0.655829,70.000145,70.0,395.398163,73.41748,468.179108,295.898315,13.510265,0.090892,-0.004904,739.306213,0.009217,0.079774,0.074748,0.0,1.0,2610.071289
80.086533,73.858818,75.052261,5.229152,-0.654247,5.229152,-0.654247,70.000145,70.0,397.624603,73.517311,449.06897,295.925659,13.071329,0.090326,3.93E-4,686.154541,0.009369,0.079774,0.074364,0.0,1.0,2612.797119
80.428207,75.834282,77.027725,5.133242,-0.638063,5.133242,-0.638063,80.000145,80.0,399.163208,73.593994,437.973969,295.94989,12.776842,0.090889,0.004732,650.934814,0.009346,0.079774,0.072997,0.0,1.0,2614.419678
80.90448,78.475876,79.669327,5.024178,-0.597526,5.024178,-0.597526,80.000145,80.0,401.260803,73.708778,426.090271,295.976105,12.394315,0.0923,0.009164,606.034363,0.009115,0.079774,0.071785,0.0,1.0,2616.385254
81.373169,80.993553,82.187004,4.943912,-0.548602,4.943912,-0.548602,80.000145,80.0,403.31131,73.832069,418.461029,295.983185,12.049013,0.093576,0.010125,566.935364,0.008536,0.079774,0.070474,0.0,1.0,2618.129639
81.717781,82.796524,83.989975,4.902781,-0.518098,4.902781,-0.518098,80.000145,80.0,404.816193,73.929031,415.51886,295.97406,11.817677,0.093742,0.008352,541.890381,0.008052,0.079774,0.070108,0.0,1.0,2619.3396
82.159218,85.082481,86.275925,4.872994,-0.493977,4.872994,-0.493977,90.000145,90.0,406.775909,74.062515,415.144165,295.949677,11.548437,0.092617,0.004077,514.203674,0.007401,0.079774,0.070576,0.0,1.0,2620.855225
82.488533,86.787773,87.981216,4.868958,-0.491762,4.868958,-0.491762,90.000145,90.0,408.278809,74.16954,417.511169,295.929626,11.368518,0.090641,6.9E-4,496.967194,0.00713,0.079774,0.071359,0.0,1.0,2621.981689
82.90641,88.977615,90.171066,4.888739,-0.503606,4.888739,-0.503606,90.000145,90.0,410.264832,74.315666,424.110107,295.911987,11.168056,0.087921,-0.002114,479.399017,0.007025,0.079774,0.072798,0.0,1.0,2623.426758
83.189987,90.506058,91.699501,4.919999,-0.516218,4.919999,-0.516218,90.000145,90.0,411.690277,74.422813,431.186768,295.910736,11.050896,0.085961,-0.002144,470.281952,0.00712,0.079774,0.073483,0.0,1.0,2624.431396
83.596855,92.789452,93.982895,4.99431,-0.551876,4.99431,-0.551876,90.000145,90.0,413.881348,74.589302,445.60672,295.950317,10.913898,0.079926,0.00457,461.511963,0.002458,0.079774,0.1,0.0,1.0,2625.915283
83.865707,94.377121,95.570572,5.068313,-0.590413,5.068313,-0.590413,90.000145,90.0,415.450928,74.708664,458.350677,296.053619,10.847155,0.07863,0.020469,458.391846,0.002539,0.079774,0.1,0.0,1.0,2626.926025
84.199226,96.624634,97.818077,5.203223,-0.571061,5.203223,-0.571061,100.000145,100.0,417.731873,74.880257,480.285461,296.266296,10.795746,0.084878,0.051979,458.644958,0.002811,0.079774,0.1,0.0,1.0,2628.302246
84.426994,98.321762,99.515205,5.323142,-0.480505,5.323142,-0.480505,100.000145,100.0,419.501892,75.01062,499.704285,296.43631,10.7905,0.094577,0.075836,461.780701,0.002719,0.079774,0.1,0.0,1.0,2629.287842
84.701729,100.661934,101.855385,5.504475,-0.271019,5.504475,-0.271019,100.000145,100.0,422.004272,75.189194,529.685669,296.631348,10.826896,0.107754,0.10043,469.915527,0.002288,0.079774,0.1,0.0,1.0,2630.55835
84.876076,102.385162,103.578606,5.645091,-0.084014,5.645091,-0.084014,100.000145,100.0,423.885834,75.318413,553.419861,296.727875,10.881021,0.118518,0.109884,478.569794,0.001291,0.079774,0.1,0.0,1.0,2631.424561
85.090546,104.81105,106.004494,5.849241,0.172524,5.849241,0.172524,110.000145,110.0,426.582703,75.49572,588.206726,296.795837,10.986597,0.127533,0.111382,493.602142,4.0E-4,0.079774,0.1,0.0,1.0,2632.548096
85.222557,106.591263,107.784706,6.00213,0.333299,6.00213,0.333299,110.000145,110.0,428.588226,75.621582,614.19397,296.80777,11.079173,0.131152,0.106266,506.549652,-8.22E-4,0.079774,0.1,0.0,1.0,2633.304688
85.400436,109.379211,110.572655,6.245374,0.512953,6.245374,0.512953,110.000145,110.0,431.763245,75.81086,655.030762,296.796661,11.238832,0.131563,0.093812,528.980103,-0.001587,0.079774,0.1,0.0,1.0,2634.384033
85.502258,111.324646,112.518089,6.416926,0.589846,6.416926,0.589846,110.000145,110.0,433.995636,75.937012,683.372437,296.788452,11.355472,0.12917,0.085563,545.801758,-0.002443,0.079774,0.1,0.0,1.0,2635.066406
85.596985,113.430672,114.624115,6.603519,0.63629,6.603519,0.63629,110.000145,110.0,436.423157,76.068092,713.798706,296.793243,11.483271,0.12553,0.079263,564.715759,-0.002809,0.079774,0.1,0.0,1.0,2635.744141
85.690941,116.713181,117.906631,6.893976,0.663729,6.893976,0.663729,120.000145,120.0,440.213623,76.260864,760.474609,296.842133,11.681553,0.118966,0.076794,595.639587,-0.00303,0.079774,0.1,0.0,1.0,2636.680664
85.746399,119.910217,121.103661,7.174943,0.67573,7.174943,0.67573,120.000145,120.0,443.912445,76.435951,805.028748,296.936584,11.872045,0.115068,0.082248,626.232666,-0.003161,0.079774,0.1,0.0,1.0,2637.464844
85.767395,122.478508,123.671951,7.39789,0.693002,7.39789,0.693002,120.000145,120.0,446.884979,76.567986,840.082886,297.035919,12.022954,0.113431,0.090314,650.920471,-0.003218,0.079774,0.1,0.0,1.0,2638.010498
85.759384,126.008018,127.201462,7.698218,0.738923,7.698218,0.738923,130.000137,130.0,450.965668,76.737526,887.013245,297.187653,12.227328,0.113669,0.103435,684.862549,-0.0033,0.079774,0.1,0.0,1.0,2638.647949
85.732094,128.843491,130.036942,7.933083,0.794385,7.933083,0.794385,130.000137,130.0,454.237122,76.864288,923.538696,297.309448,12.388946,0.115313,0.11355,711.996704,-0.003519,0.079774,0.1,0.0,1.0,2639.074463
85.663773,132.73497,133.928406,8.24475,0.887229,8.24475,0.887229,130.000137,130.0,458.715424,77.025589,971.798523,297.463074,12.60663,0.118005,0.124696,748.730713,-0.003783,0.079774,0.1,0.0,1.0,2639.549805
85.593025,135.609497,136.802948,8.466561,0.960693,8.466561,0.960693,140.000137,140.0,462.014069,77.135994,1005.973083,297.562744,12.763874,0.120041,0.130417,775.369812,-0.004225,0.079774,0.1,0.0,1.0,2639.828369
85.462967,140.128387,141.321838,8.800168,1.068619,8.800168,1.068619,140.000137,140.0,467.175293,77.295601,1057.013062,297.696503,13.003542,0.12236,0.135476,816.577454,-0.004575,0.079774,0.1,0.0,1.0,2640.158691
85.34404,143.549393,144.742844,9.040672,1.13865,9.040672,1.13865,140.000137,140.0,471.06076,77.405983,1093.463989,297.783844,13.178183,0.123221,0.137073,847.139893,-0.005089,0.079774,0.1,0.0,1.0,2640.33252
85.166168,148.218765,149.412216,9.353277,1.212044,9.353277,1.212044,150.000137,150.0,476.338623,77.543602,1140.31189,297.893127,13.406888,0.123146,0.137795,887.505737,-0.005422,0.079774,0.1,0.0,1.0,2640.479492
85.020973,151.795349,152.988785,9.58097,1.253125,9.58097,1.253125,150.000137,150.0,480.35907,77.639626,1174.004761,297.974945,13.574566,0.122534,0.138252,917.462769,-0.005772,0.079774,0.1,0.0,1.0,2640.530273
84.87204,155.342422,156.535873,9.797224,1.283295,9.797224,1.283295,150.000137,150.0,484.327545,77.727455,1205.644409,298.058044,13.734866,0.121643,0.139182,946.333923,-0.005967,0.079774,0.1,0.0,1.0,2640.533691
84.614548,160.871353,162.064789,10.116171,1.317194,10.116171,1.317194,160.000137,160.0,490.474701,77.850822,1251.620361,298.194946,13.974152,0.12028,0.142101,989.773804,-0.006111,0.079774,0.1,0.0,1.0,2640.456543
84.425682,164.694305,165.887741,10.324389,1.33677,10.324389,1.33677,160.000137,160.0,494.698303,77.927238,1281.168823,298.295105,14.133243,0.119606,0.145153,1018.701721,-0.006272,0.079774,0.1,0.0,1.0,2640.351074
84.109604,170.633469,171.82692,10.628656,1.36704,10.628656,1.36704,170.000137,170.0,501.214264,78.03273,1323.639282,298.457001,14.372179,0.119228,0.151011,1062.033447,-0.006366,0.079774,0.1,0.0,1.0,2640.112061
83.783661,176.637238,177.830688,10.913482,1.401945,10.913482,1.401945,180.000137,180.0,507.746948,78.124405,1362.567749,298.623444,14.606064,0.119654,0.1574,1103.804932,-0.00651,0.079774,0.1,0.0,1.0,2639.789307
83.54464,181.05719,182.250641,11.10922,1.430642,11.10922,1.430642,180.000137,180.0,512.525818,78.183113,1388.799805,298.74469,14.774787,0.120267,0.161861,1133.145386,-0.006676,0.079774,0.1,0.0,1.0,2639.505371
83.188019,187.428146,188.621597,11.370889,1.472502,11.370889,1.472502,190.000137,190.0,519.363953,78.255592,1423.138062,298.915161,15.014103,0.121204,0.167504,1173.66394,-0.006813,0.079774,0.1,0.0,1.0,2639.038574
82.937569,192.102646,193.296097,11.271627,1.500293,11.271627,1.500293,190.000137,190.0,524.352173,78.30027,1449.874512,299.03183,15.18752,0.121868,0.169912,1202.003784,-0.007012,0.227418,0.1,0.0,1.0,2638.6604
82.743195,198.794632,199.988083,8.726072,1.581253,8.726072,1.581253,200.000137,200.0,531.225647,78.356636,1342.714478,299.209076,15.426558,0.138581,0.177583,1239.81604,-0.007144,0.225433,0.1,0.0,1.0,2638.180908
82.757355,203.5914,204.784851,7.218756,1.731635,7.218756,1.731635,200.000137,200.0,535.587341,78.399323,1170.667847,299.40509,15.581741,0.164835,0.195565,1261.67749,-0.00753,0.174521,0.1,0.0,1.0,2637.931396
82.997086,210.104004,211.29744,6.765113,2.030051,6.765113,2.030051,210.000137,210.0,540.729187,78.466614,968.957581,299.711182,15.761279,0.192395,0.223432,1276.751099,-0.008246,0.144375,0.1,0.0,1.0,2637.782959
83.214447,214.338028,215.531464,6.788908,2.233433,6.788908,2.233433,210.000137,210.0,543.820679,78.516624,895.595337,299.877533,15.854882,0.197197,0.232827,1274.494507,-0.009667,0.135302,0.1,0.0,1.0,2637.804688
83.572876,220.300949,221.4944,6.550447,2.470847,6.550447,2.470847,220.000137,220.0,548.119934,78.595497,829.855774,300.041107,15.946342,0.195761,0.230481,1254.12207,-0.010635,0.135778,0.1,0.0,1.0,2637.986084
83.844131,224.182449,225.3759,6.230269,2.583526,6.230269,2.583526,220.000137,220.0,550.925842,78.652885,787.495789,300.120331,15.972914,0.192068,0.222805,1230.486938,-0.011766,0.131009,0.1,0.0,1.0,2638.213135
84.239151,229.287323,230.480774,5.885524,2.671895,5.885524,2.671895,230.000137,230.0,554.604492,78.737572,729.062195,300.231964,15.956774,0.183185,0.212166,1187.588013,-0.012303,0.124605,0.1,0.0,1.0,2638.665771
84.518478,232.573212,233.766647,5.732324,2.691733,5.732324,2.691733,230.000137,230.0,556.976196,78.798828,696.244019,300.322998,15.910024,0.175533,0.20717,1152.696045,-0.012723,0.11771,0.1,0.0,1.0,2639.057861
84.937706,237.205154,238.398605,5.612355,2.673888,5.612355,2.673888,240.000137,240.0,560.360046,78.895638,661.226746,300.496338,15.78915,0.163521,0.205292,1094.555786,-0.012818,0.114646,0.1,0.0,1.0,2639.750488
85.208145,240.115967,241.309402,5.546943,2.643669,5.546943,2.643669,240.000137,240.0,562.536743,78.963371,646.104797,300.637543,15.678436,0.156463,0.207821,1053.444824,-0.012733,0.112247,0.1,0.0,1.0,2640.268799
85.60144,244.254364,245.447815,5.468079,2.597368,5.468079,2.597368,240.000137,240.0,565.724121,79.069595,630.562256,300.88562,15.475102,0.14878,0.216778,990.763794,-0.012589,0.110939,0.1,0.0,1.0,2641.11377
85.852249,246.882172,248.075623,5.42813,2.577295,5.42813,2.577295,250.000137,250.0,567.813843,79.143394,623.923462,301.068512,15.319762,0.14583,0.224974,949.601868,-0.012368,0.109362,0.1,0.0,1.0,2641.71167
86.211082,250.665176,251.858612,5.403224,2.574557,5.403224,2.574557,250.000137,250.0,570.918213,79.258362,619.012878,301.35376,15.065755,0.144176,0.238008,891.030762,-0.012273,0.108563,0.1,0.0,1.0,2642.645752
86.447327,253.199326,254.392761,5.400597,2.591341,5.400597,2.591341,250.000137,250.0,573.066895,79.341034,618.995911,301.549225,14.879657,0.144342,0.245893,853.583313,-0.01226,0.108064,0.1,0.0,1.0,2643.3125
86.663216,255.577789,256.77124,5.406706,2.618311,5.406706,2.618311,260.000153,260.0,575.133179,79.422447,621.002258,301.729248,14.697121,0.145,0.251723,820.969299,-0.01234,0.108012,0.1,0.0,1.0,2643.96167
86.970253,259.067474,260.260925,5.426851,2.668264,5.426851,2.668264,260.000153,260.0,578.252136,79.548065,626.896973,301.980682,14.422032,0.145971,0.25672,778.768982,-0.012468,0.108134,0.1,0.0,1.0,2644.945557
87.250458,262.397064,263.590515,5.457068,2.714684,5.457068,2.714684,260.000153,260.0,581.319153,79.673912,635.074707,302.205231,14.159819,0.146041,0.257798,745.870605,-0.012706,0.108537,0.1,0.0,1.0,2645.906982
87.432785,264.657471,265.850891,5.483418,2.739472,5.483418,2.739472,260.000153,260.0,583.447388,79.762161,641.745117,302.351776,13.986506,0.145379,0.257163,727.901367,-0.012927,0.109141,0.1,0.0,1.0,2646.566162
87.70549,268.126129,269.31958,5.527717,2.762018,5.527717,2.762018,270.000153,270.0,586.775146,79.901054,653.256042,302.574677,13.735033,0.143503,0.255546,707.142761,-0.013045,0.109668,0.1,0.0,1.0,2647.578857
87.871284,270.375275,271.568726,5.561983,2.767819,5.561983,2.767819,270.000153,270.0,588.966614,79.992851,661.4021,302.722198,13.585136,0.141906,0.254935,697.800415,-0.013152,0.110554,0.1,0.0,1.0,2648.230957
88.115669,273.851318,275.044769,5.613582,2.768126,5.613582,2.768126,270.000153,270.0,592.400391,80.136742,674.698303,302.959595,13.379724,0.139312,0.255501,688.567993,-0.01318,0.11124,0.1,0.0,1.0,2649.225342
88.259293,276.027313,277.220764,5.64729,2.767129,5.64729,2.767129,280.000153,280.0,594.569824,80.227501,683.207642,303.114502,13.270394,0.138292,0.25695,685.916199,-0.013184,0.111911,0.1,0.0,1.0,2649.835205
88.465401,279.365906,280.559357,5.705411,2.76986,5.705411,2.76986,280.000153,280.0,597.9245,80.367287,696.772339,303.359833,13.135114,0.137166,0.260485,685.279297,-0.013177,0.112946,0.1,0.0,1.0,2650.747803
88.607124,281.774567,282.968018,5.748,2.777486,5.748,2.777486,280.000153,280.0,600.361877,80.468224,706.84375,303.539734,13.063762,0.136954,0.26355,686.88739,-0.01319,0.114108,0.1,0.0,1.0,2651.386475
88.803711,285.381836,286.575287,5.804001,2.799084,5.804001,2.799084,290.000153,290.0,604.033691,80.618988,721.691772,303.808075,13.000121,0.137424,0.268062,691.697327,-0.013226,0.11496,0.1,0.0,1.0,2652.310059
88.925438,287.753937,288.947388,5.842885,2.819263,5.842885,2.819263,290.000153,290.0,606.45575,80.717514,731.196289,303.981445,12.986951,0.137992,0.270648,696.308594,-0.013329,0.11608,0.1,0.0,1.0,2652.894531
89.098785,291.360901,292.554352,5.897999,2.855071,5.897999,2.855071,290.000153,290.0,610.148132,80.866158,745.296387,304.237579,13.009996,0.138935,0.273568,704.706055,-0.013425,0.116858,0.1,0.0,1.0,2653.749023
89.197838,293.594086,294.787537,5.934793,2.878425,5.934793,2.878425,290.000153,290.0,612.439026,80.957397,753.840942,304.391663,13.049623,0.139371,0.274799,710.4328,-0.013532,0.117569,0.1,0.0,1.0,2654.258301
89.365044,297.508667,298.702118,5.995411,2.917886,5.995411,2.917886,300.000153,300.0,616.458069,81.115479,768.716187,304.654053,13.163539,0.139874,0.276074,721.446838,-0.013707,0.118696,0.1,0.0,1.0,2655.11499
89.466957,300.019806,301.213226,6.03256,2.940931,6.03256,2.940931,300.000153,300.0,619.036255,81.21553,777.838928,304.818787,13.26471,0.139939,0.276601,728.967834,-0.013895,0.119908,0.1,0.0,1.0,2655.641113
89.611374,303.843842,305.037292,6.080327,2.971366,6.080327,2.971366,300.000153,300.0,622.959473,81.36573,790.894836,305.066864,13.457644,0.139821,0.277385,740.885498,-0.014004,0.120651,0.1,0.0,1.0,2656.409668
89.695023,306.210632,307.404083,6.111406,2.988437,6.111406,2.988437,310.000153,310.0,625.388245,81.457527,798.536865,305.22049,13.599056,0.139702,0.278103,748.133423,-0.014149,0.121607,0.1,0.0,1.0,2656.867432
89.833885,310.248505,311.441956,6.160905,3.015555,6.160905,3.015555,310.000153,310.0,629.525146,81.611771,811.0802,305.483032,13.875185,0.139534,0.279794,760.711609,-0.014231,0.122228,0.1,0.0,1.0,2657.617188
89.9207,313.018127,314.211578,6.197067,3.034326,6.197067,3.034326,310.000153,310.0,632.356445,81.715797,819.463013,305.663635,14.087562,0.13951,0.281311,769.449524,-0.01436,0.123218,0.1,0.0,1.0,2658.109375
90.035057,316.833771,318.027222,6.238522,3.060994,6.238522,3.060994,320.000153,320.0,636.25354,81.856888,830.588074,305.912201,14.407463,0.139669,0.283613,781.240234,-0.014449,0.123941,0.1,0.0,1.0,2658.760742
