airspeed_indicator_indicated_speed_kt,altimeter_indicated_altitude_ft,altimeter_pressure_alt_ft,attitude_indicator_indicated_pitch_deg,attitude_indicator_indicated_roll_deg,attitude_indicator_internal_pitch_deg,attitude_indicator_internal_roll_deg,encoder_indicated_altitude_ft,encoder_pressure_alt_ft,gps_indicated_altitude_ft,gps_indicated_ground_speed_kt,gps_indicated_vertical_speed,indicated_heading_deg,magnetic_compass_indicated_heading_deg,slip_skid_ball_indicated_slip_skid,turn_indicator_indicated_turn_rate,vertical_speed_indicator_indicated_speed_fpm,flight_aileron,flight_elevator,flight_rudder,flight_flaps,engine_throttle,engine_rpm
24.891726,-239.376968,-238.183517,3.032425,0.692605,2.700168,-0.414916,-239.999863,-240.0,17.857592,1.1E-4,0.024318,297.862396,97.839783,0.043719,-0.02453,-1673.54248,-0.0,0.0,0.0,0.0,0.0,605.542786
24.916653,-244.786148,-243.592712,3.045602,0.686087,2.715295,-0.414936,-239.999863,-240.0,17.857677,1.8E-4,0.024017,297.86145,95.120018,0.04372,-0.022205,-1674.0,-0.0,0.0,0.0,0.0,0.0,605.498291
24.894699,-252.221085,-251.027634,2.896303,0.149832,2.726828,-0.415085,-249.999863,-250.0,17.857725,1.89E-4,-0.003015,297.860291,91.621315,0.043635,-0.019359,-1674.389404,-0.009801,0.054306,4.7E-5,0.0,1.0,667.8479
24.893726,-258.085144,-256.891693,2.766345,-0.235987,2.712229,-0.416373,-249.999863,-250.0,17.857666,2.7E-4,-0.030448,297.859406,89.082909,0.04346,-0.017401,-1674.83374,-0.00214,0.054537,1.05E-4,0.0,1.0,787.220215
24.896189,-265.751862,-264.558441,2.670806,-0.421348,2.670806,-0.421348,-259.999847,-260.0,17.857517,8.75E-4,-0.016112,297.858185,86.079865,0.043388,-0.015237,-1675.226807,0.003371,0.054245,1.5E-4,0.0,1.0,997.219482
24.90234,-274.551392,-273.357941,2.658379,-0.432353,2.658379,-0.432353,-269.999847,-270.0,17.857588,0.004601,0.039894,297.855988,83.105621,0.042991,-0.013344,-1675.737915,0.006019,0.053416,2.11E-4,0.0,1.0,1264.325562
24.905039,-279.734589,-278.541138,2.665653,-0.441086,2.665653,-0.441086,-279.999847,-280.0,17.857765,0.009903,0.070174,297.853851,81.597359,0.043304,-0.012551,-1675.730225,0.006176,0.053168,3.2E-4,0.0,1.0,1416.917725
24.921801,-287.851227,-286.657776,2.68541,-0.456784,2.68541,-0.456784,-279.999847,-280.0,17.858227,0.025576,0.112647,297.84848,79.612099,0.044538,-0.011834,-1675.791382,0.006301,0.053313,4.27E-4,0.0,1.0,1631.386719
23.50318,-293.228638,-292.035187,2.700729,-0.468192,2.700729,-0.468192,-289.999847,-290.0,17.858671,0.043454,0.142291,297.842529,78.505463,0.045707,-0.011767,-1665.693359,0.006525,0.053708,6.96E-4,0.0,1.0,1757.840088
20.378595,-299.164734,-297.971283,2.720623,-0.483583,2.720623,-0.483583,-299.999847,-300.0,17.859472,0.080563,0.187645,297.830017,77.329651,0.047055,-0.012333,-1592.983032,0.006688,0.054015,9.93E-4,0.0,1.0,1902.388428
18.451021,-302.457062,-301.263611,2.733173,-0.493496,2.733173,-0.493496,-299.999847,-300.0,17.860182,0.117008,0.221007,297.8172,76.752907,0.048174,-0.013279,-1509.144165,0.006908,0.054412,0.001619,0.0,1.0,1983.922607
16.154284,-306.04837,-304.854919,2.747367,-0.505259,2.747367,-0.505259,-299.999847,-300.0,17.861389,0.183568,0.275405,297.793854,76.303833,0.050626,-0.015251,-1359.943604,0.00705,0.054663,0.00226,0.0,1.0,2071.942627
14.790997,-308.039886,-306.846466,2.755543,-0.512047,2.755543,-0.512047,-309.999847,-310.0,17.862423,0.24297,0.317643,297.77301,76.23011,0.052113,-0.017101,-1236.422729,0.007218,0.054947,0.003427,0.0,1.0,2119.272949
13.260894,-310.211823,-309.018372,2.76436,-0.519346,2.76436,-0.519346,-309.999847,-310.0,17.864126,0.343547,0.382525,297.739532,76.455185,0.053775,-0.020002,-1046.689087,0.007315,0.055111,0.004469,0.0,1.0,2168.43457
12.433615,-311.415863,-310.222412,2.769392,-0.523185,2.769392,-0.523185,-309.999847,-310.0,17.865541,0.428136,0.430089,297.712616,76.837135,0.054636,-0.022266,-902.85376,0.007419,0.055287,0.006143,0.0,1.0,2193.925537
11.634683,-312.728455,-311.535004,2.774808,-0.526946,2.774808,-0.526946,-309.999847,-310.0,17.867813,0.564637,0.502642,297.673828,77.657845,0.055529,-0.025164,-695.379028,0.007474,0.055388,0.007489,0.0,1.0,2219.471924
11.306835,-313.455719,-312.262299,2.778031,-0.5287,2.778031,-0.5287,-309.999847,-310.0,17.869652,0.675064,0.554125,297.645844,78.431648,0.055986,-0.027005,-546.906067,0.007528,0.055496,0.009428,0.0,1.0,2232.162354
11.153214,-314.247986,-313.054535,2.78179,-0.530182,2.78179,-0.530182,-309.999847,-310.0,17.87254,0.847632,0.630061,297.609741,79.749504,0.056468,-0.028746,-348.262848,0.007553,0.055561,0.010828,0.0,1.0,2244.193848
11.232934,-314.686493,-313.493042,2.784271,-0.530692,2.784271,-0.530692,-309.999847,-310.0,17.87483,0.983574,0.685296,297.586487,80.839401,0.056811,-0.029427,-224.520462,0.007574,0.055636,0.012633,0.0,1.0,2249.683594
11.559461,-315.163544,-313.970123,2.787485,-0.5309,2.787485,-0.5309,-309.999847,-310.0,17.878357,1.19132,0.763107,297.559937,82.542534,0.057352,-0.029291,-110.046371,0.007581,0.055685,0.013795,0.0,1.0,2254.195801
11.915089,-315.427124,-314.233673,2.789794,-0.530738,2.789794,-0.530738,-309.999847,-310.0,17.881111,1.351913,0.819213,297.545258,83.865608,0.057813,-0.028529,-77.062721,0.007584,0.05575,0.015123,0.0,1.0,2255.710449
12.540678,-315.713135,-314.519714,2.793012,-0.530188,2.793012,-0.530188,-309.999847,-310.0,17.885292,1.593404,0.898431,297.531311,85.835403,0.058691,-0.026548,-54.774937,0.007582,0.055796,0.015857,0.0,1.0,2256.091797
13.013679,-315.859253,-314.665802,2.795222,-0.529611,2.795222,-0.529611,-309.999847,-310.0,17.888248,1.76243,0.95045,297.525482,87.186981,0.059253,-0.024875,-44.377289,0.007574,0.05586,0.016554,0.0,1.0,2255.50708
13.871214,-316.044922,-314.851471,2.798912,-0.528344,2.798912,-0.528344,-309.999847,-310.0,17.893496,2.059122,1.036234,297.520386,89.48468,0.060425,-0.021739,-31.390026,0.007566,0.055904,0.016846,0.0,1.0,2253.491943
14.719391,-316.168701,-314.97525,2.802474,-0.526712,2.802474,-0.526712,-309.999847,-310.0,17.898729,2.351017,1.114447,297.518158,91.635231,0.061366,-0.018892,-22.765453,0.007548,0.055978,0.0171,0.0,1.0,2251.118408
15.323103,-316.233612,-315.040161,2.804978,-0.525131,2.804978,-0.525131,-319.999847,-320.0,17.902538,2.561161,1.168911,297.516693,93.108932,0.061831,-0.017162,-19.867477,0.007524,0.056049,0.017212,0.0,1.0,2250.542725
16.253143,-316.307556,-315.114105,2.808888,-0.522201,2.808888,-0.522201,-319.999847,-320.0,17.908592,2.89114,1.250005,297.512665,95.289841,0.06209,-0.015161,-18.190464,0.007502,0.0561,0.017285,0.0,1.0,2251.061768
16.912113,-316.345795,-315.152344,2.811862,-0.519911,2.811862,-0.519911,-319.999847,-320.0,17.913036,3.130441,1.306011,297.507507,96.766708,0.061923,-0.014316,-15.573265,0.00746,0.056178,0.017487,0.0,1.0,2252.033936
17.847191,-316.385406,-315.191986,2.816189,-0.516454,2.816189,-0.516454,-319.999847,-320.0,17.919577,3.479035,1.327247,297.496155,98.758385,0.061112,-0.013916,-18.143112,0.007427,0.056237,0.017744,0.0,1.0,2253.881836
18.522543,-316.405884,-315.212433,2.815243,-0.517248,2.815243,-0.517248,-319.999847,-320.0,17.924088,3.737486,1.288928,297.484741,100.112854,0.059656,-0.014274,-11.973407,0.007378,0.056324,0.018312,0.0,1.0,2255.412598
19.502367,-316.426636,-315.233185,2.815869,-0.518716,2.815869,-0.518716,-319.999847,-320.0,17.930393,4.123122,1.258312,297.464691,101.942764,0.058742,-0.015259,-20.12981,0.007389,0.056305,0.018883,0.0,1.0,2257.785156
20.15914,-316.435944,-315.242523,2.819665,-0.516197,2.819665,-0.516197,-319.999847,-320.0,17.934679,4.388829,1.307853,297.448883,103.073112,0.05786,-0.016142,-15.671722,0.00741,0.056317,0.019885,0.0,1.0,2259.428955
21.147413,-316.444733,-315.251282,2.825808,-0.512083,2.825808,-0.512083,-319.999847,-320.0,17.941399,4.79995,1.375816,297.423523,104.619087,0.056085,-0.017548,-19.214735,0.007374,0.056393,0.020676,0.0,1.0,2261.938965
21.807877,-316.447784,-315.254333,2.829895,-0.509351,2.829895,-0.509351,-319.999847,-320.0,17.946066,5.0822,1.420399,297.405884,105.542763,0.054872,-0.018483,-9.19984,0.007315,0.056516,0.021944,0.0,1.0,2263.625488
22.799892,-316.449066,-315.255646,2.835889,-0.505488,2.835889,-0.505488,-319.999847,-320.0,17.953341,5.517481,1.486889,297.380737,106.758003,0.053255,-0.019504,-16.107216,0.007276,0.056598,0.022826,0.0,1.0,2266.159668
23.461769,-316.448181,-315.25473,2.840061,-0.502976,2.840061,-0.502976,-319.999847,-320.0,17.958376,5.815409,1.530568,297.36496,107.450516,0.052405,-0.019949,-11.794673,0.007221,0.056718,0.024083,0.0,1.0,2267.847656
24.454729,-316.444733,-315.251312,2.846375,-0.499409,2.846375,-0.499409,-319.999847,-320.0,17.966204,6.273577,1.596454,297.344238,108.30838,0.05155,-0.020068,17.947369,0.007185,0.056801,0.024872,0.0,1.0,2270.373779
25.419882,-316.439484,-315.246033,2.852815,-0.495943,2.852815,-0.495943,-319.999847,-320.0,17.974133,6.73162,1.661571,297.326782,108.932487,0.051132,-0.357244,18.201595,0.007134,0.056927,0.025908,0.0,1.0,2272.822266
26.081306,-316.434998,-315.241547,2.857351,-0.493489,2.857351,-0.493489,-319.999847,-320.0,17.979752,7.05268,1.706489,297.315796,109.241394,0.051014,-0.561559,15.286551,0.007085,0.057056,0.026781,0.0,1.0,2274.496582
27.018309,-316.427612,-315.234192,2.86374,-0.489938,2.86374,-0.489938,-319.999847,-320.0,17.987967,7.516947,1.768591,297.301178,109.516228,0.050926,-0.818104,13.382524,0.00705,0.057147,0.02733,0.0,1.0,2276.864502
27.678446,-316.421844,-315.228394,2.867911,-0.487708,2.867911,-0.487708,-319.999847,-320.0,17.993525,7.851156,1.928836,297.290588,109.598351,0.049971,-0.978476,16.04888,0.006999,0.057275,0.028061,0.0,1.0,2278.532471
28.749743,-316.41156,-315.218109,2.885308,-0.48264,2.885308,-0.48264,-319.999847,-320.0,18.004517,8.405349,2.327205,297.271454,109.542999,0.049555,-1.207119,14.909898,0.006967,0.057358,0.02859,0.0,1.0,2281.239258
29.708487,-316.401093,-315.207642,2.892367,-0.478041,2.892367,-0.478041,-319.999847,-320.0,18.015963,8.914021,2.384048,297.250793,109.306091,0.048548,-1.382901,15.108718,0.006895,0.057706,0.029547,0.0,1.0,2283.664551
30.393173,-316.392944,-315.199493,2.896272,-0.474521,2.896272,-0.474521,-319.999847,-320.0,18.024324,9.283705,2.430372,297.233826,109.036354,0.047517,-1.493629,15.893294,0.006829,0.057847,0.03058,0.0,1.0,2285.395508
31.349665,-316.380737,-315.187286,2.902353,-0.469465,2.902353,-0.469465,-319.999847,-320.0,18.036331,9.809871,2.507916,297.207733,108.529976,0.045526,-1.630457,10.902597,0.006779,0.057925,0.031429,0.0,1.0,2287.817871
32.032703,-316.371552,-315.178101,2.907232,-0.465675,2.907232,-0.465675,-319.999847,-320.0,18.045134,10.191683,2.559701,297.187195,108.084648,0.04397,-1.716647,17.844259,0.006707,0.058047,0.032733,0.0,1.0,2289.54834
33.013905,-316.357697,-315.164246,2.914322,-0.460396,2.914322,-0.460396,-319.999847,-320.0,18.058142,10.749964,2.639555,297.156433,107.335632,0.041498,-1.825973,20.159334,0.006653,0.058145,0.03376,0.0,1.0,2292.038818
33.639469,-316.34848,-315.155029,2.91906,-0.456953,2.91906,-0.456953,-319.999847,-320.0,18.066658,11.111731,2.687387,297.136139,106.798813,0.039852,-1.887691,15.275235,0.006577,0.058286,0.035298,0.0,1.0,2293.629883
34.645306,-316.333252,-315.139832,2.923184,-0.456981,2.923184,-0.456981,-319.999847,-320.0,18.079708,11.70176,2.827334,297.104279,105.855843,0.037482,-1.975341,11.734441,0.006528,0.058381,0.036313,0.0,1.0,2296.190186
35.268604,-316.323608,-315.130157,2.930091,-0.454138,2.930091,-0.454138,-319.999847,-320.0,18.088406,12.0734,2.752671,297.085022,105.229012,0.036469,-2.023382,19.215364,0.006528,0.058464,0.037906,0.0,1.0,2297.781738
36.269707,-316.307678,-315.114227,2.938177,-0.449429,2.938177,-0.449429,-319.999847,-320.0,18.102758,12.678813,2.827669,297.056091,104.171776,0.03532,-2.091609,9.067967,0.006488,0.058602,0.038869,0.0,1.0,2300.342529
36.890549,-316.297485,-315.104034,2.943057,-0.446391,2.943057,-0.446391,-319.999847,-320.0,18.111877,13.059709,2.875669,297.038879,103.492905,0.034757,-2.129004,19.716963,0.00642,0.058764,0.040315,0.0,1.0,2301.933838
37.887325,-316.280731,-315.08728,2.950715,-0.441625,2.950715,-0.441625,-319.999847,-320.0,18.126869,13.679533,2.953078,297.012939,102.381989,0.034227,-2.182111,10.251155,0.006377,0.058861,0.041176,0.0,1.0,2304.494385
38.505386,-316.270081,-315.07663,2.955636,-0.438533,2.955636,-0.438533,-319.999847,-320.0,18.136391,14.069095,3.001111,296.996979,101.687981,0.033949,-2.211219,9.801196,0.006309,0.059014,0.042473,0.0,1.0,2306.085693
39.498085,-316.252686,-315.059235,2.960676,-0.436372,2.960676,-0.436372,-319.999847,-320.0,18.151249,14.702402,2.915127,296.971283,100.580826,0.033489,-2.252557,17.061714,0.006265,0.059113,0.043271,0.0,1.0,2308.645752
40.113522,-316.24173,-315.048279,2.965652,-0.432426,2.965652,-0.432426,-319.999847,-320.0,18.160561,15.100068,2.875769,296.954346,99.905792,0.033375,-2.275214,18.343861,0.006234,0.059214,0.044556,0.0,1.0,2310.236572
41.101818,-316.22403,-315.030579,2.971364,-0.423493,2.971364,-0.423493,-319.999847,-320.0,18.17535,15.745972,2.880424,296.925354,98.854088,0.032434,-2.307392,15.281814,0.006178,0.059313,0.045403,0.0,1.0,2312.796143
42.060318,-316.206665,-315.013214,2.978936,-0.417696,2.978936,-0.417696,-319.999847,-320.0,18.189949,16.381464,2.951168,296.893616,97.885139,0.030692,-2.334272,9.266244,0.00605,0.059427,0.046852,0.0,1.0,2315.285889
42.697784,-316.195007,-315.001556,2.984054,-0.413764,2.984054,-0.413764,-319.999847,-320.0,18.199875,16.808838,2.996823,296.870422,97.275795,0.029236,-2.350075,14.81688,0.005967,0.059579,0.048439,0.0,1.0,2316.945313
43.651398,-316.177307,-314.983887,2.991373,-0.407955,2.991373,-0.407955,-309.999847,-310.0,18.215042,17.45525,3.06281,296.834351,96.425552,0.026754,-2.370999,9.078347,0.005911,0.059681,0.049599,0.0,1.0,2319.482666
44.285023,-316.165375,-314.971954,3.00123,-0.408665,3.00123,-0.408665,-309.999847,-310.0,18.226017,17.889629,3.614491,296.809143,95.90564,0.024124,-2.383299,15.824924,0.005828,0.059827,0.051402,0.0,1.0,2321.863525
45.204926,-316.147156,-314.953705,3.014643,-0.408656,3.014643,-0.408656,-309.999847,-310.0,18.245342,18.527819,4.02944,296.772949,95.220726,0.022354,-2.399166,15.690464,0.005838,0.060025,0.052663,0.0,1.0,2326.420166
45.861755,-316.133423,-314.939972,3.019515,-0.404951,3.019515,-0.404951,-309.999847,-310.0,18.259409,18.986982,4.07198,296.747284,94.787796,0.021253,-2.409161,16.506994,0.005838,0.060293,0.054472,0.0,1.0,2330.172607
46.779602,-316.113342,-314.919891,3.025883,-0.39988,3.025883,-0.39988,-309.999847,-310.0,18.2794,19.634298,4.152672,296.712952,94.264008,0.019846,-2.421511,20.859835,0.005785,0.06039,0.055756,0.0,1.0,2335.839111
47.435284,-316.09845,-314.905029,3.03093,-0.39624,3.03093,-0.39624,-309.999847,-310.0,18.293911,20.099777,4.203855,296.688904,93.950104,0.019113,-2.429291,16.277794,0.005713,0.060518,0.057472,0.0,1.0,2340.073242
48.35202,-316.076996,-314.883575,3.038055,-0.391446,3.038055,-0.391446,-309.999847,-310.0,18.314564,20.755671,4.286188,296.656464,93.596024,0.018417,-2.438905,16.404205,0.005661,0.060619,0.058675,0.0,1.0,2346.15625
48.999855,-316.061279,-314.867859,3.043259,-0.388017,3.043259,-0.388017,-309.999847,-310.0,18.329559,21.227097,4.342662,296.633575,93.404076,0.018167,-2.444961,14.461159,0.005592,0.060761,0.060297,0.0,1.0,2350.570801
49.862331,-316.038086,-314.844635,3.050285,-0.384018,3.050285,-0.384018,-309.999847,-310.0,18.351412,21.910114,4.399237,296.602356,93.215683,0.017556,-2.452642,14.053219,0.005543,0.060865,0.061441,0.0,1.0,2356.82959
50.43697,-316.022308,-314.828857,3.054822,-0.381975,3.054822,-0.381975,-309.999847,-310.0,18.366156,22.368124,4.446701,296.583527,93.146461,0.017239,-2.457158,14.356655,0.005486,0.061006,0.063002,0.0,1.0,2360.927979
51.274845,-315.998901,-314.80545,3.058563,-0.382583,3.058563,-0.382583,-309.999847,-310.0,18.387543,23.039778,4.164931,296.561646,93.123306,0.017031,-2.462983,11.277807,0.005457,0.061096,0.063943,0.0,1.0,2366.84375
52.161297,-315.974152,-314.780701,3.06089,-0.385377,3.06089,-0.385377,-309.999847,-310.0,18.407959,23.754492,3.995274,296.545776,93.193947,0.019144,-2.468282,14.577126,0.005465,0.061171,0.065037,0.0,1.0,2373.054932
52.735813,-315.958221,-314.764771,3.065573,-0.384659,3.065573,-0.384659,-309.999847,-310.0,18.421377,24.220587,4.052183,296.539032,93.288666,0.021055,-2.471306,14.475647,0.005505,0.061218,0.065831,0.0,1.0,2377.072266
53.573013,-315.935028,-314.741577,3.072372,-0.383764,3.072372,-0.383764,-309.999847,-310.0,18.441275,24.903732,4.131334,296.532837,93.490471,0.024754,-2.475207,10.943883,0.005495,0.061311,0.066168,0.0,1.0,2382.923096
54.17065,-315.918427,-314.724976,3.077102,-0.383052,3.077102,-0.383052,-309.999847,-310.0,18.455715,25.394114,4.184191,296.529297,93.677155,0.027474,-2.477665,14.48722,0.005482,0.061447,0.066478,0.0,1.0,2387.101074
55.030819,-315.89444,-314.701019,3.083323,-0.381871,3.083323,-0.381871,-309.999847,-310.0,18.476837,26.103699,4.261132,296.522736,94.001587,0.031394,-2.480782,14.609985,0.005472,0.061542,0.066655,0.0,1.0,2393.119629
55.603958,-315.878357,-314.684906,3.088496,-0.380886,3.088496,-0.380886,-309.999847,-310.0,18.49135,26.578947,4.432866,296.51593,94.250198,0.03357,-2.482614,14.740477,0.005455,0.061666,0.066983,0.0,1.0,2397.135254
56.439362,-315.854584,-314.661133,3.095428,-0.379233,3.095428,-0.379233,-309.999847,-310.0,18.513163,27.275063,4.629053,296.501343,94.652214,0.03592,-2.484978,11.65638,0.005441,0.06177,0.067323,0.0,1.0,2402.998047
57.033276,-315.837311,-314.64386,3.105809,-0.380696,3.105809,-0.380696,-309.999847,-310.0,18.53121,27.774433,5.305942,296.487274,94.963463,0.036498,-2.486467,15.428897,0.005418,0.061909,0.068053,0.0,1.0,2407.188477
57.886074,-315.811981,-314.61853,3.111298,-0.378504,3.111298,-0.378504,-309.999847,-310.0,18.557915,28.496563,5.375714,296.463074,95.439194,0.036523,-2.488356,15.833416,0.005439,0.062116,0.068756,0.0,1.0,2413.216797
58.454288,-315.794861,-314.60141,3.114591,-0.377097,3.114591,-0.377097,-309.999847,-310.0,18.57593,28.979918,5.430111,296.445038,95.769829,0.035961,-2.489466,16.081974,0.005407,0.062226,0.069966,0.0,1.0,2417.235352
59.282383,-315.769531,-314.57608,3.115758,-0.378719,3.115758,-0.378719,-309.999847,-310.0,18.601917,29.687494,4.557404,296.419037,96.264061,0.034542,-2.490898,18.289207,0.005387,0.062292,0.070868,0.0,1.0,2423.098877
60.134575,-315.743713,-314.550262,3.117648,-0.37935,3.117648,-0.37935,-309.999847,-310.0,18.625818,30.41852,4.819678,296.394958,96.778488,0.033762,-2.492168,18.759914,0.00541,0.062315,0.072168,0.0,1.0,2429.137451
60.701817,-315.726746,-314.533295,3.121881,-0.378508,3.121881,-0.378508,-309.999847,-310.0,18.641994,30.907633,4.881546,296.381439,97.120087,0.033518,-2.492915,18.564829,0.005419,0.062353,0.073372,0.0,1.0,2433.167725
61.551559,-315.701477,-314.508026,3.128157,-0.377807,3.128157,-0.377807,-309.999847,-310.0,18.66663,31.643856,4.985852,296.366455,97.623833,0.034144,-2.493904,18.396072,0.005407,0.062438,0.074048,0.0,1.0,2439.252441
62.140713,-315.68396,-314.490509,3.133296,-0.377479,3.133296,-0.377479,-309.999847,-310.0,18.684315,32.156868,5.137187,296.359406,97.963707,0.035206,-2.494508,20.813393,0.005397,0.062563,0.074797,0.0,1.0,2443.53833
62.917152,-315.660675,-314.467255,3.143032,-0.379418,3.143032,-0.379418,-309.999847,-310.0,18.709072,32.836151,5.942902,296.353394,98.395012,0.037389,-2.495215,12.559143,0.005393,0.062666,0.075149,0.0,1.0,2449.245605
63.527401,-315.641815,-314.448364,3.14903,-0.379561,3.14903,-0.379561,-309.999847,-310.0,18.730654,33.372974,6.002759,296.350067,98.717865,0.040129,-2.495707,21.30934,0.00542,0.062861,0.07545,0.0,1.0,2453.767822
64.371864,-315.614746,-314.421295,3.153876,-0.379747,3.153876,-0.379747,-309.999847,-310.0,18.76086,34.118557,6.081576,296.344818,99.135704,0.044184,-2.496306,20.703043,0.005422,0.062981,0.075616,0.0,1.0,2460.053711
64.934906,-315.596191,-314.40274,3.157115,-0.375092,3.157115,-0.375092,-309.999847,-310.0,18.781235,34.617043,6.141668,296.327759,99.393089,0.044728,-2.496659,19.370794,0.005425,0.063078,0.0,0.0,1.0,2464.256592
65.788879,-315.567657,-314.374207,3.156295,-0.36504,3.156295,-0.36504,-309.999847,-310.0,18.812132,35.366901,6.209899,296.0401,99.743332,0.030398,-2.497125,11.997041,0.005358,0.063142,8.53E-4,0.0,1.0,2470.592773
66.364769,-315.548248,-314.354797,3.15177,-0.371813,3.15177,-0.371813,-309.999847,-310.0,18.83289,35.868244,6.242089,295.678955,99.949074,0.00664,-2.497399,15.382978,0.005215,0.063126,0.015236,0.0,1.0,2474.852783
67.234665,-315.518646,-314.325195,3.141824,-0.400762,3.141824,-0.400762,-309.999847,-310.0,18.863588,36.62249,5.807075,295.022095,100.206963,-0.048079,-2.497762,13.493683,0.005312,0.063035,0.033293,0.0,1.0,2481.303955
67.818008,-315.498962,-314.305511,3.132604,-0.426322,3.132604,-0.426322,-309.999847,-310.0,18.881998,37.126877,5.473286,294.588898,100.339371,-0.089338,-2.497976,16.103165,0.005725,0.062836,0.066136,0.0,1.0,2485.642822
68.691231,-315.469818,-314.276367,3.134366,-0.457907,3.134366,-0.457907,-309.999847,-310.0,18.909519,37.888542,5.534483,294.11673,100.47052,-0.145805,-2.498258,13.139885,0.00609,0.062652,0.087796,0.0,1.0,2492.196289
69.294235,-315.449768,-314.256348,3.139923,-0.478732,3.139923,-0.478732,-309.999847,-310.0,18.929304,38.419334,6.048046,293.976257,100.51133,-0.171359,-2.498431,16.955698,0.006542,0.062687,0.111404,0.0,1.0,2496.760498
70.14225,-315.421265,-314.227814,3.111129,-0.574788,3.111129,-0.574788,-309.999847,-310.0,18.961508,39.164482,7.009015,294.094177,100.499611,-0.183656,-2.498644,11.687458,0.006839,0.062798,0.118428,0.0,1.0,2503.169434
70.746849,-315.400085,-314.206635,3.070341,-0.669904,3.070341,-0.669904,-309.999847,-310.0,18.985863,39.698215,6.888195,294.384979,100.444801,-0.171054,-2.498779,11.600848,0.008211,0.062223,0.112532,0.0,1.0,2507.766602
71.572227,-315.36969,-314.176239,3.043633,-0.748495,3.043633,-0.748495,-309.999847,-310.0,19.017494,40.447319,6.146792,294.960724,100.311157,-0.124292,-2.498945,19.378477,0.00957,0.061407,0.097992,0.0,1.0,2514.180176
72.122261,-315.348785,-314.155334,3.049415,-0.754028,3.049415,-0.754028,-309.999847,-310.0,19.037729,40.962051,6.19382,295.376831,100.187927,-0.080688,-2.499045,19.344639,0.010693,0.060873,0.069205,0.0,1.0,2518.525635
72.935844,-315.316956,-314.123505,3.019092,-0.642537,3.019092,-0.642537,-309.999847,-310.0,19.075592,41.73539,8.958018,295.840607,99.967567,-0.011297,-2.499178,20.13435,0.010772,0.060988,0.048399,0.0,1.0,2524.947021
73.481689,-315.294098,-314.100647,2.933398,-0.494086,2.933398,-0.494086,-309.999847,-310.0,19.106724,42.25161,9.38325,295.970703,99.803017,0.028913,-2.499257,21.618425,0.009179,0.060382,0.025211,0.0,1.0,2529.189941
74.31649,-315.257233,-314.063782,2.80861,-0.27739,2.80861,-0.27739,-309.999847,-310.0,19.150272,43.026875,8.015739,295.831543,99.534973,0.070524,-2.499361,21.913382,0.007058,0.058668,0.018706,0.0,1.0,2535.565674
74.883232,-315.231964,-314.038513,2.762184,-0.226013,2.762184,-0.226013,-309.999847,-310.0,19.1765,43.544434,7.806254,295.54361,99.342628,0.081301,-2.499422,22.130152,0.003963,0.056172,0.025664,0.0,1.0,2539.852539
75.719215,-315.194733,-314.001282,2.710914,-0.398849,2.710914,-0.398849,-309.999847,-310.0,19.216778,44.300438,9.243035,294.988708,99.040367,0.076269,-2.4995,14.468284,0.003229,0.055244,0.04006,0.0,1.0,2546.176514
76.318733,-315.16684,-313.973419,2.688466,-0.703715,2.688466,-0.703715,-309.999847,-310.0,19.254568,44.841476,12.7894,294.606171,98.806,0.059194,-2.49955,13.877379,0.005698,0.054218,0.067805,0.0,1.0,2550.744873
77.197838,-315.118408,-313.924957,2.744559,-1.324444,2.744559,-1.324444,-309.999847,-310.0,19.34775,45.643871,24.837742,294.263885,98.427361,0.03056,-2.499614,21.813511,0.010053,0.053769,0.086932,0.0,1.0,2557.558594
78.004539,-315.052032,-313.858582,2.889769,-1.888323,2.889769,-1.888323,-309.999847,-310.0,19.518206,46.404415,46.241577,294.280365,98.036507,0.011639,-2.499667,22.518555,0.018921,0.054891,0.104047,0.0,1.0,2564.010498
78.532127,-314.983917,-313.790466,3.020829,-2.127701,3.020829,-2.127701,-309.999847,-310.0,19.705229,46.926399,65.64653,294.471405,97.755356,0.009621,-2.499698,24.134068,0.024292,0.056569,0.105544,0.0,1.0,2568.395752
79.031174,-314.888092,-313.694641,3.177191,-2.203816,3.177191,-2.203816,-309.999847,-310.0,19.961969,47.448368,88.008957,294.752655,97.469658,0.017804,-2.499727,33.394402,0.030396,0.060417,0.093671,0.0,1.0,2572.70874
79.688583,-314.688446,-313.494995,3.380105,-1.987026,3.380105,-1.987026,-309.999847,-310.0,20.460588,48.187027,122.257904,295.154999,97.069939,0.041326,-2.499763,50.407219,0.031483,0.063544,0.079608,0.0,1.0,2578.633789
80.36721,-314.352997,-313.159546,3.580178,-1.431367,3.580178,-1.431367,-309.999847,-310.0,21.208084,49.010208,159.793655,295.404877,96.650955,0.076987,-2.499798,73.652901,0.028386,0.067602,0.059491,0.0,1.0,2584.953369
80.778793,-314.069885,-312.876434,3.667243,-1.039635,3.667243,-1.039635,-309.999847,-310.0,21.778992,49.528217,181.282028,295.379364,96.410904,0.094701,-2.499817,89.982903,0.023245,0.070483,0.049194,0.0,1.0,2588.793213
81.389145,-313.535889,-312.342438,3.771981,-0.577797,3.771981,-0.577797,-309.999847,-310.0,22.758448,50.30191,209.311829,295.091339,96.094925,0.104942,-2.425541,114.90834,0.014852,0.073345,0.048273,0.0,1.0,2593.80835
81.798508,-313.085022,-311.891571,3.835654,-0.442342,3.835654,-0.442342,-309.999847,-310.0,23.517246,50.836666,226.865173,294.785736,95.908325,0.099348,-2.321284,133.18605,0.008254,0.07544,0.062674,0.0,1.0,2596.611572
82.365105,-312.345886,-311.152435,3.923033,-0.542233,3.923033,-0.542233,-309.999847,-310.0,24.67696,51.581642,249.310165,294.393646,95.691124,0.077156,-2.134074,157.963867,0.006319,0.076713,0.077954,0.0,1.0,2599.92749
82.759628,-311.743469,-310.550018,3.998942,-0.750904,3.998942,-0.750904,-309.999847,-310.0,25.570438,52.111012,264.789001,294.232239,95.565773,0.05986,-1.974931,175.058395,0.007746,0.078461,0.097559,0.0,1.0,2601.995117
83.288467,-310.798004,-309.604553,4.11468,-1.067235,4.11468,-1.067235,-309.999847,-310.0,26.912426,52.847904,286.715607,294.262939,95.430786,0.040523,-1.71832,198.589066,0.010727,0.079979,0.105629,0.0,1.0,2604.600098
83.643776,-310.051971,-308.858521,4.21325,-1.203867,4.21325,-1.203867,-309.999847,-310.0,27.936827,53.370872,303.147156,294.454376,95.364449,0.038295,-1.521059,214.947098,0.015246,0.082294,0.104094,0.0,1.0,2606.302979
84.101662,-308.907684,-307.714233,4.355144,-1.144413,4.355144,-1.144413,-309.999847,-310.0,29.47814,54.097576,330.96167,294.838684,95.31868,0.052013,-1.252233,237.984421,0.017198,0.084265,0.094522,0.0,1.0,2608.50708
84.401115,-308.017303,-306.823853,4.472541,-0.928032,4.472541,-0.928032,-309.999847,-310.0,30.667439,54.612255,353.678772,295.098328,95.324036,0.06938,-1.082224,254.758209,0.016349,0.087103,0.075307,0.0,1.0,2609.969482
84.779572,-306.701355,-305.507904,4.619207,-0.493783,4.619207,-0.493783,-309.999847,-310.0,32.415459,55.305641,384.726837,295.284698,95.388718,0.095644,-0.901995,278.805878,0.013258,0.089451,0.062325,0.0,1.0,2611.830566
85.047607,-305.653748,-304.460327,4.709087,-0.167271,4.709087,-0.167271,-299.999847,-300.0,33.785732,55.81036,403.319672,295.259644,95.481171,0.112469,-0.810448,297.184967,0.007054,0.092384,0.053006,0.0,1.0,2613.124023
85.446007,-303.98111,-302.787659,4.771967,0.134711,4.771967,0.134711,-299.999847,-300.0,35.916077,56.549206,424.17038,295.006683,95.687363,0.11826,-0.728603,324.241302,0.00239,0.094182,0.054259,0.0,1.0,2614.956787
85.824059,-302.272064,-301.078613,4.806048,0.134465,4.806048,0.134465,-299.999847,-300.0,38.018066,57.239323,439.766876,294.67572,95.951088,0.103983,-0.68098,348.73172,-0.001924,0.095439,0.066907,0.0,1.0,2616.632568
86.083107,-301.034332,-299.840881,4.838731,-0.020547,4.838731,-0.020547,-299.999847,-300.0,39.500904,57.707733,449.514404,294.506927,96.164146,0.087784,-0.645493,364.737122,-0.002452,0.095841,0.077017,0.0,1.0,2617.758789
86.464157,-299.087677,-297.894226,4.916012,-0.352919,4.916012,-0.352919,-299.999847,-300.0,41.788166,58.403061,465.349945,294.442261,96.523216,0.065242,-0.570528,386.947601,2.94E-4,0.096775,0.091895,0.0,1.0,2619.414551
86.716591,-297.676544,-296.483093,4.979694,-0.547224,4.979694,-0.547224,-299.999847,-300.0,43.426205,58.880672,477.859619,294.555969,96.795914,0.056799,-0.498787,401.337738,0.003431,0.09776,0.095563,0.0,1.0,2620.537109
87.043678,-295.617859,-294.424438,5.086,-0.645577,5.086,-0.645577,-299.999847,-300.0,45.79776,59.54174,497.740723,294.865295,97.206177,0.060477,-0.383666,421.044647,0.007817,0.099594,0.089442,0.0,1.0,2622.058838
87.258415,-294.091156,-292.897705,5.159031,-0.550989,5.159031,-0.550989,-289.999847,-290.0,47.553452,60.00824,512.944946,295.102661,97.519066,0.07263,-0.305806,434.656128,0.009202,0.101055,0.079346,0.0,1.0,2623.102051
87.53968,-291.868347,-290.674927,5.257867,-0.256742,5.257867,-0.256742,-289.999847,-290.0,50.101398,60.653,534.836243,295.329254,97.985168,0.096109,-0.223643,454.115387,0.007871,0.103181,0.062108,0.0,1.0,2624.498535
87.727242,-290.287537,-289.094086,5.308291,-0.024146,5.308291,-0.024146,-289.999847,-290.0,51.910049,61.089363,549.562439,295.353333,98.323273,0.109751,-0.194386,467.523132,0.005176,0.104604,0.053247,0.0,1.0,2625.419434
88.011887,-287.828003,-286.634583,5.379137,0.228454,5.379137,0.228454,-289.999847,-290.0,54.711308,61.735142,570.103271,295.197418,98.854866,0.11686,-0.187465,487.844421,3.45E-4,0.106166,0.049574,0.0,1.0,2626.76416
88.202255,-286.130188,-284.936737,5.418889,0.260008,5.418889,0.260008,-289.999847,-290.0,56.633682,62.159924,582.586182,295.0177,99.22139,0.111352,-0.197806,501.400818,-0.002486,0.107182,0.053984,0.0,1.0,2627.645508
88.490639,-283.497742,-282.304291,5.484058,0.103593,5.484058,0.103593,-279.999847,-280.0,59.592243,62.788761,600.324951,294.763184,99.77961,0.09185,-0.212496,521.564209,-0.003714,0.108378,0.066356,0.0,1.0,2628.955078
88.679611,-281.687561,-280.494141,5.528959,-0.094445,5.528959,-0.094445,-279.999847,-280.0,61.61375,63.202549,612.065125,294.682922,100.151314,0.076097,-0.208372,534.770996,-0.00258,0.109248,0.075447,0.0,1.0,2629.820557
88.961327,-278.815155,-277.621704,5.616727,-0.400635,5.616727,-0.400635,-279.999847,-280.0,64.808212,63.831989,630.962708,294.753204,100.714554,0.059899,-0.17229,554.434387,0.001349,0.110579,0.083095,0.0,1.0,2631.136719
89.205994,-275.920715,-274.727295,5.717554,-0.537741,5.717554,-0.537741,-279.999847,-280.0,68.014015,64.434311,651.092773,295.004456,101.245033,0.059406,-0.110918,573.596069,0.005723,0.112335,0.079581,0.0,1.0,2632.381104
89.355309,-273.936462,-272.743011,5.782669,-0.490884,5.782669,-0.490884,-269.999847,-270.0,70.208611,64.830116,665.078857,295.19809,101.587982,0.067839,-0.068344,586.389282,0.007295,0.113523,0.072919,0.0,1.0,2633.181152
89.559753,-270.877411,-269.68399,5.878889,-0.264967,5.878889,-0.264967,-269.999847,-270.0,73.589096,65.414902,686.572388,295.408905,102.086884,0.087047,-0.022035,605.650146,0.007013,0.115653,0.057336,0.0,1.0,2634.32959
89.691689,-268.782593,-267.589142,5.926525,-0.074575,5.926525,-0.074575,-269.999847,-270.0,75.901871,65.798721,700.311829,295.436707,102.409431,0.099062,-0.012195,618.547607,0.005079,0.117009,0.049333,0.0,1.0,2635.064209
89.883354,-265.647797,-264.454346,5.988787,0.1319,5.988787,0.1319,-269.999847,-270.0,79.352753,66.349838,718.66449,295.314758,102.863945,0.105868,-0.026301,637.452576,0.001065,0.11853,0.045406,0.0,1.0,2636.10498
90.08622,-262.324829,-261.131378,6.04619,0.146032,6.04619,0.146032,-259.999847,-260.0,82.990257,66.906311,735.610413,295.077454,103.306763,0.096639,-0.059528,656.936401,-0.001884,0.119776,0.051503,0.0,1.0,2637.154297
90.222038,-260.055969,-258.862549,6.079721,0.031971,6.079721,0.031971,-259.999847,-260.0,85.46048,67.271629,745.942749,294.940125,103.584,0.083681,-0.077733,669.757751,-0.002392,0.120599,0.059633,0.0,1.0,2637.847412
90.424324,-256.57605,-255.382584,6.140177,-0.233596,6.140177,-0.233596,-259.999847,-260.0,89.228455,67.811363,760.877808,294.861206,103.966522,0.063819,-0.083389,688.543579,-4.57E-4,0.121594,0.070235,0.0,1.0,2638.879395
90.552467,-254.207413,-253.013962,6.184215,-0.39636,6.184215,-0.39636,-249.999863,-250.0,91.782295,68.165718,771.005432,294.920746,104.196739,0.054897,-0.068508,700.690002,0.002124,0.122421,0.07402,0.0,1.0,2639.558594
90.728905,-250.583817,-249.390381,6.264772,-0.516528,6.264772,-0.516528,-249.999863,-250.0,95.677879,68.68895,787.03064,295.136597,104.503654,0.054342,-0.026879,718.381042,0.005662,0.123684,0.071204,0.0,1.0,2640.552979
90.831177,-248.121017,-246.927567,6.316194,-0.476006,6.316194,-0.476006,-249.999863,-250.0,98.320755,69.032112,798.204529,295.302094,104.683769,0.06215,0.00302,729.94281,0.007176,0.1248,0.0642,0.0,1.0,2641.192139
90.97699,-244.356506,-243.163071,6.390579,-0.281404,6.390579,-0.281404,-239.999863,-240.0,102.355095,69.538147,815.075806,295.47644,104.920876,0.078976,0.033139,747.040894,0.0068,0.126324,0.052136,0.0,1.0,2642.109619
91.066185,-241.800537,-240.607086,6.426847,-0.121434,6.426847,-0.121434,-239.999863,-240.0,105.090897,69.869667,825.776672,295.494354,105.059074,0.08919,0.035585,758.295715,0.005037,0.127406,0.045264,0.0,1.0,2642.696045
91.209373,-237.897095,-236.703659,6.474446,0.049594,6.474446,0.049594,-239.999863,-240.0,109.257576,70.358292,840.237,295.376404,105.238525,0.094216,0.014928,775.03125,0.001735,0.128537,0.042523,0.0,1.0,2643.550537
91.305397,-235.251953,-234.058517,6.498424,0.061955,6.498424,0.061955,-239.999863,-240.0,112.073494,70.678421,848.770325,295.242096,105.339455,0.089527,-0.00779,785.887817,-2.03E-4,0.129233,0.045866,0.0,1.0,2644.111084
91.45472,-231.218582,-230.025146,6.536966,-0.068767,6.536966,-0.068767,-229.999863,-230.0,116.347275,71.150536,860.295593,295.057434,105.460747,0.073856,-0.037637,801.944275,-8.85E-4,0.129968,0.055136,0.0,1.0,2644.946533
91.553894,-228.491974,-227.298538,6.563316,-0.219869,6.563316,-0.219869,-229.999863,-230.0,119.22773,71.460037,867.625,295.006226,105.520195,0.061549,-0.044696,812.108582,1.71E-4,0.130505,0.062035,0.0,1.0,2645.501221
91.688797,-224.573517,-223.380066,6.611247,-0.425298,6.611247,-0.425298,-219.999863,-220.0,123.350266,71.891434,878.210022,295.063599,105.57428,0.050591,-0.032928,826.307007,0.003141,0.131266,0.06693,0.0,1.0,2646.280518
91.782913,-221.537155,-220.343704,6.655562,-0.511805,6.655562,-0.511805,-219.999863,-220.0,126.537605,72.215714,886.889709,295.192841,105.592857,0.049138,-0.010241,836.7724,0.006076,0.132225,0.064061,0.0,1.0,2646.864746
91.892036,-217.514969,-216.321533,6.711534,-0.476716,6.711534,-0.476716,-219.999863,-220.0,130.75473,72.632286,898.875916,295.393372,105.591225,0.057231,0.023375,850.056824,0.007312,0.133111,0.057599,0.0,1.0,2647.603271
92.009583,-212.832153,-211.638718,6.770406,-0.281027,6.770406,-0.281027,-209.999863,-210.0,135.661911,73.099495,912.640076,295.539032,105.561028,0.073743,0.045767,864.735718,0.00681,0.134231,0.047572,0.0,1.0,2648.407471
92.071198,-209.911682,-208.718246,6.795506,-0.142608,6.795506,-0.142608,-209.999863,-210.0,138.718109,73.381355,920.585205,295.536346,105.531342,0.08224,0.043361,873.68988,0.005102,0.13506,0.041804,0.0,1.0,2648.882324
92.170776,-205.478653,-204.285202,6.825679,-0.012752,6.825679,-0.012752,-209.999863,-210.0,143.348526,73.796249,931.027954,295.41095,105.474663,0.085109,0.019795,886.883484,0.002037,0.13591,0.040424,0.0,1.0,2649.577393
92.245979,-202.490433,-201.296997,6.840313,-0.021313,6.840313,-0.021313,-199.999863,-200.0,146.46254,74.067749,936.989807,295.2883,105.429543,0.079831,-0.001868,895.422729,5.92E-4,0.136329,0.043784,0.0,1.0,2650.035645
92.349396,-198.213745,-197.020294,6.863904,-0.149631,6.863904,-0.149631,-199.999863,-200.0,150.905853,74.445694,944.584534,295.142517,105.355217,0.066689,-0.02651,907.181274,3.04E-4,0.136806,0.052826,0.0,1.0,2650.68457
92.430634,-194.913589,-193.720139,6.884032,-0.298184,6.884032,-0.298184,-199.999863,-200.0,154.327377,74.729591,950.179871,295.10965,105.289764,0.054173,-0.031376,915.695374,0.001364,0.137124,0.058243,0.0,1.0,2651.181152
92.537018,-190.29808,-189.104645,6.922969,-0.473745,6.922969,-0.473745,-189.999863,-190.0,159.098969,75.115448,958.381042,295.193787,105.187477,0.0453,-0.016428,927.183044,0.00426,0.137681,0.061758,0.0,1.0,2651.864014
92.603851,-187.19516,-186.001709,6.95224,-0.515507,6.95224,-0.515507,-189.999863,-190.0,162.303802,75.367996,964.311951,295.309601,105.113411,0.046044,0.003158,934.47229,0.00604,0.138163,0.059865,0.0,1.0,2652.310547
92.683426,-182.501282,-181.307831,6.999932,-0.448908,6.999932,-0.448908,-179.999863,-180.0,167.149704,75.739685,973.905212,295.492401,104.998169,0.056133,0.032567,945.062866,0.007364,0.139045,0.051761,0.0,1.0,2652.957275
92.733849,-179.349564,-178.156113,7.024776,-0.33695,7.024776,-0.33695,-179.999863,-180.0,170.407303,75.982651,980.314331,295.564423,104.921799,0.065765,0.042983,951.706726,0.007013,0.139679,0.045619,0.0,1.0,2653.371094
92.804604,-174.57901,-173.385559,7.054535,-0.158316,7.054535,-0.158316,-169.999863,-170.0,175.332199,76.339912,989.2323,295.555664,104.81266,0.076311,0.038524,961.788086,0.004814,0.140496,0.03902,0.0,1.0,2653.969482
92.856544,-171.373978,-170.180542,7.066917,-0.088201,7.066917,-0.088201,-169.999863,-170.0,178.638794,76.57338,994.368103,295.476501,104.745186,0.077991,0.023376,968.318848,0.003236,0.140887,0.038367,0.0,1.0,2654.359131
92.943649,-166.53038,-165.336945,7.083538,-0.102256,7.083538,-0.102256,-169.999863,-170.0,183.627975,76.916817,1000.951355,295.312653,104.652473,0.0706,-0.005678,977.881226,0.00126,0.141338,0.043416,0.0,1.0,2654.939453
92.990028,-163.408905,-162.215454,7.093337,-0.186775,7.093337,-0.186775,-159.999863,-160.0,186.831726,77.132141,1004.659668,295.230347,104.598022,0.061236,-0.019727,984.138977,0.001115,0.141563,0.048671,0.0,1.0,2655.310791
93.085861,-158.35878,-157.165329,7.115848,-0.373189,7.115848,-0.373189,-159.999863,-160.0,192.009842,77.472069,1010.505005,295.196075,104.516876,0.047879,-0.025035,993.455078,0.002668,0.141867,0.055724,0.0,1.0,2655.909668
93.129051,-155.197922,-154.004471,7.133932,-0.468508,7.133932,-0.468508,-159.999863,-160.0,195.244247,77.679405,1014.377014,295.247955,104.47023,0.042743,-0.015878,999.127808,0.004391,0.142143,0.057675,0.0,1.0,2656.280273
93.209496,-150.087524,-148.894089,7.171227,-0.521395,7.171227,-0.521395,-149.999863,-150.0,200.475006,78.006538,1021.360779,295.407288,104.402718,0.04457,0.01068,1007.568359,0.006693,0.142679,0.054843,0.0,1.0,2656.864746
93.239227,-146.890106,-145.696655,7.193415,-0.474774,7.193415,-0.474774,-149.999863,-150.0,203.745499,78.205849,1026.047363,295.508362,104.36705,0.051298,0.026849,1012.783813,0.007448,0.14316,0.049934,0.0,1.0,2657.216064
93.301521,-141.720886,-140.527435,7.225463,-0.320123,7.225463,-0.320123,-139.999863,-140.0,209.03833,78.519913,1033.649292,295.6008,104.323357,0.063712,0.040036,1020.678589,0.006782,0.143868,0.041823,0.0,1.0,2657.758789
93.326019,-138.486511,-137.29306,7.237514,-0.218674,7.237514,-0.218674,-139.999863,-140.0,212.347656,78.711082,1037.979492,295.588684,104.306175,0.070151,0.036198,1025.661011,0.005438,0.14432,0.0381,0.0,1.0,2658.084473
93.39637,-133.262741,-132.06929,7.251227,-0.126797,7.251227,-0.126797,-129.999863,-130.0,217.697662,79.012268,1043.82312,295.474854,104.295448,0.071401,0.014754,1032.968994,0.003124,0.14475,0.037807,0.0,1.0,2658.598145
93.420937,-129.991699,-128.798248,7.256547,-0.143666,7.256547,-0.143666,-129.999863,-130.0,221.037186,79.195686,1046.804077,295.380432,104.298607,0.066405,-0.00199,1037.859131,0.002048,0.144949,0.041025,0.0,1.0,2658.916016
93.495659,-124.707848,-123.514404,7.267439,-0.268711,7.267439,-0.268711,-129.999863,-130.0,226.42778,79.48494,1050.987793,295.266449,104.316765,0.054066,-0.021359,1045.150513,0.002052,0.145131,0.048219,0.0,1.0,2659.430176
93.528732,-121.405815,-120.212372,7.277022,-0.373957,7.277022,-0.373957,-119.999855,-120.0,229.789352,79.66124,1053.550537,295.254578,104.334602,0.045852,-0.02296,1049.641113,0.003059,0.145264,0.052461,0.0,1.0,2659.751709
93.591133,-116.075623,-114.882179,7.300731,-0.505072,7.300731,-0.505072,-119.999855,-120.0,235.215256,79.939301,1058.168091,295.337128,104.371964,0.040137,-0.008625,1056.258057,0.005342,0.14554,0.054512,0.0,1.0,2660.267578
93.639778,-110.862289,-109.668839,7.329604,-0.514851,7.329604,-0.514851,-109.999855,-110.0,240.519485,80.203209,1063.494507,295.483978,104.418533,0.044414,0.015619,1062.452148,0.007215,0.146015,0.050384,0.0,1.0,2660.757324
93.667534,-107.373215,-106.179771,7.346574,-0.450161,7.346574,-0.450161,-109.999855,-110.0,244.07103,80.375465,1067.255737,295.567078,104.456032,0.051531,0.028661,1066.40686,0.007537,0.146405,0.045534,0.0,1.0,2661.072754
93.703629,-102.117607,-100.924164,7.367512,-0.30471,7.367512,-0.30471,-99.999855,-100.0,249.4216,80.628304,1072.761353,295.613892,104.523468,0.062309,0.034421,1072.245117,0.006431,0.146931,0.038887,0.0,1.0,2661.528809
93.729187,-98.602089,-97.408638,7.374913,-0.221636,7.374913,-0.221636,-99.999855,-100.0,253.003235,80.793213,1075.979614,295.579376,104.57621,0.06664,0.027063,1075.931763,0.005063,0.14724,0.036664,0.0,1.0,2661.823975
93.769066,-93.451424,-92.25798,7.381824,-0.175728,7.381824,-0.175728,-89.999855,-90.0,258.243561,81.028664,1079.783936,295.464874,104.663208,0.065034,0.006257,1081.452026,0.003166,0.147498,0.038272,0.0,1.0,2662.25
93.801994,-89.761322,-88.567879,7.38497,-0.215812,7.38497,-0.215812,-89.999855,-90.0,261.996857,81.193336,1081.968506,295.377716,104.73101,0.059199,-0.008889,1085.13855,0.002539,0.147601,0.041804,0.0,1.0,2662.555176
93.852058,-84.575745,-83.382301,7.392437,-0.338741,7.392437,-0.338741,-89.999855,-90.0,267.263306,81.419189,1084.710327,295.307251,104.830521,0.047944,-0.020527,1090.207031,0.003083,0.147699,0.048355,0.0,1.0,2662.986084
93.884209,-80.860733,-79.66729,7.401843,-0.436858,7.401843,-0.436858,-79.999855,-80.0,271.033356,81.577263,1086.792725,295.317413,104.902931,0.041997,-0.018407,1093.661499,0.004839,0.147849,0.051878,0.0,1.0,2663.296143
93.927788,-75.492661,-74.299217,7.420713,-0.51678,7.420713,-0.51678,-79.999855,-80.0,276.476074,81.800156,1090.298462,295.412933,105.007286,0.039375,-0.001875,1098.538696,0.006241,0.148037,0.05137,0.0,1.0,2663.740234
93.962112,-70.104385,-68.910942,7.443937,-0.48835,7.443937,-0.48835,-69.999855,-70.0,281.93811,82.017403,1094.498535,295.542175,105.111588,0.045427,-0.110066,1103.245728,0.007383,0.148414,0.046594,0.0,1.0,2664.172607
93.98101,-66.502625,-65.309181,7.456536,-0.415897,7.456536,-0.415897,-69.999855,-70.0,285.591583,82.159065,1097.444214,295.601166,105.181686,0.05233,-0.33795,1106.227539,0.007297,0.148731,0.042169,0.0,1.0,2664.451172
94.005547,-61.385303,-60.19186,7.469716,-0.293415,7.469716,-0.293415,-59.999859,-60.0,290.783661,82.355408,1101.372192,295.613007,105.282516,0.060204,-0.624089,1110.383789,0.005941,0.149131,0.037183,0.0,1.0,2664.833496
94.025017,-57.611343,-56.4179,7.473542,-0.231266,7.473542,-0.231266,-59.999859,-60.0,294.612396,82.496605,1103.77063,295.565063,105.357712,0.063197,-0.810031,1113.418335,0.004679,0.149338,0.036269,0.0,1.0,2665.108643
94.056229,-52.467159,-51.273716,7.476458,-0.219089,7.476458,-0.219089,-49.999859,-50.0,299.830963,82.684502,1106.272217,295.457977,105.459976,0.060133,-1.033692,1117.323608,0.003304,0.149471,0.038988,0.0,1.0,2665.481689
94.082642,-48.523537,-47.330093,7.478331,-0.273797,7.478331,-0.273797,-49.999859,-50.0,303.828796,82.825119,1107.806763,295.385651,105.536484,0.053081,-1.184538,1120.211304,0.003029,0.149516,0.042699,0.0,1.0,2665.769287
94.119591,-43.352936,-42.159492,7.484244,-0.388452,7.484244,-0.388452,-39.999859,-40.0,309.064667,83.005173,1109.706055,295.347229,105.631607,0.044463,-1.358635,1123.912842,0.003911,0.149567,0.047958,0.0,1.0,2666.149658
94.145958,-39.391052,-38.197609,7.492448,-0.46705,7.492448,-0.46705,-39.999859,-40.0,313.074951,83.139992,1111.35083,295.376648,105.699173,0.039383,-1.476052,1126.576782,0.005046,0.14964,0.049754,0.0,1.0,2666.442139
94.175766,-34.198387,-33.004944,7.508739,-0.513104,7.508739,-0.513104,-29.999857,-30.0,318.329254,83.312546,1114.034912,295.471436,105.780037,0.039535,-1.611568,1129.955444,0.006672,0.149849,0.048409,0.0,1.0,2666.821533
94.191452,-30.526754,-29.333311,7.520295,-0.488837,7.520295,-0.488837,-29.999857,-30.0,322.046509,83.431763,1116.234375,295.54541,105.832352,0.043685,-1.696281,1132.197144,0.007275,0.150074,0.045248,0.0,1.0,2667.083496
94.212135,-24.7006,-23.507156,7.53695,-0.385241,7.53695,-0.385241,-29.999857,-30.0,327.947601,83.616096,1119.891968,295.618896,105.9086,0.053172,-1.814201,1135.674927,0.006983,0.150406,0.03997,0.0,1.0,2667.485107
94.224373,-21.31811,-20.124664,7.542092,-0.316742,7.542092,-0.316742,-19.999857,-20.0,331.372711,83.720352,1121.858276,295.616974,105.949745,0.057425,-1.87439,1137.763916,0.006003,0.15066,0.036913,0.0,1.0,2667.711182
94.249283,-15.31454,-14.121095,7.546012,-0.241954,7.546012,-0.241954,-19.999857,-20.0,337.457428,83.900848,1124.582764,295.540009,106.017609,0.059677,-1.968402,1141.089111,0.004525,0.150842,0.036392,0.0,1.0,2668.098389
94.262756,-12.069967,-10.876523,7.546136,-0.246781,7.546136,-0.246781,-9.999858,-10.0,340.739197,83.99585,1125.669189,295.47998,106.051003,0.057201,-2.013029,1143.146362,0.003657,0.150908,0.038567,0.0,1.0,2668.290527
94.296776,-6.506678,-5.313233,7.547117,-0.321721,7.547117,-0.321721,-9.999858,-10.0,346.371368,84.155334,1127.116577,295.395508,106.101494,0.049226,-2.080992,1146.067383,0.003525,0.150923,0.043242,0.0,1.0,2668.602539
94.313667,-2.479302,-1.285857,7.55046,-0.404373,7.55046,-0.404373,1.42E-4,0.0,350.44339,84.267975,1128.133301,295.376526,106.131477,0.042608,-2.124097,1148.251221,0.004596,0.150942,0.047465,0.0,1.0,2668.820068
94.340935,2.992311,4.185755,7.55966,-0.492793,7.55966,-0.492793,1.42E-4,0.0,355.774475,84.412125,1129.771973,295.419952,106.161507,0.038132,-2.173846,1150.989868,0.005777,0.151009,0.048415,0.0,1.0,2669.097656
94.35659,7.22996,8.423405,7.57062,-0.525775,7.57062,-0.525775,10.000142,10.0,359.857178,84.519928,1131.423706,295.50116,106.177643,0.031268,-2.207399,1152.924561,0.002347,0.151193,0.1,0.0,1.0,2669.302734
94.362434,13.107541,14.300985,7.596186,-0.539016,7.596186,-0.539016,10.000142,10.0,365.521393,84.665558,1134.338135,295.836823,106.192528,0.031708,-2.248235,1155.543213,0.002504,0.151412,0.1,0.0,1.0,2669.567139
94.347054,17.030849,18.224295,7.621333,-0.423654,7.621333,-0.423654,20.000143,20.0,369.307037,84.760101,1137.045898,296.155151,106.200668,0.046505,-2.272241,1157.192749,0.002632,0.15173,0.1,0.0,1.0,2669.718994
94.300484,22.928715,24.12216,7.65905,-0.025085,7.65905,-0.025085,20.000143,20.0,375.005646,84.897682,1142.466553,296.619171,106.218315,0.08207,-2.304028,1159.808838,0.002017,0.152427,0.1,0.0,1.0,2669.892578
94.238777,29.007748,30.201193,7.677832,0.571979,7.677832,0.571979,30.000143,30.0,380.89212,85.033348,1148.195435,296.941315,106.254852,0.120488,-2.33208,1162.687622,8.21E-4,0.152993,0.1,0.0,1.0,2670.00293
94.207184,32.962219,34.155663,7.675722,0.982709,7.675722,0.982709,30.000143,30.0,384.72464,85.118172,1151.001709,297.037628,106.294014,0.140759,-2.348092,1164.729126,-0.001664,0.153486,0.1,0.0,1.0,2670.048584
94.152,38.910526,40.103973,7.663982,1.521132,7.663982,1.521132,40.000141,40.0,390.485565,85.240891,1152.88916,297.046112,106.380699,0.15784,-2.369292,1168.002686,-0.00468,0.153514,0.1,0.0,1.0,2670.102051
94.138008,42.884899,44.078342,7.656661,1.781525,7.656661,1.781525,40.000141,40.0,394.328796,85.319916,1152.922974,297.003448,106.458305,0.159813,-2.381756,1170.179443,-0.006405,0.153369,0.1,0.0,1.0,2670.138428
94.109955,48.856575,50.050018,7.646927,2.02044,7.646927,2.02044,50.000141,50.0,400.090942,85.434692,1151.788452,296.949799,106.603928,0.152195,-2.398258,1173.289429,-0.008483,0.153133,0.1,0.0,1.0,2670.205322
94.097252,52.843193,54.03664,7.641555,2.091774,7.641555,2.091774,50.000141,50.0,403.928284,85.508919,1150.627075,296.960205,106.719254,0.143549,-2.407959,1175.224976,-0.009311,0.153001,0.1,0.0,1.0,2670.260498
94.083023,58.827427,60.02087,7.633301,2.132883,7.633301,2.132883,60.000141,60.0,409.676575,85.617126,1148.748535,297.079407,106.917114,0.13146,-2.420805,1177.77356,-0.009961,0.152831,0.1,0.0,1.0,2670.356689
94.073868,62.652805,63.846249,7.62948,2.152081,7.62948,2.152081,60.000141,60.0,413.344391,85.684364,1147.707642,297.219666,107.058075,0.126599,-2.428056,1179.199341,-0.010109,0.15272,0.1,0.0,1.0,2670.42334
94.056747,68.304245,69.497696,7.625605,2.216065,7.625605,2.216065,70.000145,70.0,418.761322,85.781105,1146.650024,297.492676,107.28643,0.125694,-2.437578,1180.763916,-0.010248,0.15259,0.1,0.0,1.0,2670.522705
94.036064,74.279716,75.47316,7.623826,2.355859,7.623826,2.355859,70.000145,70.0,424.493195,85.880043,1146.212158,297.816895,107.55455,0.131421,-2.44629,1181.664307,-0.010553,0.152512,0.1,0.0,1.0,2670.620605
94.009026,78.596657,79.7901,7.622891,2.497401,7.622891,2.497401,80.000145,80.0,428.632233,85.949219,1146.208496,298.042358,107.765793,0.138668,-2.451815,1182.284058,-0.010997,0.152483,0.1,0.0,1.0,2670.683594
93.980057,84.241394,85.434837,7.620195,2.710568,7.620195,2.710568,80.000145,80.0,434.045044,86.036797,1146.253174,298.301483,108.065331,0.147147,-2.458192,1182.93103,-0.011591,0.152467,0.1,0.0,1.0,2670.757324
93.958511,88.556,89.749443,7.616862,2.873233,7.616862,2.873233,90.000145,90.0,438.184052,86.101585,1146.085449,298.468079,108.312553,0.152703,-2.462493,1183.256348,-0.012601,0.152425,0.1,0.0,1.0,2670.809082
93.934982,94.529411,95.722855,7.611001,3.066716,7.611001,3.066716,90.000145,90.0,443.912903,86.188324,1145.381226,298.665039,108.680435,0.156036,-2.467728,1183.588013,-0.013362,0.152367,0.1,0.0,1.0,2670.880127
93.91494,98.509216,99.702667,7.606462,3.166635,7.606462,3.166635,100.000145,100.0,447.729523,86.244316,1144.586426,298.78714,108.941338,0.155727,-2.470805,1183.677368,-0.014344,0.15226,0.1,0.0,1.0,2670.929443
93.909653,104.640572,105.834015,7.599086,3.271268,7.599086,3.271268,100.000145,100.0,453.607422,86.327972,1143.015015,298.984955,109.365654,0.152849,-2.474984,1183.604248,-0.014878,0.15217,0.1,0.0,1.0,2671.012207
93.891098,108.454636,109.648079,7.594,3.314039,7.594,3.314039,110.000145,110.0,457.256836,86.378433,1141.891235,299.123322,109.641342,0.150201,-2.477275,1183.72168,-0.01543,0.152038,0.1,0.0,1.0,2671.068115
93.886917,114.577133,115.770576,7.585927,3.364351,7.585927,3.364351,110.000145,110.0,463.120056,86.457268,1140.065186,299.378326,110.100945,0.146876,-2.480528,1183.257324,-0.015781,0.15188,0.1,0.0,1.0,2671.163818
93.867767,118.384048,119.577492,7.581814,3.393557,7.581814,3.393557,120.000145,120.0,466.760193,86.504875,1139.039551,299.555634,110.395119,0.145703,-2.482311,1183.116577,-0.015943,0.151771,0.1,0.0,1.0,2671.22583
93.861435,124.496582,125.690025,7.57529,3.451822,7.57529,3.451822,120.000145,120.0,472.609772,86.579254,1137.633545,299.860931,110.879448,0.145869,-2.484843,1182.408325,-0.01616,0.151636,0.1,0.0,1.0,2671.327148
93.842674,128.292236,129.485687,7.57198,3.497461,7.57198,3.497461,130.000137,130.0,476.242615,86.624146,1136.899292,300.056122,111.186287,0.147054,-2.486231,1181.881592,-0.01633,0.151548,0.1,0.0,1.0,2671.390137
93.825974,134.389755,135.583191,7.566672,3.584639,7.566672,3.584639,130.000137,130.0,482.082275,86.694237,1135.874634,300.366974,111.68734,0.149665,-2.488202,1180.847168,-0.016655,0.15144,0.1,0.0,1.0,2671.48999
93.813744,138.180466,139.373917,7.563803,3.642404,7.563803,3.642404,140.000137,140.0,485.709747,86.736511,1135.280762,300.554382,112.002525,0.151427,-2.489282,1180.370117,-0.016918,0.151368,0.1,0.0,1.0,2671.551758
93.798805,144.265137,145.458588,7.558786,3.732889,7.558786,3.732889,140.000137,140.0,491.54129,86.802498,1134.289551,300.844727,112.513809,0.15338,-2.490816,1179.140259,-0.017345,0.151276,0.1,0.0,1.0,2671.650635
93.78273,150.183304,151.376755,7.553935,3.807259,7.553935,3.807259,150.000137,150.0,497.210022,86.86441,1133.222656,301.118317,113.014091,0.154115,-2.492098,1178.176147,-0.01763,0.15121,0.1,0.0,1.0,2671.748779
93.774071,154.121826,155.315262,7.550422,3.847369,7.550422,3.847369,150.000137,150.0,500.986084,86.90448,1132.430298,301.299835,113.347824,0.153922,-2.492851,1177.345337,-0.01801,0.151116,0.1,0.0,1.0,2671.815674
93.761955,160.026382,161.219818,7.54525,3.89299,7.54525,3.89299,160.000137,160.0,506.64505,86.962891,1131.19165,301.576904,113.846657,0.153064,-2.493849,1176.228882,-0.018223,0.151045,0.1,0.0,1.0,2671.919434
93.755165,163.960159,165.153595,7.541653,3.916543,7.541653,3.916543,160.000137,160.0,510.414215,87.00074,1130.339355,301.767212,114.176834,0.152348,-2.494436,1175.530273,-0.018473,0.150942,0.1,0.0,1.0,2671.990723
93.750389,169.6828,170.876236,7.536795,3.945019,7.536795,3.945019,170.000137,170.0,515.905884,87.054451,1129.148682,302.05426,114.65313,0.151358,-2.495192,1174.076782,-0.018592,0.15087,0.1,0.0,1.0,2672.098633
93.743988,173.605072,174.798508,7.533489,3.962099,7.533489,3.962099,170.000137,170.0,519.668396,87.090294,1128.367432,302.257996,114.975197,0.150721,-2.495651,1173.212524,-0.018745,0.150768,0.1,0.0,1.0,2672.176514
93.736748,179.48909,180.682526,7.528813,3.987078,7.528813,3.987078,180.000137,180.0,525.307434,87.142616,1127.301392,302.573212,115.449989,0.150225,-2.496258,1172.252441,-0.018867,0.15067,0.1,0.0,1.0,2672.298096
93.732765,183.405167,184.598602,7.526355,4.005131,7.526355,4.005131,180.000137,180.0,529.063965,87.176559,1126.684692,302.788055,115.76033,0.150272,-2.496614,1171.444824,-0.018949,0.150602,0.1,0.0,1.0,2672.381348
93.723671,189.116898,190.310333,7.522809,4.035481,7.522809,4.035481,190.000137,190.0,534.53894,87.224747,1125.911865,303.104309,116.203308,0.150742,-2.497075,1170.54126,-0.019072,0.150527,0.1,0.0,1.0,2672.504395
93.719444,193.02626,194.219711,7.520774,4.058455,7.520774,4.058455,190.000137,190.0,538.291138,87.25692,1125.442505,303.321167,116.500168,0.151286,-2.497354,1169.719604,-0.019165,0.150479,0.1,0.0,1.0,2672.589844
93.716133,199.049667,200.243103,7.517603,4.095665,7.517603,4.095665,200.000137,200.0,544.072876,87.305145,1124.771362,303.652893,116.946541,0.152235,-2.497732,1168.5802,-0.019326,0.150415,0.1,0.0,1.0,2672.722656
93.714462,202.785507,203.978958,7.515964,4.117836,7.515964,4.117836,200.000137,200.0,547.665222,87.33432,1124.370728,303.857208,117.21701,0.152601,-2.49794,1167.618042,-0.019451,0.150369,0.1,0.0,1.0,2672.805664
93.706657,208.798386,209.991837,7.513269,4.149923,7.513269,4.149923,210.000137,210.0,553.441589,87.379997,1123.739502,304.183655,117.640816,0.152979,-2.498235,1166.560913,-0.019609,0.150319,0.1,0.0,1.0,2672.941162
93.703979,212.534485,213.727921,7.511674,4.166604,7.511674,4.166604,210.000137,210.0,557.03064,87.407631,1123.343384,304.3862,117.897247,0.152993,-2.498397,1165.972656,-0.019719,0.150281,0.1,0.0,1.0,2673.026123
93.699791,218.542175,219.735611,7.508893,4.188675,7.508893,4.188675,220.000137,220.0,562.801697,87.450928,1122.694946,304.713348,118.298569,0.152771,-2.498626,1165.132202,-0.019841,0.150233,0.1,0.0,1.0,2673.164795
93.69677,222.436615,223.630066,7.5073,4.200088,7.5073,4.200088,220.000137,220.0,566.543274,87.478279,1122.278076,304.927338,118.551613,0.152566,-2.498757,1164.598877,-0.019918,0.150194,0.1,0.0,1.0,2673.256104
93.694122,228.274261,229.467712,7.504828,4.214916,7.504828,4.214916,230.000137,230.0,572.153137,87.51825,1121.681152,305.251556,118.920746,0.152305,-2.498931,1163.793213,-0.02,0.150146,0.1,0.0,1.0,2673.394287
93.691261,232.162735,233.356171,7.503413,4.224017,7.503413,4.224017,230.000137,230.0,575.891418,87.54422,1121.309937,305.469727,119.160133,0.15222,-2.499032,1163.227783,-0.020051,0.150111,0.1,0.0,1.0,2673.487305
93.686974,237.8237,239.017151,7.501297,4.237609,7.501297,4.237609,240.000137,240.0,581.341003,87.581146,1120.811035,305.790009,119.500168,0.152245,-2.499164,1162.131836,-0.020114,0.150068,0.1,0.0,1.0,2673.623779
93.688065,243.629913,244.823349,7.499325,4.25245,7.499325,4.25245,240.000137,240.0,586.943787,87.618011,1120.333496,306.120697,119.839516,0.15243,-2.499281,1160.499023,-0.020179,0.150026,0.1,0.0,1.0,2673.764893
93.681068,247.515915,248.709366,7.498276,4.26254,7.498276,4.26254,250.000137,250.0,590.677734,87.641968,1120.049805,306.341217,120.060425,0.152589,-2.499349,1160.433105,-0.020228,0.149997,0.1,0.0,1.0,2673.859863
93.678528,253.495926,254.689362,7.496562,4.278058,7.496562,4.278058,250.000137,250.0,596.432434,87.677971,1119.638306,306.680634,120.393585,0.152852,-2.499443,1159.842651,-0.020298,0.149966,0.1,0.0,1.0,2674.006592
93.675179,257.213867,258.407318,7.495611,4.287102,7.495611,4.287102,260.000153,260.0,600.008667,87.699799,1119.39209,306.891266,120.596687,0.152946,-2.499494,1159.608887,-0.020344,0.149944,0.1,0.0,1.0,2674.098389
93.674393,263.189026,264.382477,7.494042,4.30032,7.494042,4.30032,260.000153,260.0,605.760071,87.734055,1118.998535,307.229767,120.917969,0.153036,-2.397381,1159.07373,-0.020415,0.149912,0.1,0.0,1.0,2674.246826
93.67469,267.224823,268.418274,7.493131,4.307921,7.493131,4.307921,270.000153,270.0,609.64502,87.756615,1118.741333,307.458618,121.131851,0.153031,-2.247784,1158.719604,-0.020459,0.14989,0.1,0.0,1.0,2674.3479
93.668221,272.707428,273.900879,7.491882,4.316769,7.491882,4.316769,270.000153,270.0,614.927124,87.786575,1118.407715,307.770386,121.419456,0.152992,-1.991241,1158.067139,-0.020496,0.149872,0.1,0.0,1.0,2674.48584
93.669899,276.895142,278.088593,7.490901,4.322649,7.490901,4.322649,280.000153,280.0,618.965332,87.808945,1118.153076,308.00946,121.637444,0.152938,-1.779703,1157.467163,-0.020543,0.149846,0.1,0.0,1.0,2674.591797
93.666565,282.536743,283.730194,7.489635,4.329759,7.489635,4.329759,280.000153,280.0,624.400024,87.838333,1117.824707,308.332306,121.929085,0.152881,-1.501295,1157.055908,-0.020584,0.149818,0.1,0.0,1.0,2674.735596
93.66256,286.401184,287.594635,7.488915,4.334296,7.488915,4.334296,290.000153,290.0,628.125732,87.858017,1117.615967,308.554291,122.128387,0.152871,-1.32445,1156.668335,-0.020606,0.149801,0.1,0.0,1.0,2674.834473
93.665009,292.351593,293.545044,7.48776,4.341233,7.48776,4.341233,290.000153,290.0,633.868225,87.887665,1117.313843,308.897186,122.435471,0.1529,-1.081573,1155.855225,-0.02064,0.149778,0.1,0.0,1.0,2674.987549
93.661545,295.891541,297.084991,7.487164,4.345315,7.487164,4.345315,300.000153,300.0,637.281921,87.904892,1117.146729,309.101288,122.618378,0.152938,-0.953864,1155.58667,-0.020661,0.149763,0.1,0.0,1.0,2675.079102
93.662079,301.846954,303.040375,7.486152,4.352164,7.486152,4.352164,300.000153,300.0,643.022156,87.93322,1116.880615,309.444672,122.92733,0.153019,-0.763835,1155.346802,-0.020692,0.149743,0.1,0.0,1.0,2675.233643
93.661148,307.469727,308.663177,7.485356,4.358337,7.485356,4.358337,310.000153,310.0,648.450806,87.95929,1116.646729,309.76944,123.221924,0.153088,-0.609199,1154.693115,-0.020715,0.149729,0.1,0.0,1.0,2675.380127
93.661385,311.484955,312.678406,7.484792,4.362475,7.484792,4.362475,310.000153,310.0,652.327759,87.977501,1116.488403,310.001343,123.434204,0.15313,-0.511808,1154.28772,-0.020745,0.149712,0.1,0.0,1.0,2675.485107
93.658417,317.267792,318.461243,7.484031,4.367828,7.484031,4.367828,320.000153,320.0,657.909668,88.003128,1116.271484,310.335297,123.743172,0.153147,-0.388287,1153.89563,-0.020764,0.149701,0.1,0.0,1.0,2675.636963
93.65712,321.284576,322.478027,7.483496,4.37115,7.483496,4.37115,320.000153,320.0,661.785339,88.020531,1116.125366,310.567291,123.96032,0.153155,-0.312797,1153.759521,-0.02079,0.149687,0.1,0.0,1.0,2675.74292
93.657417,326.909088,328.102509,7.482802,4.375265,7.482802,4.375265,330.000153,330.0,667.210449,88.04438,1115.925171,310.892334,124.268288,0.153148,-0.219486,1153.682129,-0.020815,0.14967,0.1,0.0,1.0,2675.891846
93.660393,330.915619,332.10907,7.482411,4.377857,7.482411,4.377857,330.000153,330.0,671.084961,88.061043,1115.791748,311.124725,124.491287,0.15314,-0.160682,1153.100952,-0.020829,0.14966,0.1,0.0,1.0,2675.998291
93.656342,336.536652,337.730103,7.48182,4.381207,7.48182,4.381207,340.000153,340.0,676.508484,88.083885,1115.621338,311.450378,124.807945,0.153131,-0.087976,1153.070068,-0.020847,0.149648,0.1,0.0,1.0,2676.147949
93.664017,342.302673,343.496124,7.481273,4.384429,7.481273,4.384429,340.000153,340.0,682.086182,88.106804,1115.456909,311.785614,125.139275,0.153136,-0.023451,1152.328003,-0.020858,0.14964,0.1,0.0,1.0,2676.302246
