airspeed_indicator_indicated_speed_kt,altimeter_indicated_altitude_ft,altimeter_pressure_alt_ft,attitude_indicator_indicated_pitch_deg,attitude_indicator_indicated_roll_deg,attitude_indicator_internal_pitch_deg,attitude_indicator_internal_roll_deg,encoder_indicated_altitude_ft,encoder_pressure_alt_ft,gps_indicated_altitude_ft,gps_indicated_ground_speed_kt,gps_indicated_vertical_speed,indicated_heading_deg,magnetic_compass_indicated_heading_deg,slip_skid_ball_indicated_slip_skid,turn_indicator_indicated_turn_rate,vertical_speed_indicator_indicated_speed_fpm,flight_aileron,flight_elevator,flight_rudder,flight_flaps,engine_throttle,engine_rpm
24.907898,-226.538956,-225.34552,3.045301,0.698926,2.71102,-0.415345,-219.999863,-220.0,17.857658,5.9E-5,0.003015,297.864563,104.807693,0.043811,-0.032331,-1671.254761,-0.0,0.0,0.0,0.0,0.0,605.315613
24.885572,-234.651215,-233.457779,3.007143,0.564887,2.713079,-0.415328,-229.999863,-230.0,17.857668,5.7E-5,-0.003584,297.863312,100.351227,0.043794,-0.027819,-1672.342407,-0.009985,0.05422,0.0,0.0,1.0,613.638489
24.886745,-242.5354,-241.341949,2.802026,-0.073326,2.699245,-0.415928,-239.999863,-240.0,17.857597,1.23E-4,-0.027132,297.862152,96.26239,0.043629,-0.02405,-1673.056152,-0.00807,0.054262,6.3E-5,0.0,1.0,725.744934
24.895979,-248.39444,-247.200989,2.682292,-0.363129,2.665749,-0.418275,-239.999863,-240.0,17.857449,3.14E-4,-0.0481,297.861328,93.412773,0.042992,-0.02163,-1673.547607,0.001048,0.053985,1.21E-4,0.0,1.0,867.937988
24.911377,-256.284943,-255.091507,2.622308,-0.425362,2.622308,-0.425362,-249.999863,-250.0,17.857302,0.001689,-0.008039,297.859894,89.865356,0.042815,-0.018898,-1674.192139,0.005188,0.053315,1.62E-4,0.0,1.0,1098.658081
24.923567,-261.700043,-260.506592,2.611889,-0.432846,2.611889,-0.432846,-259.999847,-260.0,17.857334,0.004564,0.027165,297.858521,87.641632,0.042706,-0.017373,-1674.711304,0.006077,0.052446,2.33E-4,0.0,1.0,1263.639038
24.918114,-269.816803,-268.623352,2.617514,-0.447322,2.617514,-0.447322,-269.999847,-270.0,17.857603,0.01434,0.07895,297.85495,84.648651,0.043312,-0.015664,-1675.115479,0.006184,0.052238,3.02E-4,0.0,1.0,1497.62085
24.937338,-275.448792,-274.255371,2.630333,-0.458748,2.630333,-0.458748,-269.999847,-270.0,17.857937,0.026718,0.11258,297.850891,82.823883,0.044216,-0.014906,-1675.136597,0.00639,0.05235,4.81E-4,0.0,1.0,1641.435181
24.984062,-283.343811,-282.150391,2.653922,-0.475125,2.653922,-0.475125,-279.999847,-280.0,17.858608,0.054376,0.161351,297.842133,80.631683,0.046252,-0.014476,-1675.494141,0.006554,0.052607,6.84E-4,0.0,1.0,1810.743408
25.020168,-288.976074,-287.782623,2.671958,-0.486323,2.671958,-0.486323,-289.999847,-290.0,17.859232,0.083009,0.196655,297.832855,79.329781,0.047577,-0.014673,-1675.40979,0.006787,0.053078,0.001122,0.0,1.0,1908.518188
22.151249,-296.148041,-294.95459,2.69566,-0.50073,2.69566,-0.50073,-289.999847,-290.0,17.860348,0.139296,0.248842,297.814606,77.844559,0.049866,-0.015651,-1639.381104,0.006947,0.053439,0.001585,0.0,1.0,2018.664307
20.180002,-299.862152,-298.668701,2.709487,-0.508911,2.709487,-0.508911,-299.999847,-300.0,17.861246,0.18762,0.286927,297.798859,77.108727,0.051424,-0.016757,-1577.187256,0.007153,0.053913,0.002498,0.0,1.0,2074.854248
17.679859,-304.204529,-303.011078,2.726208,-0.518919,2.726208,-0.518919,-299.999847,-300.0,17.862837,0.277442,0.348325,297.771027,76.379868,0.053439,-0.018816,-1443.835449,0.00727,0.05419,0.003285,0.0,1.0,2138.295654
15.751163,-307.339386,-306.145935,2.738976,-0.526256,2.738976,-0.526256,-309.999847,-310.0,17.864695,0.385534,0.413877,297.739655,76.089554,0.055031,-0.021137,-1281.002686,0.007413,0.054524,0.004677,0.0,1.0,2181.250732
14.704274,-309.014832,-307.821381,2.74604,-0.530101,2.74604,-0.530101,-309.999847,-310.0,17.866158,0.471756,0.461107,297.716705,76.118835,0.055899,-0.022737,-1155.825562,0.007518,0.05478,0.006245,0.0,1.0,2202.594482
13.537181,-310.972961,-309.77951,2.754388,-0.534406,2.754388,-0.534406,-309.999847,-310.0,17.86865,0.619691,0.534831,297.683105,76.491867,0.056908,-0.02466,-953.824768,0.007573,0.054921,0.007393,0.0,1.0,2225.341797
13.014994,-311.985565,-310.792145,2.759101,-0.536492,2.759101,-0.536492,-309.999847,-310.0,17.870522,0.730692,0.585712,297.661743,76.946762,0.057504,-0.025601,-813.016296,0.007634,0.055088,0.009073,0.0,1.0,2235.764648
12.582083,-313.168427,-311.974976,2.765005,-0.538765,2.765005,-0.538765,-309.999847,-310.0,17.873652,0.915582,0.662987,297.634338,77.912987,0.058303,-0.026077,-598.637085,0.007664,0.055182,0.010141,0.0,1.0,2246.180908
12.501728,-313.779663,-312.586212,2.768569,-0.539817,2.768569,-0.539817,-309.999847,-310.0,17.875956,1.050935,0.715777,297.619385,78.730186,0.058893,-0.025822,-458.222534,0.007697,0.0553,0.011511,0.0,1.0,2250.483643
12.649807,-314.509888,-313.316437,2.773483,-0.54095,2.773483,-0.54095,-309.999847,-310.0,17.879856,1.278181,0.799551,297.603271,80.22995,0.059866,-0.024365,-260.223236,0.007712,0.055371,0.012259,0.0,1.0,2254.112793
12.879277,-314.861145,-313.667694,2.776476,-0.541375,2.776476,-0.541375,-309.999847,-310.0,17.882496,1.43057,0.851503,297.597198,81.291534,0.060629,-0.022946,-163.823669,0.007728,0.05547,0.013065,0.0,1.0,2254.980225
13.399117,-315.290039,-314.096588,2.780971,-0.541732,2.780971,-0.541732,-309.999847,-310.0,17.886961,1.685774,0.932161,297.593597,83.120613,0.06189,-0.020056,-85.476875,0.007734,0.05553,0.013368,0.0,1.0,2254.791016
13.831231,-315.510864,-314.317413,2.783998,-0.541722,2.783998,-0.541722,-309.999847,-310.0,17.890163,1.866948,0.986124,297.594269,84.434723,0.062773,-0.01788,-65.795593,0.007739,0.055619,0.013548,0.0,1.0,2253.87085
14.572158,-315.767334,-314.573883,2.788408,-0.541367,2.788408,-0.541367,-309.999847,-310.0,17.895308,2.154775,1.068122,297.598083,86.51516,0.06404,-0.01457,-47.077538,0.007739,0.05568,0.013515,0.0,1.0,2251.630371
15.393103,-315.954865,-314.761444,2.792859,-0.540321,2.792859,-0.540321,-309.999847,-310.0,17.90086,2.461284,1.149383,297.602875,88.687706,0.06509,-0.011584,-33.872803,0.007734,0.055768,0.013324,0.0,1.0,2250.216553
15.972109,-316.050629,-314.857178,2.795867,-0.539163,2.795867,-0.539163,-309.999847,-310.0,17.904789,2.675675,1.203613,297.605194,90.165955,0.065534,-0.009968,-27.176744,0.007719,0.055857,0.013084,0.0,1.0,2250.372803
16.802319,-316.152771,-314.95932,2.800099,-0.537179,2.800099,-0.537179,-309.999847,-310.0,17.91049,2.983212,1.28109,297.60553,92.211494,0.065702,-0.008449,-20.074446,0.007702,0.055917,0.012968,0.0,1.0,2251.450928
17.522512,-316.218201,-315.02475,2.803957,-0.535249,2.803957,-0.535249,-309.999847,-310.0,17.915596,3.255436,1.343962,297.602356,93.938095,0.065403,-0.007859,-24.683449,0.007674,0.056002,0.012952,0.0,1.0,2252.848145
18.469391,-316.280304,-315.086853,2.806814,-0.533182,2.806814,-0.533182,-319.999847,-320.0,17.922356,3.620228,1.279415,297.59314,96.115578,0.064128,-0.008015,-22.121864,0.007646,0.056079,0.01311,0.0,1.0,2255.009033
19.111279,-316.310974,-315.117554,2.805631,-0.537414,2.805631,-0.537414,-319.999847,-320.0,17.926691,3.872437,1.324333,297.583984,97.524628,0.062842,-0.008705,-21.986952,0.007617,0.056136,0.013571,0.0,1.0,2256.58252
20.085041,-316.344788,-315.151337,2.809481,-0.536466,2.809481,-0.536466,-319.999847,-320.0,17.932995,4.263909,1.295794,297.567108,99.549995,0.062222,-0.009914,-12.914515,0.007677,0.056113,0.014029,0.0,1.0,2259.048096
20.738811,-316.36087,-315.167419,2.813796,-0.534479,2.813796,-0.534479,-319.999847,-320.0,17.937401,4.533453,1.344497,297.553986,100.828667,0.061299,-0.010889,-11.667721,0.007664,0.05619,0.014873,0.0,1.0,2260.728271
21.724813,-316.377472,-315.184021,2.820162,-0.531421,2.820162,-0.531421,-319.999847,-320.0,17.944296,4.950253,1.411657,297.533752,102.619926,0.059738,-0.012241,-15.405476,0.007635,0.056276,0.015529,0.0,1.0,2263.270752
22.384148,-316.384552,-315.191101,2.824443,-0.529429,2.824443,-0.529429,-319.999847,-320.0,17.949081,5.236242,1.458049,297.520416,103.719795,0.058793,-0.013013,-11.489395,0.007592,0.056403,0.016541,0.0,1.0,2264.970459
23.376261,-316.390533,-315.197083,2.83077,-0.526667,2.83077,-0.526667,-319.999847,-320.0,17.956539,5.677064,1.523199,297.502533,105.214027,0.057698,-0.013681,-15.40731,0.007563,0.056489,0.017207,0.0,1.0,2267.517334
24.038189,-316.392029,-315.198578,2.835189,-0.524869,2.835189,-0.524869,-319.999847,-320.0,17.9617,5.978644,1.570495,297.492126,106.099808,0.057246,-0.013842,-9.780943,0.007524,0.056615,0.018102,0.0,1.0,2269.211426
25.032619,-316.391357,-315.197906,2.841846,-0.522286,2.841846,-0.522286,-319.999847,-320.0,17.969719,6.44223,1.63531,297.47937,107.25428,0.056969,-0.013606,-2.088153,0.007498,0.056704,0.018622,0.0,1.0,2271.744629
25.695284,-316.389313,-315.195862,2.846467,-0.520506,2.846467,-0.520506,-319.999847,-320.0,17.975254,6.758577,1.683511,297.47226,107.904327,0.056983,-0.013258,16.392086,0.007461,0.056837,0.01926,0.0,1.0,2273.428467
26.689911,-316.384399,-315.190948,2.853371,-0.517734,2.853371,-0.517734,-319.999847,-320.0,17.983839,7.243715,1.748761,297.463013,108.696739,0.057152,-0.012576,15.387671,0.007436,0.056929,0.019615,0.0,1.0,2275.948486
27.352234,-316.380066,-315.186615,2.857993,-0.515694,2.857993,-0.515694,-319.999847,-320.0,17.989693,7.574037,1.378897,297.456848,109.102821,0.057187,-0.012183,11.06889,0.007396,0.057067,0.020078,0.0,1.0,2277.624756
28.31852,-316.37262,-315.179199,2.866709,-0.512521,2.866709,-0.512521,-319.999847,-320.0,17.998304,8.065359,1.943306,297.446777,109.521385,0.057821,-0.011848,9.190031,0.007367,0.05716,0.020386,0.0,1.0,2280.066162
29.281652,-316.363861,-315.170441,2.882136,-0.508929,2.882136,-0.508929,-319.999847,-320.0,18.009081,8.56773,2.366094,297.433533,109.738647,0.057005,-0.012065,14.376904,0.007322,0.057334,0.020889,0.0,1.0,2282.503906
29.969805,-316.35672,-315.163269,2.886751,-0.506042,2.886751,-0.506042,-319.999847,-320.0,18.017366,8.933118,2.4087,297.421539,109.774956,0.055915,-0.012598,10.302629,0.00727,0.057643,0.021551,0.0,1.0,2284.243408
30.958143,-316.345306,-315.151886,2.892485,-0.501657,2.892485,-0.501657,-319.999847,-320.0,18.029589,9.468575,2.479679,297.40097,109.661568,0.053975,-0.01377,15.560511,0.007229,0.057735,0.022151,0.0,1.0,2286.746826
31.617016,-316.337097,-315.143646,2.896922,-0.498543,2.896922,-0.498543,-319.999847,-320.0,18.037949,9.831478,2.534579,297.38504,109.483185,0.052395,-0.014805,16.544146,0.007167,0.05785,0.02318,0.0,1.0,2288.415039
32.602863,-316.323975,-315.130554,2.903952,-0.493942,2.903952,-0.493942,-319.999847,-320.0,18.050821,10.38445,2.611284,297.359375,109.072815,0.049816,-0.016437,16.53797,0.007122,0.057938,0.023976,0.0,1.0,2290.917236
33.233307,-316.315186,-315.121735,2.908731,-0.490926,2.908731,-0.490926,-319.999847,-320.0,18.059254,10.743003,2.663538,297.342041,108.727814,0.048342,-0.017501,19.883158,0.007056,0.058079,0.025259,0.0,1.0,2292.516113
34.242756,-316.300385,-315.106934,2.915065,-0.486873,2.915065,-0.486873,-319.999847,-320.0,18.073017,11.328145,2.563385,297.314728,108.051445,0.045358,-0.01893,15.989595,0.007013,0.058175,0.026126,0.0,1.0,2295.088135
34.898148,-316.290497,-315.097046,2.918249,-0.488941,2.918249,-0.488941,-319.999847,-320.0,18.081461,11.713045,2.558561,297.297546,107.541344,0.044132,-0.019757,12.455755,0.006955,0.058301,0.027492,0.0,1.0,2296.756836
35.877567,-316.275299,-315.081848,2.927923,-0.485301,2.927923,-0.485301,-319.999847,-320.0,18.09532,12.298021,2.80804,297.274292,106.686272,0.043085,-0.020303,8.87566,0.006985,0.058365,0.028351,0.0,1.0,2299.260498
36.529987,-316.264862,-315.071442,2.933364,-0.482654,2.933364,-0.482654,-319.999847,-320.0,18.104778,12.69294,2.862237,297.26004,106.065491,0.042639,-0.020429,9.155433,0.006933,0.058558,0.029514,0.0,1.0,2300.929688
37.505493,-316.24881,-315.055359,2.940957,-0.478834,2.940957,-0.478834,-319.999847,-320.0,18.119286,13.292469,2.937167,297.240875,105.074242,0.042388,-0.020248,9.923267,0.006895,0.058667,0.030226,0.0,1.0,2303.433838
38.155216,-316.237823,-315.044373,2.946177,-0.476145,2.946177,-0.476145,-319.999847,-320.0,18.129173,13.696781,2.991967,297.22876,104.382713,0.042368,-0.020048,10.397664,0.00684,0.058819,0.031184,0.0,1.0,2305.103516
39.126621,-316.220978,-315.027527,2.952347,-0.472891,2.952347,-0.472891,-319.999847,-320.0,18.144171,14.309945,2.931004,297.210876,103.315231,0.042228,-0.019769,15.04384,0.006802,0.058924,0.03179,0.0,1.0,2307.607666
39.736168,-316.209564,-315.016144,2.956304,-0.471941,2.956304,-0.471941,-319.999847,-320.0,18.153864,14.723051,2.942359,297.198212,102.592468,0.042214,-0.019746,18.318323,0.006756,0.059047,0.032684,0.0,1.0,2309.264648
40.623569,-316.192444,-314.999023,2.962343,-0.465349,2.962343,-0.465349,-319.999847,-320.0,18.168428,15.348989,2.9097,297.179352,101.506546,0.041792,-0.019552,12.032229,0.006742,0.059126,0.033318,0.0,1.0,2311.685303
41.213112,-316.181396,-314.987946,2.96611,-0.462503,2.96611,-0.462503,-309.999847,-310.0,18.177998,15.770341,2.889602,297.16748,100.789688,0.04108,-0.019376,12.95643,0.006648,0.059247,0.034261,0.0,1.0,2313.262695
42.094936,-316.165253,-314.971802,2.972936,-0.460205,2.972936,-0.460205,-309.999847,-310.0,18.192614,16.408251,2.955891,297.152771,99.738441,0.040487,-0.01867,12.40803,0.006607,0.059322,0.034854,0.0,1.0,2315.592773
42.681263,-316.154694,-314.961243,2.977643,-0.458914,2.977643,-0.458914,-309.999847,-310.0,18.202547,16.837324,3.001178,297.145294,99.060905,0.040514,-0.017895,12.103809,0.006574,0.059459,0.03559,0.0,1.0,2317.129883
43.558281,-316.139038,-314.945587,2.984397,-0.457418,2.984397,-0.457418,-309.999847,-310.0,18.21773,17.486422,3.069275,297.13797,98.090973,0.041306,-0.016264,11.839344,0.006556,0.059553,0.035963,0.0,1.0,2319.438477
44.140827,-316.128601,-314.93515,2.995442,-0.46348,2.995442,-0.46348,-309.999847,-310.0,18.229006,17.922691,4.153075,297.135071,97.481308,0.041583,-0.015208,11.908456,0.006535,0.059688,0.03633,0.0,1.0,2321.541748
45.010918,-316.112213,-314.918762,3.006938,-0.465293,3.006938,-0.465293,-309.999847,-310.0,18.249006,18.582184,4.040963,297.132782,96.631531,0.044012,-0.013256,13.215655,0.006621,0.059909,0.036475,0.0,1.0,2325.779541
45.590412,-316.100708,-314.907257,3.011125,-0.464357,3.011125,-0.464357,-309.999847,-310.0,18.262564,19.025135,4.091475,297.131439,96.112793,0.04555,-0.012059,17.319542,0.006647,0.060139,0.036589,0.0,1.0,2329.060791
46.45882,-316.082764,-314.889313,3.016952,-0.46253,3.016952,-0.46253,-309.999847,-310.0,18.283234,19.694338,4.175249,297.12796,95.412872,0.047396,-0.010708,15.072153,0.006634,0.060222,0.036656,0.0,1.0,2334.388184
47.037567,-316.070343,-314.876892,3.021242,-0.461035,3.021242,-0.461035,-309.999847,-310.0,18.297253,20.143574,4.234168,297.123749,95.001404,0.048125,-0.010215,12.695597,0.006608,0.060339,0.03683,0.0,1.0,2338.11084
47.905216,-316.051147,-314.857697,3.027639,-0.458474,3.027639,-0.458474,-309.999847,-310.0,18.318647,20.821947,4.322129,297.113861,94.470718,0.048283,-0.010117,15.933492,0.006586,0.060425,0.037041,0.0,1.0,2343.8479
48.459423,-316.038544,-314.845093,3.03187,-0.456634,3.03187,-0.456634,-309.999847,-310.0,18.332548,21.258118,4.379642,297.105103,94.187363,0.04786,-0.010446,10.979427,0.00655,0.060553,0.037535,0.0,1.0,2347.575439
49.350784,-316.017761,-314.82431,3.038397,-0.453613,3.038397,-0.453613,-309.999847,-310.0,18.355288,21.964188,4.468942,297.088013,93.823807,0.046111,-0.011358,18.470001,0.006523,0.060637,0.037973,0.0,1.0,2353.634521
49.904694,-316.004547,-314.811096,3.042586,-0.451668,3.042586,-0.451668,-309.999847,-310.0,18.369659,22.405764,4.524646,297.076019,93.655121,0.044889,-0.01207,16.951176,0.00648,0.060768,0.038828,0.0,1.0,2357.427246
50.79562,-315.982819,-314.789368,3.046532,-0.451558,3.046532,-0.451558,-309.999847,-310.0,18.392733,23.120295,4.255672,297.056732,93.474594,0.041716,-0.013149,18.33593,0.006452,0.060852,0.039427,0.0,1.0,2363.556641
51.349964,-315.969238,-314.775818,3.046507,-0.45419,3.046507,-0.45419,-309.999847,-310.0,18.405708,23.566998,4.054696,297.045471,93.417473,0.040903,-0.013639,19.009022,0.006451,0.060931,0.040392,0.0,1.0,2367.380371
52.24107,-315.947632,-314.754181,3.05322,-0.452159,3.05322,-0.452159,-309.999847,-310.0,18.426805,24.289572,4.150394,297.030701,93.410591,0.03939,-0.013692,20.173035,0.006488,0.06093,0.040955,0.0,1.0,2373.548584
52.818588,-315.933655,-314.740204,3.058069,-0.450909,3.058069,-0.450909,-309.999847,-310.0,18.440741,24.760815,4.207404,297.023315,93.459656,0.038989,-0.013385,10.000248,0.006459,0.061064,0.041693,0.0,1.0,2377.558594
53.684219,-315.912659,-314.719208,3.064708,-0.449392,3.064708,-0.449392,-309.999847,-310.0,18.461981,25.471325,4.286321,297.015717,93.60717,0.039229,-0.012431,20.211201,0.006442,0.061161,0.042062,0.0,1.0,2383.584229
54.573036,-315.89093,-314.697479,3.071433,-0.447945,3.071433,-0.447945,-309.999847,-310.0,18.484222,26.205988,4.366812,297.011169,93.843941,0.040293,-0.011111,9.81936,0.00642,0.061294,0.042442,0.0,1.0,2389.789551
55.124996,-315.877319,-314.683868,3.076676,-0.447071,3.076676,-0.447071,-309.999847,-310.0,18.498526,26.664856,4.538445,297.009064,94.030579,0.0413,-0.010282,11.314896,0.006399,0.061429,0.04267,0.0,1.0,2393.652832
55.988144,-315.855682,-314.662231,3.086233,-0.446678,3.086233,-0.446678,-309.999847,-310.0,18.521803,27.386347,5.462469,297.005432,94.376709,0.042662,-0.009244,11.752075,0.006387,0.061534,0.042775,0.0,1.0,2399.70752
56.586052,-315.840149,-314.646698,3.094707,-0.446914,3.094707,-0.446914,-309.999847,-310.0,18.540478,27.889647,5.417282,297.001617,94.651421,0.043701,-0.008811,10.114835,0.006381,0.061725,0.042957,0.0,1.0,2403.917236
57.446766,-315.816681,-314.62323,3.100372,-0.445186,3.100372,-0.445186,-309.999847,-310.0,18.56776,28.617556,5.496266,296.993256,95.088776,0.044733,-0.008685,10.920901,0.006384,0.061894,0.043147,0.0,1.0,2409.986572
58.020267,-315.800446,-314.606995,3.103997,-0.44389,3.103997,-0.44389,-309.999847,-310.0,18.586184,29.104839,5.554851,296.985504,95.40316,0.04498,-0.008952,11.579345,0.00636,0.062007,0.043565,0.0,1.0,2414.037842
58.856415,-315.776062,-314.582611,3.105172,-0.445441,3.105172,-0.445441,-309.999847,-310.0,18.612659,29.818254,4.822358,296.971619,95.886864,0.044309,-0.009793,20.825527,0.006341,0.06208,0.043953,0.0,1.0,2419.954346
59.716965,-315.750854,-314.557404,3.107747,-0.445025,3.107747,-0.445025,-309.999847,-310.0,18.637182,30.555416,4.951988,296.955231,96.406265,0.043603,-0.01077,20.737848,0.006363,0.062103,0.044647,0.0,1.0,2426.051514
60.290073,-315.7341,-314.540649,3.11196,-0.443779,3.11196,-0.443779,-309.999847,-310.0,18.653799,31.048695,5.014625,296.943848,96.759689,0.042861,-0.011396,20.695177,0.006357,0.062155,0.045467,0.0,1.0,2430.123047
61.148853,-315.708984,-314.515533,3.118483,-0.442085,3.118483,-0.442085,-309.999847,-310.0,18.679138,31.791275,5.264238,296.92804,97.29306,0.041771,-0.01201,20.728674,0.00634,0.062239,0.046036,0.0,1.0,2436.25
61.720676,-315.692108,-314.498688,3.123183,-0.440971,3.123183,-0.440971,-309.999847,-310.0,18.696609,32.288052,5.271272,296.918854,97.646637,0.041192,-0.012156,20.855997,0.006316,0.06237,0.046826,0.0,1.0,2440.390381
62.5769,-315.666443,-314.473022,3.134681,-0.441796,3.134681,-0.441796,-309.999847,-310.0,18.725124,33.035702,6.086433,296.908234,98.167297,0.040673,-0.011897,10.689855,0.0063,0.062464,0.047285,0.0,1.0,2446.67041
63.146763,-315.648712,-314.455261,3.139298,-0.440844,3.139298,-0.440844,-309.999847,-310.0,18.745506,33.535736,6.140295,296.903198,98.504356,0.040869,-0.011398,16.326639,0.006311,0.062694,0.047816,0.0,1.0,2450.886963
64.000923,-315.621155,-314.427734,3.144237,-0.439576,3.144237,-0.439576,-309.999847,-310.0,18.776417,34.288109,6.223498,296.898163,98.989182,0.041759,-0.010348,18.301132,0.006298,0.062786,0.048068,0.0,1.0,2457.241455
64.570061,-315.602264,-314.408813,3.147791,-0.435575,3.147791,-0.435575,-309.999847,-310.0,18.79727,34.791191,6.28617,296.888153,99.295547,0.041056,-0.011277,16.7939,0.00628,0.062885,0.0,0.0,1.0,2461.491699
65.451027,-315.572418,-314.378967,3.149495,-0.427112,3.149495,-0.427112,-309.999847,-310.0,18.829794,35.56908,6.365689,296.699921,99.73616,0.030332,-0.040591,15.999177,0.006223,0.062956,5.01E-4,0.0,1.0,2468.068359
66.001717,-315.553467,-314.360046,3.148113,-0.429703,3.148113,-0.429703,-309.999847,-310.0,18.850201,36.054031,6.407961,296.480347,99.987083,0.014063,-0.072597,15.674341,0.006102,0.06299,0.009912,0.0,1.0,2472.176758
66.867455,-315.523285,-314.329834,3.144497,-0.444566,3.144497,-0.444566,-309.999847,-310.0,18.88199,36.815281,6.008687,296.065643,100.336899,-0.022965,-0.127299,16.556118,0.006139,0.062962,0.020891,0.0,1.0,2478.644043
67.447823,-315.503082,-314.309662,3.137421,-0.463089,3.137421,-0.463089,-309.999847,-310.0,18.901197,37.324566,5.672052,295.79068,100.53643,-0.051072,-0.158794,11.475207,0.006351,0.06289,0.041626,0.0,1.0,2482.982178
68.314072,-315.473175,-314.279724,3.141093,-0.479838,3.141093,-0.479838,-309.999847,-310.0,18.929749,38.093445,5.747217,295.487976,100.778511,-0.08964,-0.182047,11.612078,0.006616,0.062748,0.055374,0.0,1.0,2489.517578
68.889427,-315.45343,-314.259979,3.147149,-0.488625,3.147149,-0.488625,-309.999847,-310.0,18.949131,38.607395,6.008453,295.395569,100.899452,-0.107349,-0.178211,13.577915,0.006855,0.062822,0.070509,0.0,1.0,2493.881592
69.754837,-315.423492,-314.230042,3.127915,-0.556844,3.127915,-0.556844,-309.999847,-310.0,18.982067,39.380268,7.077849,295.456482,101.019356,-0.11747,-0.143113,15.585466,0.00698,0.062943,0.07513,0.0,1.0,2500.440674
70.33419,-315.402832,-314.209381,3.088995,-0.644925,3.088995,-0.644925,-309.999847,-310.0,19.00621,39.896832,7.298521,295.620605,101.059235,-0.110684,-0.104311,11.87012,0.007955,0.062558,0.072084,0.0,1.0,2504.831299
71.192604,-315.370667,-314.177216,3.036359,-0.771877,3.036359,-0.771877,-309.999847,-310.0,19.041969,40.673538,6.954985,295.979187,101.062798,-0.08206,-0.036097,12.722587,0.009213,0.06178,0.063878,0.0,1.0,2511.424561
71.755882,-315.348785,-314.155334,3.016864,-0.831794,3.016864,-0.831794,-309.999847,-310.0,19.06489,41.192432,6.757961,296.237152,101.031158,-0.054394,0.006863,12.940101,0.011027,0.060727,0.045949,0.0,1.0,2515.80127
72.590088,-315.315613,-314.122162,3.010648,-0.884312,3.010648,-0.884312,-309.999847,-310.0,19.099947,41.972149,7.388927,296.526337,100.939865,-0.009757,0.04804,13.321507,0.011883,0.060337,0.033051,0.0,1.0,2522.316162
73.145149,-315.292877,-314.099457,2.983893,-0.91802,2.983893,-0.91802,-309.999847,-310.0,19.126907,42.492741,8.755734,296.605438,100.853668,0.016988,0.053993,13.974061,0.012633,0.060213,0.018591,0.0,1.0,2526.631104
73.985558,-315.256592,-314.063171,2.868263,-0.963851,2.868263,-0.963851,-309.999847,-310.0,19.172955,43.274677,9.15943,296.508942,100.690086,0.046035,0.028115,21.90807,0.013115,0.059678,0.014636,0.0,1.0,2533.100342
74.551979,-315.231018,-314.037567,2.790784,-1.028263,2.790784,-1.028263,-309.999847,-310.0,19.202232,43.796696,8.355322,296.313324,100.558113,0.05498,-0.008268,12.732762,0.013769,0.057365,0.019461,0.0,1.0,2537.432129
75.407043,-315.191864,-313.998413,2.731987,-1.23705,2.731987,-1.23705,-309.999847,-310.0,19.242844,44.580956,8.274864,295.909119,100.323509,0.052689,-0.075336,17.657835,0.014689,0.055816,0.029242,0.0,1.0,2543.971924
75.980568,-315.165375,-313.971924,2.695703,-1.46139,2.695703,-1.46139,-309.999847,-310.0,19.273008,45.104698,10.084926,295.63089,100.141136,0.043354,-0.117337,13.261289,0.017672,0.05464,0.049452,0.0,1.0,2548.362793
76.860191,-315.121002,-313.927551,2.710557,-1.89117,2.710557,-1.89117,-309.999847,-310.0,19.34313,45.913605,18.43644,295.323975,99.817329,0.024451,-0.155977,14.113957,0.020877,0.053914,0.063364,0.0,1.0,2555.173584
77.420059,-315.085327,-313.891876,2.781636,-2.16814,2.781636,-2.16814,-309.999847,-310.0,19.422268,46.439159,29.377869,295.244263,99.580467,0.014089,-0.158841,18.841471,0.027017,0.054211,0.078709,0.0,1.0,2559.599121
78.230309,-315.007965,-313.814545,2.950702,-2.449848,2.950702,-2.449848,-309.999847,-310.0,19.629032,47.228317,54.140388,295.316101,99.191925,0.007398,-0.129654,20.271803,0.030973,0.055633,0.082695,0.0,1.0,2566.199707
78.74292,-314.929504,-313.736053,3.09036,-2.503062,3.09036,-2.503062,-309.999847,-310.0,19.844906,47.75457,75.052597,295.455414,98.916977,0.011153,-0.09549,27.709539,0.034998,0.059014,0.079103,0.0,1.0,2570.537842
79.44812,-314.756714,-313.563263,3.28178,-2.347961,3.28178,-2.347961,-309.999847,-310.0,20.292461,48.521461,108.320778,295.68631,98.505989,0.027239,-0.042761,43.264168,0.035758,0.061807,0.072137,0.0,1.0,2576.719238
79.903915,-314.58725,-313.393799,3.412289,-2.1115,3.412289,-2.1115,-309.999847,-310.0,20.693399,49.046444,131.399582,295.802185,98.225426,0.041647,-0.015164,56.074562,0.033542,0.065636,0.060593,0.0,1.0,2580.834473
80.568184,-314.228424,-313.034973,3.57448,-1.654342,3.57448,-1.654342,-309.999847,-310.0,21.460066,49.853481,165.371521,295.823761,97.808807,0.062326,-8.24E-4,79.386803,0.030164,0.068246,0.054799,0.0,1.0,2586.966797
80.966393,-313.940002,-312.746552,3.661019,-1.381684,3.661019,-1.381684,-309.999847,-310.0,22.020065,50.353348,184.199402,295.730743,97.565453,0.070972,-0.01001,94.666374,0.023633,0.07149,0.05372,0.0,1.0,2590.473389
81.588989,-313.365082,-312.171631,3.767113,-1.094716,3.767113,-1.094716,-309.999847,-310.0,23.041243,51.15403,212.00882,295.463074,97.206291,0.073226,-0.04432,120.235207,0.019738,0.07322,0.058371,0.0,1.0,2595.005615
81.965698,-312.938599,-311.745148,3.83595,-1.025314,3.83595,-1.025314,-309.999847,-310.0,23.745369,51.649403,228.087784,295.274292,97.005074,0.067803,-0.068524,136.080688,0.015639,0.075342,0.071754,0.0,1.0,2597.336914
82.551537,-312.141083,-310.947632,3.950182,-1.079065,3.950182,-1.079065,-309.999847,-310.0,24.983786,52.442154,253.120239,295.057465,96.718773,0.054131,-0.092045,161.642136,0.014647,0.076719,0.081194,0.0,1.0,2600.572998
82.65535,-311.577545,-310.384094,4.032142,-1.158673,4.032142,-1.158673,-309.999847,-310.0,25.818199,52.932152,268.705597,295.014313,96.56498,0.046058,-0.091188,177.214813,0.015415,0.079004,0.092035,0.0,1.0,2602.355957
82.795288,-310.562012,-309.368591,4.162777,-1.244536,4.162777,-1.244536,-309.999847,-310.0,27.264956,53.715382,293.56015,295.116089,96.359619,0.041159,-0.062249,202.273483,0.016552,0.080643,0.094192,0.0,1.0,2604.964355
82.891365,-309.86438,-308.670929,4.250927,-1.221232,4.250927,-1.221232,-309.999847,-310.0,28.229002,54.198788,309.796722,295.257599,96.260696,0.045212,-0.03271,217.584503,0.017779,0.083256,0.089104,0.0,1.0,2606.45752
83.055611,-308.670258,-307.476807,4.384666,-1.027986,4.384666,-1.027986,-309.999847,-310.0,29.851648,54.949417,339.038574,295.500916,96.15596,0.060463,0.014208,241.510742,0.017446,0.085019,0.082028,0.0,1.0,2608.636475
83.23777,-307.343414,-306.149963,4.540909,-0.696941,4.540909,-0.696941,-309.999847,-310.0,31.629805,55.691933,371.632385,295.658905,96.119637,0.080002,0.043345,266.776428,0.014686,0.087693,0.069862,0.0,1.0,2610.654541
83.37513,-306.341339,-305.147888,4.645997,-0.450204,4.645997,-0.450204,-309.999847,-310.0,32.95789,56.202381,392.085907,295.671448,96.138283,0.09106,0.045902,284.778198,0.009956,0.090818,0.061963,0.0,1.0,2611.977783
83.588913,-304.778595,-303.585175,4.736453,-0.189874,4.736453,-0.189874,-299.999847,-300.0,34.979973,56.929642,414.569641,295.548798,96.230255,0.099321,0.025205,311.448517,0.006431,0.09292,0.061336,0.0,1.0,2613.795166
83.734947,-303.709686,-302.516235,4.769738,-0.114184,4.769738,-0.114184,-299.999847,-300.0,36.323563,57.389435,426.040771,295.418915,96.327942,0.097409,0.003784,328.00946,0.002712,0.094729,0.067468,0.0,1.0,2614.914307
83.984001,-301.883026,-300.689606,4.815319,-0.163916,4.815319,-0.163916,-299.999847,-300.0,38.557083,58.12125,442.446198,295.230743,96.5429,0.086164,-0.02633,353.397583,0.001631,0.095395,0.073962,0.0,1.0,2616.664307
84.146767,-300.686981,-299.49353,4.8592,-0.263873,4.8592,-0.263873,-299.999847,-300.0,39.987038,58.571304,452.512939,295.171204,96.708572,0.076889,-0.034905,368.071869,0.002342,0.096306,0.083371,0.0,1.0,2617.724854
84.420502,-298.670624,-297.477173,4.94642,-0.437371,4.94642,-0.437371,-299.999847,-300.0,42.358292,59.287388,470.21283,295.218536,97.020226,0.066604,-0.02472,390.449524,0.00377,0.097184,0.086348,0.0,1.0,2619.386719
84.597542,-297.363373,-296.169952,5.010164,-0.50142,5.010164,-0.50142,-299.999847,-300.0,43.880589,59.727474,482.566589,295.32608,97.239601,0.065649,-0.00604,403.585938,0.006248,0.098928,0.083981,0.0,1.0,2620.389404
84.893349,-295.172974,-293.979523,5.107808,-0.465214,5.107808,-0.465214,-289.999847,-290.0,46.41605,60.426983,503.772491,295.549622,97.631111,0.073368,0.030775,424.34317,0.007163,0.100203,0.078604,0.0,1.0,2621.946777
85.0839,-293.758148,-292.564697,5.171367,-0.364062,5.171367,-0.364062,-289.999847,-290.0,48.047821,60.856392,517.369324,295.673035,97.897621,0.082624,0.049753,436.994537,0.006646,0.102156,0.067427,0.0,1.0,2622.878662
85.401413,-291.393311,-290.19986,5.256275,-0.13848,5.256275,-0.13848,-289.999847,-290.0,50.763988,61.538227,539.01532,295.761536,98.361763,0.096956,0.060295,457.530518,0.005201,0.103427,0.061256,0.0,1.0,2624.323975
85.605446,-289.869263,-288.675812,5.306783,-0.009567,5.306783,-0.009567,-289.999847,-290.0,52.507721,61.956459,552.154907,295.73703,98.670479,0.10252,0.053226,470.217224,0.001978,0.105126,0.056831,0.0,1.0,2625.195068
85.944527,-287.328217,-286.134766,5.375534,0.084177,5.375534,0.084177,-289.999847,-290.0,55.398605,62.620289,572.049011,295.6008,99.193932,0.102135,0.02592,490.828003,1.37E-4,0.106136,0.058057,0.0,1.0,2626.564697
86.161568,-285.697418,-284.503998,5.421511,0.060258,5.421511,0.060258,-289.999847,-290.0,57.245419,63.027447,583.733459,295.495605,99.531822,0.095917,0.00633,503.192108,-0.001203,0.107511,0.064868,0.0,1.0,2627.401123
86.521233,-282.984009,-281.790558,5.492848,-0.092077,5.492848,-0.092077,-279.999847,-280.0,60.294449,63.673744,602.366516,295.385986,100.086647,0.08198,-0.013965,523.603699,-8.61E-4,0.10843,0.070128,0.0,1.0,2628.727539
86.750687,-281.247559,-280.054138,5.545413,-0.215467,5.545413,-0.215467,-279.999847,-280.0,62.238132,64.070137,614.153748,295.382813,100.434044,0.073649,-0.015264,535.82605,0.001315,0.109857,0.075609,0.0,1.0,2629.539307
87.129669,-278.369446,-277.176025,5.632143,-0.363151,5.632143,-0.363151,-279.999847,-280.0,65.44577,64.699127,633.785034,295.491455,100.990181,0.067233,0.00177,555.546875,0.003078,0.110908,0.075768,0.0,1.0,2630.818359
87.509216,-275.474792,-274.281342,5.726454,-0.381387,5.726454,-0.381387,-279.999847,-280.0,68.665741,65.300644,653.823486,295.672852,101.523087,0.071065,0.029797,574.245056,0.005188,0.112643,0.070335,0.0,1.0,2632.020752
87.768837,-273.486847,-272.293396,5.788964,-0.316921,5.788964,-0.316921,-269.999847,-270.0,70.868858,65.69577,667.564392,295.784637,101.872314,0.077892,0.046083,587.192322,0.005448,0.114529,0.061266,0.0,1.0,2632.794922
88.15567,-270.514526,-269.321106,5.862931,-0.159242,5.862931,-0.159242,-269.999847,-270.0,74.163261,66.263412,687.057068,295.864136,102.37146,0.089395,0.054892,605.52832,0.004527,0.115779,0.055676,0.0,1.0,2633.884521
88.427193,-268.420929,-267.227509,5.912489,-0.053436,5.912489,-0.053436,-269.999847,-270.0,76.475441,66.646751,699.716797,295.848328,102.705482,0.093957,0.049039,618.33844,0.002275,0.117259,0.051701,0.0,1.0,2634.608887
88.843002,-265.200592,-264.007141,5.974974,0.020416,5.974974,0.020416,-259.999847,-260.0,80.020851,67.212852,717.640503,295.739624,103.19043,0.093345,0.02638,637.375183,7.63E-4,0.11825,0.052492,0.0,1.0,2635.669678
89.126228,-262.999664,-261.806213,6.017797,-0.002431,6.017797,-0.002431,-259.999847,-260.0,82.432358,67.584419,728.792847,295.645172,103.500122,0.087671,0.008375,650.060547,-2.92E-4,0.119499,0.057927,0.0,1.0,2636.364014
89.558998,-259.621277,-258.427826,6.076794,-0.13355,6.076794,-0.13355,-259.999847,-260.0,86.117943,68.133202,744.812744,295.548828,103.938744,0.07493,-0.009851,668.757874,3.5E-5,0.120356,0.06265,0.0,1.0,2637.390869
89.840637,-257.414246,-256.220795,6.119854,-0.243686,6.119854,-0.243686,-259.999847,-260.0,88.513718,68.478508,754.777527,295.542236,104.199966,0.068426,-0.011864,680.593689,0.001908,0.121536,0.067467,0.0,1.0,2638.037354
90.300995,-253.792114,-252.598663,6.189346,-0.37795,6.189346,-0.37795,-249.999863,-250.0,92.435234,69.02533,770.979553,295.631531,104.585678,0.061175,0.001863,698.903137,0.003481,0.122397,0.067796,0.0,1.0,2639.056641
90.591911,-251.493286,-250.299835,6.238792,-0.407528,6.238792,-0.407528,-249.999863,-250.0,94.915001,69.359825,781.231018,295.72937,104.803322,0.061936,0.016998,710.19812,0.005399,0.123787,0.063332,0.0,1.0,2639.673584
90.924644,-248.854645,-247.661194,6.289831,-0.374569,6.289831,-0.374569,-249.999863,-250.0,97.75827,69.732872,793.035095,295.841614,105.029251,0.067497,0.033824,722.645691,0.005822,0.124776,0.05844,0.0,1.0,2640.351807
91.392082,-245.132126,-243.93869,6.351033,-0.247977,6.351033,-0.247977,-249.999863,-250.0,101.764153,70.240425,808.723755,295.937317,105.308357,0.077596,0.046211,739.416992,0.005351,0.125797,0.052827,0.0,1.0,2641.255859
91.867416,-241.326523,-240.133072,6.40726,-0.11266,6.40726,-0.11266,-239.999863,-240.0,105.846207,70.737579,823.550354,295.925354,105.550087,0.08435,0.040128,755.99408,0.003543,0.127021,0.048042,0.0,1.0,2642.125244
92.188362,-238.745987,-237.552551,6.441006,-0.061973,6.441006,-0.061973,-239.999863,-240.0,108.607552,71.063309,832.828247,295.864014,105.690865,0.084446,0.027411,766.790771,0.001609,0.128145,0.04864,0.0,1.0,2642.69043
92.675629,-234.810867,-233.617432,6.480782,-0.087499,6.480782,-0.087499,-229.999863,-230.0,112.804993,71.543549,845.497681,295.746307,105.870743,0.077831,0.004822,782.691956,8.85E-4,0.12882,0.051707,0.0,1.0,2643.52417
93.004333,-232.143829,-230.950378,6.509793,-0.16036,6.509793,-0.16036,-229.999863,-230.0,115.636848,71.858284,853.284363,295.686493,105.968971,0.070646,-0.006407,793.254395,0.00125,0.129616,0.057593,0.0,1.0,2644.073486
93.4748,-228.310822,-227.117371,6.551902,-0.293671,6.551902,-0.293671,-229.999863,-230.0,119.692574,72.296875,864.079956,295.673676,106.077484,0.061147,-0.009558,807.760681,0.002291,0.130196,0.060583,0.0,1.0,2644.842773
93.838036,-225.338058,-224.144608,6.590223,-0.378787,6.590223,-0.378787,-229.999863,-230.0,122.828392,72.626556,872.441162,295.725098,106.136398,0.056577,-0.001706,818.488831,0.004195,0.131038,0.061224,0.0,1.0,2645.421387
94.316917,-221.401001,-220.207565,6.639668,-0.413714,6.639668,-0.413714,-219.999863,-220.0,126.975594,73.050194,883.698669,295.841705,106.18383,0.057307,0.01645,831.894836,0.005411,0.131804,0.058653,0.0,1.0,2646.159912
94.671799,-218.470245,-217.276794,6.677693,-0.379939,6.677693,-0.379939,-219.999863,-220.0,130.05896,73.356255,892.046692,295.930206,106.19944,0.062276,0.029672,841.408691,0.00591,0.132793,0.052823,0.0,1.0,2646.686523
95.186913,-214.19632,-213.002884,6.723597,-0.269908,6.723597,-0.269908,-209.999863,-210.0,134.549911,73.788826,903.879395,296.00238,106.197517,0.071091,0.038672,854.777954,0.005428,0.133554,0.048398,0.0,1.0,2647.418701
95.721161,-209.7388,-208.545364,6.764194,-0.157554,6.764194,-0.157554,-209.999863,-210.0,139.225006,74.223465,915.173706,295.97937,106.170502,0.076274,0.031409,868.206787,0.003856,0.134472,0.044789,0.0,1.0,2648.144043
96.069969,-206.814682,-205.621246,6.786458,-0.123797,6.786458,-0.123797,-209.999863,-210.0,142.287369,74.500114,921.913879,295.921021,106.141319,0.075714,0.019707,876.662781,0.002251,0.135284,0.04594,0.0,1.0,2648.604736
92.142601,-202.379059,-201.185608,6.812852,-0.161272,6.812852,-0.161272,-199.999863,-200.0,146.92067,74.907509,930.932739,295.820282,106.081833,0.069139,6.7E-4,889.115845,0.001769,0.135729,0.048857,0.0,1.0,2649.286865
92.216629,-199.394592,-198.201157,6.833102,-0.230883,6.833102,-0.230883,-199.999863,-200.0,150.033432,75.174202,936.49469,295.774872,106.032089,0.062751,-0.007791,896.937378,0.002304,0.136257,0.053894,0.0,1.0,2649.738037
92.317146,-194.869492,-193.676056,6.865913,-0.351987,6.865913,-0.351987,-199.999863,-200.0,154.737183,75.567047,944.775635,295.778564,105.943298,0.054209,-0.007866,908.66333,0.003298,0.136662,0.056165,0.0,1.0,2650.408936
92.379791,-191.955414,-190.761963,6.890925,-0.409794,6.890925,-0.409794,-189.999863,-190.0,157.764206,75.81356,950.228149,295.8255,105.8787,0.051786,-5.06E-4,915.662415,0.005028,0.137318,0.05598,0.0,1.0,2650.831543
92.471046,-187.219894,-186.026459,6.930686,-0.424567,6.930686,-0.424567,-189.999863,-190.0,162.671082,76.202789,959.256836,295.937256,105.765175,0.053959,0.016985,926.958191,0.005854,0.137819,0.053633,0.0,1.0,2651.496338
92.52504,-184.253036,-183.059601,6.956543,-0.387554,6.956543,-0.387554,-179.999863,-180.0,165.744888,76.440178,964.995422,296.002228,105.690903,0.05839,0.026597,933.606934,0.006065,0.138614,0.048045,0.0,1.0,2651.897461
92.603218,-179.439163,-178.245712,6.989319,-0.285504,6.989319,-0.285504,-179.999863,-180.0,170.727798,76.81472,973.929749,296.048187,105.569939,0.065962,0.031671,944.119446,0.005536,0.139131,0.044797,0.0,1.0,2652.522949
92.653229,-176.425125,-175.231674,7.00773,-0.225247,7.00773,-0.225247,-179.999863,-180.0,173.847626,77.04303,979.112061,296.032898,105.495804,0.068871,0.027434,950.328857,0.004079,0.139786,0.042499,0.0,1.0,2652.901367
92.732185,-171.537064,-170.343613,7.0297,-0.187854,7.0297,-0.187854,-169.999863,-170.0,178.899567,77.403206,986.650085,295.955322,105.380692,0.068132,0.012037,960.212646,0.003218,0.140155,0.043263,0.0,1.0,2653.499512
92.810104,-166.87471,-165.681259,7.050367,-0.232879,7.050367,-0.232879,-169.999863,-170.0,183.711838,77.736107,993.004272,295.871429,105.277618,0.061486,-0.003369,969.101257,0.002684,0.140594,0.047142,0.0,1.0,2654.058838
92.864792,-163.655762,-162.462311,7.065709,-0.298355,7.065709,-0.298355,-159.999863,-160.0,187.029083,77.960136,997.179321,295.838684,105.210373,0.055771,-0.009332,975.022034,0.003327,0.141007,0.051337,0.0,1.0,2654.44043
92.916069,-160.280563,-159.087112,7.08207,-0.372417,7.08207,-0.372417,-159.999863,-160.0,190.499313,78.18988,1001.497375,295.841675,105.143433,0.050781,-0.009047,981.301086,0.004262,0.141314,0.052974,0.0,1.0,2654.835449
92.990532,-155.392242,-154.198792,7.109158,-0.442123,7.109158,-0.442123,-159.999863,-160.0,195.522797,78.51432,1007.760986,295.908905,105.053497,0.04781,0.00185,989.781555,0.00532,0.141641,0.052824,0.0,1.0,2655.396973
93.051796,-150.743835,-149.550385,7.139245,-0.437774,7.139245,-0.437774,-149.999863,-150.0,200.29686,78.813797,1014.080627,296.00293,104.977638,0.050639,0.016618,997.418762,0.006316,0.142183,0.049463,0.0,1.0,2655.913574
93.093758,-147.1689,-145.975464,7.161348,-0.389279,7.161348,-0.389279,-149.999863,-150.0,203.968109,79.038254,1019.068298,296.061188,104.927437,0.055761,0.02515,1003.055237,0.006254,0.142785,0.044762,0.0,1.0,2656.297363
93.12912,-143.853363,-142.659912,7.177083,-0.326644,7.177083,-0.326644,-139.999863,-140.0,207.372849,79.241943,1023.539734,296.084442,104.888329,0.060544,0.027617,1008.135925,0.005561,0.143227,0.041849,0.0,1.0,2656.642334
93.185623,-138.851624,-137.658173,7.194046,-0.24812,7.194046,-0.24812,-139.999863,-140.0,212.506149,79.541275,1029.456177,296.054138,104.844093,0.064485,0.020335,1015.605774,0.004666,0.143542,0.040686,0.0,1.0,2657.147705
93.241638,-133.959473,-132.766037,7.209092,-0.232431,7.209092,-0.232431,-129.999863,-130.0,217.523239,79.825356,1034.488647,295.976776,104.818001,0.06223,0.005795,1022.551147,0.003545,0.143881,0.042201,0.0,1.0,2657.630371
93.291924,-130.448212,-129.254776,7.219696,-0.267162,7.219696,-0.267162,-129.999863,-130.0,221.121216,80.024223,1037.799072,295.921539,104.808983,0.057858,-0.004105,1027.30188,0.00332,0.144182,0.046069,0.0,1.0,2657.973389
93.34903,-125.507072,-124.313629,7.233798,-0.354663,7.233798,-0.354663,-129.999863,-130.0,226.177124,80.297157,1042.177002,295.887207,104.808372,0.050027,-0.010152,1033.887817,0.003817,0.144394,0.048831,0.0,1.0,2658.452393
93.380829,-121.95919,-120.765747,7.247241,-0.418416,7.247241,-0.418416,-119.999855,-120.0,229.801361,80.488266,1045.297607,295.904388,104.815689,0.046437,-0.00736,1038.568481,0.005067,0.144676,0.050548,0.0,1.0,2658.792969
93.440506,-116.975128,-115.781685,7.268612,-0.462242,7.268612,-0.462242,-119.999855,-120.0,234.89418,80.750496,1049.945068,295.97522,104.836258,0.04553,0.004261,1044.588745,0.005977,0.144945,0.049689,0.0,1.0,2659.263428
93.464508,-113.397644,-112.204201,7.285941,-0.451585,7.285941,-0.451585,-109.999855,-110.0,238.546127,80.934006,1053.483398,296.03775,104.858498,0.048102,0.014154,1048.902954,0.006603,0.145372,0.046147,0.0,1.0,2659.592285
93.513573,-108.372833,-107.17939,7.305858,-0.385455,7.305858,-0.385455,-109.999855,-110.0,243.679855,81.185577,1058.493042,296.097839,104.900948,0.054528,0.022837,1054.498291,0.006451,0.145719,0.043021,0.0,1.0,2660.040039
93.532692,-104.76638,-103.572937,7.318095,-0.325598,7.318095,-0.325598,-109.999855,-110.0,247.361298,81.361496,1061.869873,296.10495,104.93969,0.058211,0.022835,1058.573242,0.005507,0.146117,0.040016,0.0,1.0,2660.351563
93.572098,-99.702324,-98.508881,7.329442,-0.269395,7.329442,-0.269395,-99.999855,-100.0,252.534058,81.602592,1066.106445,296.062683,105.00544,0.060288,0.014086,1063.854004,0.004651,0.146362,0.039661,0.0,1.0,2660.779053
93.600174,-96.217209,-95.023766,7.336037,-0.264549,7.336037,-0.264549,-99.999855,-100.0,256.092163,81.764519,1068.61377,296.012848,105.05751,0.058495,0.004927,1067.37915,0.003849,0.146589,0.041774,0.0,1.0,2661.06958
93.644806,-90.968666,-89.775223,7.34497,-0.315343,7.34497,-0.315343,-89.999855,-90.0,261.444061,82.002411,1071.986694,295.947998,105.144104,0.052419,-0.006573,1072.643066,0.003779,0.146721,0.044266,0.0,1.0,2661.504395
93.675583,-87.458954,-86.265511,7.35276,-0.37173,7.35276,-0.37173,-89.999855,-90.0,265.021057,82.157776,1074.127686,295.930359,105.206009,0.047995,-0.009635,1075.962769,0.004505,0.146899,0.047508,0.0,1.0,2661.794434
93.718079,-82.17569,-80.982246,7.367052,-0.446948,7.367052,-0.446948,-79.999855,-80.0,270.400208,82.386093,1077.478271,295.957764,105.303001,0.043629,-0.00498,1080.884277,0.00531,0.147055,0.04839,0.0,1.0,2662.228271
93.753357,-77.020355,-75.826904,7.384995,-0.471866,7.384995,-0.471866,-79.999855,-80.0,275.64679,82.602646,1081.078125,296.028412,105.400665,0.044165,0.006568,1085.485352,0.006385,0.147341,0.04702,0.0,1.0,2662.644043
93.778732,-73.178368,-71.984924,7.398893,-0.449187,7.398893,-0.449187,-69.999855,-70.0,279.556,82.760063,1083.957397,296.08371,105.475098,0.0476,0.01524,1088.827515,0.006741,0.1477,0.043488,0.0,1.0,2662.946045
93.811043,-67.993027,-66.799583,7.412588,-0.379818,7.412588,-0.379818,-69.999855,-70.0,284.83493,82.967323,1087.765625,296.123169,105.577927,0.053661,0.020588,1093.062866,0.006417,0.147978,0.040723,0.0,1.0,2663.342285
93.8274,-64.275856,-63.082409,7.420333,-0.327352,7.420333,-0.327352,-59.999859,-60.0,288.616364,83.112137,1090.214844,296.115967,105.653107,0.056438,0.018399,1096.168335,0.005426,0.148252,0.03875,0.0,1.0,2663.618896
93.860672,-59.061428,-57.867985,7.426924,-0.290691,7.426924,-0.290691,-59.999859,-60.0,293.923737,83.310493,1093.193604,296.064209,105.759911,0.056868,0.008464,1100.151611,0.004676,0.148407,0.03911,0.0,1.0,2664.000977
93.879951,-55.324097,-54.130653,7.430923,-0.300242,7.430923,-0.300242,-59.999859,-60.0,297.722809,83.449135,1094.983887,296.015198,105.836227,0.054359,-2.78E-4,1103.083618,0.004153,0.148538,0.041698,0.0,1.0,2664.273193
93.913452,-50.085171,-48.891727,7.436876,-0.359031,7.436876,-0.359031,-49.999859,-50.0,303.051422,83.63916,1097.255249,295.967621,105.940971,0.048228,-0.008474,1106.68457,0.004289,0.148618,0.044148,0.0,1.0,2664.654785
93.938057,-46.484226,-45.290779,7.442959,-0.411737,7.442959,-0.411737,-49.999859,-50.0,306.711578,83.766785,1098.802612,295.963257,106.010124,0.044545,-0.009151,1109.087524,0.005129,0.148738,0.046527,0.0,1.0,2664.91748
93.968414,-40.919796,-39.726349,7.455239,-0.469607,7.455239,-0.469607,-39.999859,-40.0,312.36499,83.959351,1101.419189,296.005493,106.110909,0.041921,-0.001929,1112.699829,0.005882,0.148859,0.046745,0.0,1.0,2665.320801
93.986847,-37.451626,-36.258183,7.464754,-0.477538,7.464754,-0.477538,-39.999859,-40.0,315.886383,84.076508,1103.243652,296.050201,106.169678,0.042954,0.005413,1114.9823,0.006709,0.149105,0.044634,0.0,1.0,2665.568604
94.01503,-31.861496,-30.668053,7.478483,-0.437643,7.478483,-0.437643,-29.999857,-30.0,321.563995,84.260864,1106.337402,296.113678,106.258194,0.047546,0.015363,1118.457275,0.006822,0.149295,0.042398,0.0,1.0,2665.958984
94.024864,-28.379152,-27.185709,7.486032,-0.394234,7.486032,-0.394234,-29.999857,-30.0,325.101318,84.372917,1108.247681,296.132416,106.309776,0.051033,0.017818,1120.574829,0.006252,0.14957,0.039224,0.0,1.0,2666.196289
94.045235,-22.763504,-21.570059,7.493114,-0.332027,7.493114,-0.332027,-19.999857,-20.0,330.803955,84.549149,1110.994507,296.114319,106.387527,0.054403,0.013532,1124.001221,0.005632,0.149721,0.038287,0.0,1.0,2666.571045
94.061775,-19.267376,-18.073933,7.496058,-0.314382,7.496058,-0.314382,-19.999857,-20.0,334.355408,84.656258,1112.421021,296.079987,106.432419,0.05414,0.00718,1125.970459,0.004743,0.149862,0.039192,0.0,1.0,2666.801758
94.086349,-13.630214,-12.436769,7.499364,-0.337255,7.499364,-0.337255,-9.999858,-10.0,340.07724,84.824806,1114.341553,296.019287,106.498077,0.050375,-0.003545,1129.174805,0.004491,0.149921,0.040909,0.0,1.0,2667.157471
94.105331,-10.121477,-8.928033,7.502281,-0.37488,7.502281,-0.37488,-9.999858,-10.0,343.638733,84.927315,1115.412109,295.99472,106.534096,0.046777,-0.007701,1130.995972,0.004818,0.149987,0.043944,0.0,1.0,2667.361572
94.130898,-4.465497,-3.272053,7.509504,-0.442013,7.509504,-0.442013,1.42E-4,0.0,349.375366,85.088715,1117.202026,295.998962,106.583183,0.042228,-0.006778,1133.936279,0.005355,0.150046,0.045172,0.0,1.0,2667.671631
94.318283,-0.933754,0.259691,7.516418,-0.478992,7.516418,-0.478992,1.42E-4,0.0,352.946259,85.186874,1118.484619,296.037689,106.608002,0.03353,2.08E-4,1135.580933,0.002105,0.15019,0.1,0.0,1.0,2667.855713
94.985313,4.853941,6.047385,7.538506,-0.533577,7.538506,-0.533577,1.42E-4,0.0,358.544617,85.337105,1120.939209,296.337708,106.639244,0.029599,0.048463,1138.043823,0.002281,0.150328,0.1,0.0,1.0,2668.125244
95.428406,8.719824,9.913268,7.564778,-0.453694,7.564778,-0.453694,10.000142,10.0,362.285156,85.434769,1123.449829,296.651245,106.65731,0.041996,0.096513,1139.72998,0.002541,0.15077,0.1,0.0,1.0,2668.281738
96.090347,14.529687,15.723131,7.601573,-0.099438,7.601573,-0.099438,10.000142,10.0,367.915253,85.577065,1128.616577,297.133118,106.68779,0.075832,0.165911,1142.310669,0.00216,0.151296,0.1,0.0,1.0,2668.463623
96.529968,18.410822,19.604265,7.618014,0.262891,7.618014,0.262891,20.000143,20.0,371.683716,85.6689,1132.339844,297.387634,106.715691,0.102111,0.198408,1144.081299,4.74E-4,0.152031,0.1,0.0,1.0,2668.546631
97.187042,24.245834,25.43928,7.619969,0.875788,7.619969,0.875788,20.000143,20.0,377.357971,85.801888,1136.873657,297.605865,106.777451,0.136592,0.217076,1146.875244,-0.001252,0.15236,0.1,0.0,1.0,2668.625732
97.62394,28.147865,29.341309,7.613938,1.266953,7.613938,1.266953,30.000143,30.0,381.150787,85.887421,1138.568237,297.645569,106.835541,0.151726,0.211106,1148.964844,-0.00417,0.152399,0.1,0.0,1.0,2668.661133
98.27697,34.01363,35.207073,7.603507,1.724,7.603507,1.724,30.000143,30.0,386.846405,86.011322,1139.336792,297.604309,106.951378,0.16004,0.185093,1152.107544,-0.006033,0.152279,0.1,0.0,1.0,2668.710205
98.710938,37.933517,39.126965,7.596735,1.926783,7.596735,1.926783,40.000141,40.0,390.643616,86.091217,1138.901611,297.558044,107.047989,0.157129,0.165007,1154.242432,-0.00821,0.15207,0.1,0.0,1.0,2668.748779
99.358826,43.818497,45.01194,7.588591,2.08174,7.588591,2.08174,40.000141,40.0,396.334564,86.207413,1137.407959,297.537659,107.220383,0.145444,0.143283,1157.055298,-0.009175,0.151935,0.1,0.0,1.0,2668.821533
99.789047,47.747738,48.941185,7.582925,2.120096,7.582925,2.120096,50.000141,50.0,400.12384,86.282646,1136.179077,297.586151,107.352119,0.136518,0.139049,1158.852783,-0.009913,0.151772,0.1,0.0,1.0,2668.880127
100.43119,53.643734,54.837177,7.576355,2.144333,7.576355,2.144333,50.000141,50.0,405.800079,86.392365,1134.438843,297.765625,107.572525,0.126774,0.149376,1161.117188,-0.010096,0.151659,0.1,0.0,1.0,2668.979004
100.856407,57.571178,58.764626,7.573155,2.174079,7.573155,2.174079,60.000141,60.0,409.579987,86.46347,1133.575562,297.944855,107.733818,0.12449,0.164984,1162.171753,-0.010211,0.151527,0.1,0.0,1.0,2669.047607
101.491112,63.463226,64.65667,7.571111,2.275537,7.571111,2.275537,60.000141,60.0,415.245758,86.56707,1132.881104,298.262634,107.997017,0.127654,0.194194,1163.503052,-0.010353,0.151463,0.1,0.0,1.0,2669.147217
101.911736,67.388626,68.582069,7.570135,2.386276,7.570135,2.386276,70.000145,70.0,419.02179,86.634048,1132.775024,298.480499,108.187088,0.132992,0.213028,1164.091919,-0.010836,0.151422,0.1,0.0,1.0,2669.20752
102.539375,73.277115,74.470558,7.567845,2.597773,7.567845,2.597773,70.000145,70.0,424.68576,86.731361,1132.81604,298.780365,108.495277,0.142783,0.234519,1164.847046,-0.011363,0.151403,0.1,0.0,1.0,2669.287842
102.955376,77.200302,78.393745,7.565198,2.752591,7.565198,2.752591,80.000145,80.0,428.461761,86.794128,1132.768555,298.951843,108.716682,0.14863,0.242906,1165.140991,-0.01237,0.151357,0.1,0.0,1.0,2669.335449
103.576218,83.085754,84.279205,7.560079,2.967406,7.560079,2.967406,80.000145,80.0,434.124695,86.885201,1132.325073,299.167725,109.072952,0.154265,0.247212,1165.558594,-0.013108,0.151304,0.1,0.0,1.0,2669.403564
103.987755,87.006798,88.200241,7.555746,3.087286,7.555746,3.087286,90.000145,90.0,437.898132,86.943947,1131.712524,299.29364,109.326134,0.155429,0.246477,1165.667725,-0.014131,0.151202,0.1,0.0,1.0,2669.449463
104.601891,92.888039,94.08149,7.54909,3.216978,7.54909,3.216978,90.000145,90.0,443.553406,87.029289,1130.370239,299.478424,109.727646,0.153864,0.243933,1165.816406,-0.014701,0.151115,0.1,0.0,1.0,2669.522949
105.008911,96.805229,97.998672,7.543963,3.274714,7.543963,3.274714,100.000145,100.0,447.319458,87.084442,1129.277466,299.611572,110.008362,0.151459,0.243462,1165.731445,-0.015319,0.150982,0.1,0.0,1.0,2669.57666
105.616188,102.678764,103.872208,7.536717,3.330415,7.536717,3.330415,100.000145,100.0,452.961365,87.164696,1127.529297,299.840118,110.446114,0.14757,0.246734,1165.554443,-0.015594,0.150879,0.1,0.0,1.0,2669.663574
106.01857,106.589561,107.783005,7.531625,3.359238,7.531625,3.359238,110.000145,110.0,456.717834,87.216621,1126.401489,300.013824,110.747368,0.145656,0.251835,1165.235596,-0.015859,0.150734,0.1,0.0,1.0,2669.725098
106.61882,112.452011,113.645454,7.525247,3.406003,7.525247,3.406003,110.000145,110.0,462.345825,87.292229,1124.88855,300.300842,111.210754,0.144628,0.262723,1164.706421,-0.015996,0.150633,0.1,0.0,1.0,2669.820313
107.214882,118.306885,119.500328,7.519303,3.469531,7.519303,3.469531,120.000145,120.0,467.96701,87.36515,1123.651123,300.605316,111.68531,0.145808,0.275034,1163.9823,-0.016219,0.150505,0.1,0.0,1.0,2669.916504
107.626427,122.366089,123.559532,7.515496,3.524697,7.515496,3.524697,120.000145,120.0,471.867218,87.414238,1122.911011,300.817993,112.020119,0.147415,0.282927,1163.25293,-0.016522,0.150386,0.1,0.0,1.0,2669.982666
108.21537,128.210083,129.403534,7.511055,3.612887,7.511055,3.612887,130.000137,130.0,477.479279,87.482735,1121.961548,301.116577,112.508186,0.150173,0.291867,1162.427002,-0.016784,0.15031,0.1,0.0,1.0,2670.07666
108.58947,131.937119,133.130569,7.508008,3.670466,7.508008,3.670466,130.000137,130.0,481.062378,87.525162,1121.373413,301.300354,112.822815,0.151739,0.295826,1161.700195,-0.017204,0.150221,0.1,0.0,1.0,2670.13623
109.188339,137.931168,139.124603,7.503202,3.75426,7.503202,3.75426,140.000137,140.0,486.822327,87.591309,1120.349731,301.586029,113.331871,0.153151,0.299708,1160.714722,-0.017478,0.15016,0.1,0.0,1.0,2670.233398
109.574684,141.816101,143.009537,7.499693,3.800373,7.499693,3.800373,140.000137,140.0,490.555573,87.632881,1119.606934,301.767731,113.662903,0.153369,0.301202,1160.084229,-0.017877,0.150064,0.1,0.0,1.0,2670.297363
110.15107,147.637939,148.831375,7.494816,3.853555,7.494816,3.853555,150.000137,150.0,496.150543,87.693367,1118.406616,302.041565,114.158699,0.152835,0.303069,1159.087524,-0.018097,0.149994,0.1,0.0,1.0,2670.396729
110.532913,151.512161,152.705612,7.491213,3.880577,7.491213,3.880577,150.000137,150.0,499.877136,87.732491,1117.573975,302.22821,114.487549,0.152155,0.304648,1158.230957,-0.01835,0.149896,0.1,0.0,1.0,2670.464844
111.071465,156.999802,158.193253,7.486522,3.91047,7.486522,3.91047,160.000137,160.0,505.151672,87.786346,1116.398438,302.50119,114.949387,0.151235,0.307801,1157.24646,-0.018479,0.149824,0.1,0.0,1.0,2670.564697
111.449577,160.869034,162.062485,7.483005,3.929233,7.483005,3.929233,160.000137,160.0,508.871613,87.823288,1115.600952,302.700134,115.271545,0.150745,0.310701,1156.495361,-0.018621,0.14973,0.1,0.0,1.0,2670.636719
112.028954,166.82402,168.017471,7.478192,3.958471,7.478192,3.958471,170.000137,170.0,514.60144,87.878578,1114.442383,303.014984,115.760399,0.150451,0.315894,1155.107788,-0.018711,0.14966,0.1,0.0,1.0,2670.75
112.589035,172.610947,173.804382,7.473674,3.988487,7.473674,3.988487,170.000137,170.0,520.171021,87.930489,1113.414063,303.327942,116.225456,0.150437,0.321265,1153.781982,-0.01885,0.149564,0.1,0.0,1.0,2670.865234
112.960678,176.467117,177.660553,7.470864,4.00908,7.470864,4.00908,180.000137,180.0,523.881287,87.964096,1112.782349,303.538971,116.52906,0.150573,0.324806,1153.015381,-0.018993,0.149473,0.1,0.0,1.0,2670.943848
113.515465,182.248093,183.441544,7.467465,4.040353,7.467465,4.040353,180.000137,180.0,529.442932,88.013062,1111.930298,303.85733,116.974144,0.150957,0.329762,1151.969238,-0.019091,0.149417,0.1,0.0,1.0,2671.064453
113.883369,186.097702,187.291153,7.465121,4.06155,7.465121,4.06155,190.000137,190.0,533.148499,88.044754,1111.41394,304.069794,117.26371,0.151264,0.33271,1151.215942,-0.01924,0.149349,0.1,0.0,1.0,2671.145996
114.432259,191.865128,193.058563,7.46202,4.092188,7.46202,4.092188,190.000137,190.0,538.703613,88.090927,1110.673828,304.388,117.687057,0.151692,0.336503,1150.008667,-0.019341,0.149302,0.1,0.0,1.0,2671.27002
114.796059,195.703491,196.896927,7.459937,4.111486,7.459937,4.111486,200.000137,200.0,542.40509,88.120827,1110.199097,304.599701,117.961876,0.151897,0.338641,1149.068359,-0.019487,0.14924,0.1,0.0,1.0,2671.353516
115.355057,201.625717,202.819168,7.457088,4.137969,7.457088,4.137969,200.000137,200.0,548.108398,88.165573,1109.490845,304.925995,118.373901,0.152052,0.341459,1148.176514,-0.019579,0.149199,0.1,0.0,1.0,2671.484131
115.715767,205.463013,206.656448,7.455142,4.153187,7.455142,4.153187,200.000137,200.0,551.805908,88.193756,1109.039673,305.138031,118.633667,0.152056,0.34309,1147.543213,-0.019705,0.149142,0.1,0.0,1.0,2671.570068
116.254303,211.214828,212.408279,7.452606,4.17276,7.452606,4.17276,210.000137,210.0,557.349365,88.234825,1108.382568,305.45752,119.012474,0.151982,0.345402,1146.613281,-0.019777,0.149103,0.1,0.0,1.0,2671.700195
116.774773,216.799789,217.993225,7.450071,4.189299,7.450071,4.189299,220.000137,220.0,562.73584,88.27343,1107.770996,305.770264,119.36866,0.151887,0.347616,1145.608032,-0.01987,0.149052,0.1,0.0,1.0,2671.828613
117.144836,220.783859,221.977295,7.448269,4.200158,7.448269,4.200158,220.000137,220.0,566.581482,88.300232,1107.347656,305.994965,119.616081,0.151847,0.349198,1144.775635,-0.019949,0.149001,0.1,0.0,1.0,2671.921143
117.660545,226.364166,227.557602,7.446188,4.214434,7.446188,4.214434,230.000137,230.0,571.963013,88.336708,1106.790161,306.311188,119.953239,0.151855,0.35138,1144.027832,-0.020001,0.148965,0.1,0.0,1.0,2672.051758
117.998077,230.02858,231.222031,7.444801,4.223632,7.444801,4.223632,230.000137,230.0,575.498047,88.360023,1106.45166,306.519714,120.169289,0.151893,0.352757,1143.533081,-0.020069,0.148924,0.1,0.0,1.0,2672.138184
118.538086,235.913437,237.106888,7.442771,4.238077,7.442771,4.238077,240.000137,240.0,581.182617,88.3965,1105.935913,306.855835,120.508484,0.152031,0.354805,1142.46814,-0.020113,0.148896,0.1,0.0,1.0,2672.27832
118.887177,239.732376,240.925827,7.441389,4.24732,7.441389,4.24732,240.000137,240.0,584.868469,88.419487,1105.614624,307.074066,120.72348,0.152123,0.355997,1142.011841,-0.020181,0.148855,0.1,0.0,1.0,2672.369873
119.408546,245.457748,246.651199,7.439664,4.260383,7.439664,4.260383,240.000137,240.0,590.395386,88.453018,1105.1521,307.401459,121.039482,0.152245,0.357568,1141.352539,-0.020225,0.148828,0.1,0.0,1.0,2672.507813
119.740349,249.114807,250.308243,7.438538,4.268232,7.438538,4.268232,250.000137,250.0,593.925232,88.473862,1104.87207,307.610657,121.237808,0.152295,0.358446,1141.001709,-0.020288,0.148793,0.1,0.0,1.0,2672.59668
120.271225,254.98793,256.181366,7.436941,4.279577,7.436941,4.279577,250.000137,250.0,599.601868,88.50647,1104.435425,307.947357,121.551987,0.152346,0.359695,1140.105225,-0.020325,0.148771,0.1,0.0,1.0,2672.740234
120.61438,258.798004,259.991455,7.435837,4.286227,7.435837,4.286227,260.000153,260.0,603.282898,88.527031,1104.162109,308.166016,121.753136,0.152351,0.360431,1139.682129,-0.020379,0.148739,0.1,0.0,1.0,2672.833984
121.126892,264.510681,265.704132,7.434401,4.295018,7.434401,4.295018,260.000153,260.0,608.802673,88.557037,1103.764526,308.494568,122.051918,0.152337,0.361468,1139.09436,-0.020411,0.148717,0.1,0.0,1.0,2672.975586
121.467148,268.316681,269.510132,7.433414,4.30034,7.433414,4.30034,270.000153,270.0,612.481445,88.576508,1103.511719,308.71402,122.249687,0.152322,0.362134,1138.682007,-0.020452,0.148688,0.1,0.0,1.0,2673.070557
121.989418,274.180511,275.373962,7.432087,4.307796,7.432087,4.307796,270.000153,270.0,618.151245,88.605698,1103.139404,309.05307,122.553307,0.152312,0.363129,1138.044067,-0.020478,0.148668,0.1,0.0,1.0,2673.217529
122.480576,279.718384,280.911835,7.430831,4.314407,7.430831,4.314407,280.000153,280.0,623.512939,88.632423,1102.807617,309.37442,122.840103,0.152331,0.364028,1137.173584,-0.020513,0.148642,0.1,0.0,1.0,2673.357422
122.816429,283.517334,284.710785,7.429998,4.318761,7.429998,4.318761,280.000153,280.0,627.188538,88.650269,1102.590332,309.595032,123.037079,0.152358,0.364608,1136.782593,-0.020545,0.148617,0.1,0.0,1.0,2673.453613
123.318146,289.215576,290.408997,7.428968,4.324958,7.428968,4.324958,290.000153,290.0,632.700745,88.676331,1102.28418,309.926239,123.333801,0.152395,0.36541,1136.349121,-0.020566,0.1486,0.1,0.0,1.0,2673.598877
123.651382,293.011414,294.204834,7.428246,4.328939,7.428246,4.328939,290.000153,290.0,636.374695,88.693245,1102.093262,310.147125,123.532867,0.152431,0.365892,1135.983032,-0.020595,0.148579,0.1,0.0,1.0,2673.696289
124.149216,298.705109,299.89856,7.427295,4.334505,7.427295,4.334505,300.000153,300.0,641.884399,88.717949,1101.817627,310.478546,123.834015,0.152465,0.366534,1135.585205,-0.020614,0.148565,0.1,0.0,1.0,2673.842529
124.479889,302.498016,303.691467,7.426638,4.337982,7.426638,4.337982,300.000153,300.0,645.556824,88.733994,1101.642578,310.699554,124.036819,0.15249,0.366915,1135.241821,-0.02064,0.148546,0.1,0.0,1.0,2673.940674
124.97393,308.187439,309.38089,7.425796,4.342704,7.425796,4.342704,310.000153,310.0,651.064392,88.757431,1101.389526,311.031189,124.344589,0.152501,0.367426,1134.876831,-0.020657,0.148533,0.1,0.0,1.0,2674.088135
125.301834,311.975647,313.169098,7.425215,4.345598,7.425215,4.345598,310.000153,310.0,654.735413,88.772652,1101.228882,311.25238,124.552406,0.152503,0.367737,1134.482788,-0.02068,0.148516,0.1,0.0,1.0,2674.186768
125.792549,317.664001,318.857452,7.424453,4.34948,7.424453,4.34948,320.000153,320.0,660.240967,88.794891,1100.998535,311.584351,124.868423,0.152502,0.36817,1134.325073,-0.020693,0.148504,0.1,0.0,1.0,2674.335449
126.118408,321.453918,322.647339,7.423933,4.35186,7.423933,4.35186,320.000153,320.0,663.910706,88.809341,1100.852539,311.805847,125.08213,0.152502,0.368443,1134.142822,-0.020712,0.148489,0.1,0.0,1.0,2674.434814
93.648758,327.136993,328.330444,7.423265,4.355133,7.423265,4.355133,330.000153,330.0,669.414429,88.830475,1100.644531,312.138245,125.407417,0.152504,0.368832,1133.871094,-0.020723,0.148479,0.1,0.0,1.0,2674.584473
