airspeed_indicator_indicated_speed_kt,altimeter_indicated_altitude_ft,altimeter_pressure_alt_ft,attitude_indicator_indicated_pitch_deg,attitude_indicator_indicated_roll_deg,attitude_indicator_internal_pitch_deg,attitude_indicator_internal_roll_deg,encoder_indicated_altitude_ft,encoder_pressure_alt_ft,gps_indicated_altitude_ft,gps_indicated_ground_speed_kt,gps_indicated_vertical_speed,indicated_heading_deg,magnetic_compass_indicated_heading_deg,slip_skid_ball_indicated_slip_skid,turn_indicator_indicated_turn_rate,vertical_speed_indicator_indicated_speed_fpm,flight_aileron,flight_elevator,flight_rudder,flight_flaps,engine_throttle,engine_rpm
5.299853,-88.188896,-86.995453,2.962858,1.345421,2.59183,0.108658,-89.999855,-90.0,2.286365,0.0,0.005828,297.867371,279.759674,0.010045,-0.043186,-15.207839,-0.0,0.0,0.0,0.0,0.0,601.942871
5.335668,-88.197845,-87.004402,2.961613,1.340744,2.59212,0.1091,-89.999855,-90.0,2.286386,0.0,0.005694,297.866486,282.210541,0.009968,-0.038729,-19.409332,-0.0,0.0,0.0,0.0,0.0,602.018311
5.373248,-88.204247,-87.010803,2.848541,0.971836,2.589816,0.109419,-89.999855,-90.0,2.286393,0.0,-0.004823,297.865692,284.337769,0.009834,-0.03518,-13.84502,-0.019153,0.051842,4.4E-5,0.0,1.0,633.096985
5.44077,-88.212196,-87.018753,2.632572,0.338169,2.563644,0.108408,-89.999855,-90.0,2.286307,1.37E-4,-0.031989,297.864258,287.643616,0.009539,-0.030208,-14.36202,-0.013883,0.051796,8.4E-5,0.0,1.0,788.317261
5.543576,-88.21769,-87.024246,2.517463,0.103586,2.517463,0.103586,-89.999855,-90.0,2.28616,7.54E-4,-0.011556,297.862549,290.598694,0.009348,-0.026305,-15.840373,-0.004831,0.051273,1.56E-4,0.0,1.0,1003.913574
5.670993,-88.220688,-87.027245,2.505277,0.097531,2.505277,0.097531,-89.999855,-90.0,2.286198,0.002522,0.032893,297.861115,292.585876,0.010238,-0.023936,-17.487543,-0.00148,0.050349,2.41E-4,0.0,1.0,1173.421387
5.938473,-88.223755,-87.030312,2.516141,0.086476,2.516141,0.086476,-89.999855,-90.0,2.286497,0.008799,0.092349,297.858124,295.099579,0.013067,-0.021325,-5.640777,-0.001393,0.050106,3.13E-4,0.0,1.0,1399.528687
6.210051,-88.225395,-87.031952,2.534795,0.077066,2.534795,0.077066,-89.999855,-90.0,2.286885,0.017837,0.128625,297.854218,296.795624,0.017108,-0.019941,-15.857453,-0.001235,0.050323,4.62E-4,0.0,1.0,1551.486084
6.546647,-88.226585,-87.033142,2.556781,0.067386,2.556781,0.067386,-89.999855,-90.0,2.287408,0.031993,0.170227,297.847565,298.353088,0.022313,-0.019157,-8.367944,-0.001101,0.050696,6.58E-4,0.0,1.0,1686.052612
7.119165,-88.227615,-87.034172,2.587904,0.054692,2.587904,0.054692,-89.999855,-90.0,2.288363,0.062601,0.219935,297.830688,300.287659,0.031611,-0.019381,-14.437339,-9.63E-4,0.051136,9.9E-4,0.0,1.0,1842.320435
7.816025,-88.22802,-87.034576,2.616177,0.044047,2.616177,0.044047,-89.999855,-90.0,2.289623,0.109819,0.278486,297.800049,301.964752,0.042498,-0.021619,-16.205004,-7.81E-4,0.051758,0.001834,0.0,1.0,1965.524292
7.816025,-88.22802,-87.034576,2.616177,0.044047,2.616177,0.044047,-89.999855,-90.0,2.289623,0.109819,0.278486,297.800049,301.964752,0.042498,-0.021619,-16.205004,-7.81E-4,0.051758,0.001834,0.0,1.0,1965.524292
7.899299,-88.228027,-87.034584,2.618952,0.043102,2.618952,0.043102,-89.999855,-90.0,2.289782,0.116158,0.285822,297.795685,302.131042,0.04187,-0.022002,-16.239128,-7.81E-4,0.051758,0.001834,0.0,1.0,1977.077637
9.747938,-88.227058,-87.033615,2.659577,0.032841,2.659577,0.032841,-89.999855,-90.0,2.293796,0.293808,0.436353,297.662903,304.599579,0.030301,-0.035087,-11.555974,-6.16E-4,0.052379,0.003584,0.0,1.0,2137.426514
10.660917,-88.225731,-87.032288,2.67006,0.031125,2.67006,0.031125,-89.999855,-90.0,2.296172,0.407253,0.511117,297.574219,305.179199,0.026548,-0.043845,6.676647,-4.69E-4,0.053192,0.010223,0.0,1.0,2176.978271
11.312494,-88.224564,-87.03112,2.674563,0.031219,2.674563,0.031219,-89.999855,-90.0,2.298049,0.498683,0.566954,297.511078,305.392334,0.024364,-0.049374,14.183734,-4.45E-4,0.053401,0.014658,0.0,1.0,2196.568115
11.921058,-88.223312,-87.029869,2.677924,0.031967,2.677924,0.031967,-89.999855,-90.0,2.299949,0.591985,0.619912,297.454346,305.455292,0.022412,-0.053711,5.196787,-4.46E-4,0.053491,0.017815,0.0,1.0,2210.198486
12.912574,-88.220955,-87.027512,2.682663,0.034371,2.682663,0.034371,-89.999855,-90.0,2.303369,0.76046,0.707973,297.368591,305.299408,0.019776,-0.058972,18.544832,-4.57E-4,0.053558,0.020651,0.0,1.0,2225.365967
13.561166,-88.219185,-87.025742,2.685487,0.036453,2.685487,0.036453,-89.999855,-90.0,2.305831,0.881733,0.76572,297.315582,305.037048,0.018386,-0.061555,15.445463,-4.91E-4,0.053653,0.024939,0.0,1.0,2231.807617
14.510886,-88.216278,-87.022835,2.689134,0.040108,2.689134,0.040108,-89.999855,-90.0,2.309768,1.075203,0.850968,297.247284,304.44281,0.016683,-0.063409,16.872326,-5.21E-4,0.05371,0.027589,0.0,1.0,2238.501953
15.490238,-88.212868,-87.019424,2.692827,0.044686,2.692827,0.044686,-89.999855,-90.0,2.314252,1.294318,0.939297,297.187866,303.591583,0.015531,-0.063361,7.122337,-5.73E-4,0.053783,0.031004,0.0,1.0,2244.582764
16.171389,-88.210251,-87.016808,2.695522,0.048112,2.695522,0.048112,-89.999855,-90.0,2.317628,1.458206,1.001064,297.152954,302.871857,0.015137,-0.062332,7.83436,-6.38E-4,0.053857,0.033975,0.0,1.0,2248.389893
17.125788,-88.20623,-87.012787,2.699448,0.052956,2.699448,0.052956,-89.999855,-90.0,2.322716,1.703407,1.087885,297.114258,301.70874,0.014927,-0.059455,16.047565,-6.87E-4,0.05391,0.035721,0.0,1.0,2253.192139
17.780678,-88.203247,-87.009804,2.702387,0.056445,2.702387,0.056445,-89.999855,-90.0,2.32645,1.881939,1.148178,297.092957,300.819733,0.015039,-0.056916,17.645967,-7.57E-4,0.053989,0.037656,0.0,1.0,2256.170654
18.762997,-88.19841,-87.004967,2.706918,0.061772,2.706918,0.061772,-89.999855,-90.0,2.332426,2.165193,1.23768,297.0672,299.370514,0.015328,-0.052585,16.650871,-8.06E-4,0.054048,0.038721,0.0,1.0,2260.234619
19.418379,-88.194939,-87.001495,2.71012,0.065565,2.71012,0.065565,-89.999855,-90.0,2.336659,2.364098,1.300351,297.052002,298.341522,0.015495,-0.049755,6.848597,-8.82E-4,0.054138,0.040009,0.0,1.0,2262.718262
20.400007,-88.189369,-86.995926,2.714963,0.071559,2.714963,0.071559,-89.999855,-90.0,2.343381,2.677157,1.387206,297.029785,296.728333,0.015449,-0.045929,10.285497,-9.37E-4,0.054202,0.040768,0.0,1.0,2266.171387
21.05451,-88.185402,-86.991959,2.718378,0.07588,2.718378,0.07588,-89.999855,-90.0,2.348113,2.895431,1.447097,297.013153,295.620544,0.015122,-0.043985,17.094477,-0.001022,0.054299,0.041879,0.0,1.0,2268.325928
21.736696,-88.181068,-86.987625,2.721919,0.08053,2.721919,0.08053,-89.999855,-90.0,2.353254,3.130738,1.512281,296.993469,294.450958,0.014472,-0.042529,13.704385,-0.001084,0.054368,0.042711,0.0,1.0,2270.469482
22.689962,-88.174637,-86.981194,2.727031,0.087483,2.727031,0.087483,-89.999855,-90.0,2.360814,3.473445,1.596054,296.960968,292.806244,0.012807,-0.041507,18.769751,-0.00115,0.054438,0.043695,0.0,1.0,2273.331787
23.343601,-88.169991,-86.976547,2.730733,0.092491,2.730733,0.092491,-89.999855,-90.0,2.366244,3.717172,1.656448,296.934265,291.686005,0.011268,-0.041587,16.845144,-0.00125,0.054541,0.04532,0.0,1.0,2275.220215
24.323549,-88.162643,-86.9692,2.736324,0.100083,2.736324,0.100083,-89.999855,-90.0,2.374763,4.095698,1.747925,296.888885,290.037598,0.008366,-0.042503,15.081825,-0.001321,0.054615,0.046655,0.0,1.0,2277.966064
25.329258,-88.154633,-86.961189,2.742381,0.108014,2.742381,0.108014,-89.999855,-90.0,2.383989,4.500437,1.84004,296.836426,288.407135,0.004998,-0.044194,16.245007,-0.00143,0.054726,0.048924,0.0,1.0,2280.705322
25.92602,-88.149628,-86.956184,2.748203,0.113674,2.748203,0.113674,-89.999855,-90.0,2.389892,4.748415,2.022292,296.804504,287.478546,0.003483,-0.045136,15.431227,-0.001507,0.054808,0.050681,0.0,1.0,2282.303955
26.926386,-88.140739,-86.947296,2.758874,0.126426,2.758874,0.126426,-89.999855,-90.0,2.400797,5.177404,2.207726,296.750244,286.001068,-4.35E-4,-0.046582,7.167932,-0.001624,0.054964,0.053143,0.0,1.0,2284.948242
27.600691,-88.134392,-86.940948,2.763294,0.131671,2.763294,0.131671,-89.999855,-90.0,2.408585,5.475509,2.274283,296.71405,285.070953,-0.002565,-0.047424,14.159985,-0.001806,0.055177,0.055856,0.0,1.0,2286.705078
28.569359,-88.124756,-86.931313,2.76919,0.138314,2.76919,0.138314,-89.999855,-90.0,2.420204,5.916092,2.374101,296.666748,283.840271,-0.004866,-0.047729,9.698234,-0.001881,0.055266,0.057666,0.0,1.0,2289.203857
29.212996,-88.118034,-86.924583,2.773535,0.142622,2.773535,0.142622,-89.999855,-90.0,2.428223,6.217029,2.437308,296.638245,283.096802,-0.005864,-0.047438,17.109936,-0.001976,0.055384,0.060031,0.0,1.0,2290.854248
30.176226,-88.107506,-86.914063,2.780264,0.148737,2.780264,0.148737,-89.999855,-90.0,2.440664,6.678912,2.534246,296.601166,282.104828,-0.006555,-0.046168,17.658016,-0.002037,0.055471,0.061456,0.0,1.0,2293.3125
30.763536,-88.100807,-86.907356,2.784585,0.152548,2.784585,0.152548,-89.999855,-90.0,2.44851,6.967195,2.595074,296.580536,281.574371,-0.00668,-0.045182,12.572806,-0.002125,0.055605,0.06331,0.0,1.0,2294.806885
31.748859,-88.089111,-86.895668,2.791742,0.158931,2.791742,0.158931,-89.999855,-90.0,2.46212,7.462007,2.696099,296.548248,280.815826,-0.006621,-0.043341,18.094585,-0.002179,0.055692,0.064342,0.0,1.0,2297.310059
32.387028,-88.081238,-86.887794,2.796514,0.163351,2.796514,0.163351,-89.999855,-90.0,2.471227,7.789466,2.765402,296.526825,280.414642,-0.006703,-0.042388,18.42024,-0.00227,0.055835,0.065956,0.0,1.0,2298.928467
33.366753,-88.068649,-86.875206,2.803697,0.17048,2.803697,0.17048,-89.999855,-90.0,2.485692,8.303982,2.86177,296.491455,279.936371,-0.007309,-0.041465,16.310381,-0.002334,0.05593,0.067027,0.0,1.0,2301.417236
33.995773,-88.060188,-86.866745,2.812578,0.175384,2.812578,0.175384,-89.999855,-90.0,2.495563,8.643816,3.068274,296.465271,279.716156,-0.008193,-0.041456,18.907152,-0.002435,0.056074,0.068796,0.0,1.0,2303.027832
34.865139,-88.046844,-86.853401,2.822313,0.182383,2.822313,0.182383,-89.999855,-90.0,2.51212,9.162243,3.347798,296.422089,279.515198,-0.010678,-0.042045,19.674582,-0.002505,0.056252,0.070105,0.0,1.0,2305.388672
35.443096,-88.037468,-86.844025,2.82629,0.186549,2.82629,0.186549,-89.999855,-90.0,2.523383,9.513476,3.407723,296.391449,279.464569,-0.012713,-0.042677,15.195665,-0.002605,0.056446,0.072264,0.0,1.0,2306.925293
36.307602,-88.022766,-86.829323,2.831991,0.191834,2.831991,0.191834,-89.999855,-90.0,2.540675,10.04847,3.507507,296.347473,279.507416,-0.015553,-0.04318,9.270269,-0.002665,0.056526,0.073796,0.0,1.0,2309.19458
36.858509,-88.013039,-86.819595,2.835988,0.194841,2.835988,0.194841,-89.999855,-90.0,2.551991,10.395238,3.574399,296.32135,279.605347,-0.017012,-0.043162,19.043354,-0.00274,0.05664,0.075995,0.0,1.0,2310.628906
37.717899,-87.997231,-86.803787,2.842323,0.198614,2.842323,0.198614,-89.999855,-90.0,2.570133,10.945519,3.67961,296.286682,279.860809,-0.018079,-0.04215,19.836506,-0.002783,0.05672,0.077301,0.0,1.0,2312.857178
38.28904,-87.986343,-86.7929,2.846734,0.20084,2.846734,0.20084,-89.999855,-90.0,2.582522,11.317316,3.750521,296.267548,280.095001,-0.018028,-0.04094,20.348423,-0.002837,0.056846,0.079034,0.0,1.0,2314.334473
39.142971,-87.969513,-86.776062,2.852812,0.20422,2.852812,0.20422,-89.999855,-90.0,2.601486,11.882166,3.841463,296.245361,280.532043,-0.016629,-0.038322,12.992181,-0.002869,0.056935,0.079991,0.0,1.0,2316.541992
39.709885,-87.957932,-86.764488,2.86366,0.209042,2.86366,0.209042,-89.999855,-90.0,2.61522,12.263353,4.314428,296.23349,280.874359,-0.01524,-0.036282,17.613455,-0.002917,0.057056,0.081101,0.0,1.0,2318.008789
40.557152,-87.939682,-86.746239,2.871665,0.212669,2.871665,0.212669,-89.999855,-90.0,2.637308,12.841805,4.466031,296.217529,281.453125,-0.013257,-0.033405,17.407621,-0.002986,0.057273,0.081694,0.0,1.0,2320.203125
41.143898,-87.926407,-86.732964,2.875544,0.214971,2.875544,0.214971,-89.999855,-90.0,2.652953,13.248068,4.542737,296.205994,281.894012,-0.012039,-0.031743,18.035156,-0.003038,0.057433,0.082492,0.0,1.0,2321.723877
41.986557,-87.906532,-86.713089,2.881206,0.218543,2.881206,0.218543,-89.999855,-90.0,2.675955,13.839409,4.655686,296.186676,282.573273,-0.010855,-0.03007,20.802448,-0.003071,0.057511,0.083069,0.0,1.0,2323.909912
42.500175,-87.893974,-86.700531,2.884998,0.221025,2.884998,0.221025,-89.999855,-90.0,2.690294,14.204341,4.726429,296.171997,283.00824,-0.010719,-0.029625,18.150883,-0.003122,0.057624,0.084035,0.0,1.0,2325.244141
43.384998,-87.871597,-86.678154,2.894446,0.2255,2.894446,0.2255,-89.999855,-90.0,2.715755,14.840794,5.248901,296.141083,283.782928,-0.011816,-0.0298,10.312753,-0.003157,0.0577,0.084769,0.0,1.0,2327.549805
43.941372,-87.856895,-86.663452,2.902888,0.230007,2.902888,0.230007,-89.999855,-90.0,2.733652,15.246614,5.450815,296.117584,284.28064,-0.013184,-0.030487,16.568724,-0.003221,0.057889,0.086314,0.0,1.0,2329.482422
44.773983,-87.833755,-86.640312,2.908905,0.23506,2.908905,0.23506,-89.999855,-90.0,2.761126,15.860705,5.551705,296.078705,285.028137,-0.01607,-0.031978,14.348328,-0.003286,0.058058,0.087489,0.0,1.0,2333.468506
45.282009,-87.819046,-86.625603,2.912317,0.237984,2.912317,0.237984,-89.999855,-90.0,2.77821,16.239054,5.627072,296.053528,285.480225,-0.01794,-0.032998,20.052635,-0.003358,0.058178,0.089433,0.0,1.0,2336.315674
46.135174,-87.793472,-86.600029,2.918384,0.242196,2.918384,0.242196,-89.999855,-90.0,2.807468,16.880442,5.756735,296.012634,286.222595,-0.021435,-0.034272,12.424602,-0.0034,0.058246,0.090692,0.0,1.0,2341.522949
46.687775,-87.776314,-86.58287,2.922669,0.244631,2.922669,0.244631,-89.999855,-90.0,2.826807,17.299789,5.842887,295.98761,286.686768,-0.023122,-0.034766,14.593228,-0.00346,0.058368,0.092737,0.0,1.0,2345.07959
47.538517,-87.749123,-86.555679,2.93068,0.247728,2.93068,0.247728,-89.999855,-90.0,2.857367,17.951221,6.19282,295.954712,287.366699,-0.024035,-0.034514,14.921967,-0.003495,0.058453,0.093988,0.0,1.0,2350.723145
48.065456,-87.731606,-86.538162,2.943534,0.259049,2.943534,0.259049,-89.999855,-90.0,2.878752,18.359098,6.893558,295.938049,287.763397,-0.024314,-0.033596,19.30719,-0.003539,0.058614,0.095633,0.0,1.0,2354.291992
48.889164,-87.702744,-86.5093,2.950439,0.261057,2.950439,0.261057,-89.999855,-90.0,2.913516,19.001871,7.011899,295.916992,288.33786,-0.023473,-0.031865,15.662853,-0.003701,0.058871,0.096466,0.0,1.0,2359.931396
49.460663,-87.681793,-86.48835,2.954217,0.262148,2.954217,0.262148,-89.999855,-90.0,2.93803,19.451286,7.105052,295.90509,288.700043,-0.022187,-0.030409,12.271891,-0.003729,0.059009,0.097519,0.0,1.0,2363.872314
50.259991,-87.651382,-86.457939,2.959777,0.263482,2.959777,0.263482,-89.999855,-90.0,2.972908,20.084536,7.241381,295.890503,289.152283,-0.019579,-0.028304,19.713285,-0.003745,0.059084,0.098114,0.0,1.0,2369.409912
50.807682,-87.629875,-86.436424,2.963927,0.264545,2.963927,0.264545,-89.999855,-90.0,2.997214,20.521429,7.337314,295.880219,289.423462,-0.017745,-0.02709,20.162472,-0.003764,0.059196,0.098843,0.0,1.0,2373.216797
51.605816,-87.597633,-86.404182,2.969842,0.266235,2.969842,0.266235,-89.999855,-90.0,3.033231,21.162338,7.477261,295.862793,289.759766,-0.015559,-0.025918,17.584665,-0.003779,0.059279,0.099358,0.0,1.0,2378.778809
52.175625,-87.57402,-86.380577,2.974137,0.267691,2.974137,0.267691,-89.999855,-90.0,3.059374,21.622793,7.577715,295.847198,289.956024,-0.014248,-0.025682,21.253494,-0.003803,0.059397,0.100229,0.0,1.0,2382.758057
53.018505,-87.538239,-86.344795,2.980176,0.269984,2.980176,0.269984,-89.999855,-90.0,3.098703,22.308208,7.724797,295.819061,290.178436,-0.013585,-0.026157,14.66047,-0.003824,0.059483,0.101009,0.0,1.0,2388.65625
53.542213,-87.515526,-86.322083,2.984025,0.271561,2.984025,0.271561,-89.999855,-90.0,3.123535,22.736586,7.817916,295.79837,290.275757,-0.013821,-0.02692,12.277098,-0.003857,0.059604,0.102416,0.0,1.0,2392.327881
54.384068,-87.478249,-86.284805,2.989938,0.273844,2.989938,0.273844,-89.999855,-90.0,3.164102,23.4293,7.966638,295.76236,290.36734,-0.01489,-0.028396,15.035375,-0.003879,0.05968,0.10345,0.0,1.0,2398.242432
54.906982,-87.454643,-86.2612,2.993546,0.275449,2.993546,0.275449,-89.999855,-90.0,3.189661,23.862078,7.998359,295.738983,290.384705,-0.015812,-0.029353,20.828831,-0.003912,0.059799,0.105251,0.0,1.0,2401.924072
55.747486,-87.416054,-86.22261,2.998469,0.277998,2.998469,0.277998,-89.999855,-90.0,3.230958,24.561663,8.101293,295.70343,290.351471,-0.017124,-0.030352,19.33346,-0.003935,0.059871,0.106419,0.0,1.0,2407.854004
56.291977,-87.39064,-86.197197,3.002452,0.278816,3.002452,0.278816,-89.999855,-90.0,3.258132,25.017611,8.199235,295.682404,290.29129,-0.017617,-0.030616,21.104761,-0.003971,0.059969,0.108197,0.0,1.0,2411.70459
57.084648,-87.35305,-86.159599,3.011447,0.277659,3.011447,0.277659,-89.999855,-90.0,3.298903,25.685486,8.785382,295.657074,290.152557,-0.017336,-0.030156,17.644163,-0.003983,0.060049,0.109248,0.0,1.0,2417.325439
57.649426,-87.325569,-86.132126,3.017107,0.277455,3.017107,0.277455,-89.999855,-90.0,3.329615,26.164612,8.890661,295.6427,290.018951,-0.016223,-0.029277,18.066236,-0.003967,0.060229,0.110515,0.0,1.0,2421.342529
58.437992,-87.285919,-86.092476,3.031179,0.276912,3.031179,0.276912,-89.999855,-90.0,3.375892,26.838182,9.917482,295.627411,289.788025,-0.013289,-0.027438,18.929485,-0.003964,0.060342,0.111234,0.0,1.0,2426.968506
59.000175,-87.256386,-86.062943,3.03541,0.276229,3.03541,0.276229,-89.999855,-90.0,3.410494,27.321228,10.010334,295.618347,289.594818,-0.010533,-0.026023,14.585886,-0.003956,0.060624,0.111998,0.0,1.0,2430.987549
59.786564,-87.213516,-86.020073,3.039608,0.275099,3.039608,0.275099,-89.999855,-90.0,3.459507,28.000095,10.15373,295.606201,289.289978,-0.005737,-0.024207,19.340277,-0.003946,0.060708,0.112451,0.0,1.0,2436.616943
60.325317,-87.183228,-85.989784,3.042989,0.274344,3.042989,0.274344,-89.999855,-90.0,3.493537,28.467306,10.259847,295.596832,289.061035,-0.002424,-0.02329,19.746973,-0.00393,0.060792,0.113058,0.0,1.0,2440.479492
60.88607,-87.151009,-85.957565,3.048644,0.275517,3.048644,0.275517,-89.999855,-90.0,3.529704,28.955408,10.70186,295.58548,288.808228,0.001162,-0.022606,14.194067,-0.003919,0.06086,0.113527,0.0,1.0,2444.510742
61.69202,-87.103065,-85.909622,3.05748,0.27749,3.05748,0.27749,-89.999855,-90.0,3.58476,29.66074,11.10234,295.565613,288.423553,0.005306,-0.022354,15.037941,-0.003936,0.060973,0.114095,0.0,1.0,2450.396729
62.475315,-87.054672,-85.861229,3.062109,0.27571,3.062109,0.27571,-89.999855,-90.0,3.63912,30.349171,11.2588,295.541626,288.032745,0.009357,-0.022922,20.897972,-0.003964,0.06115,0.115088,0.0,1.0,2456.189453
63.012218,-87.020615,-85.827171,3.065231,0.274228,3.065231,0.274228,-89.999855,-90.0,3.676844,30.822723,11.371145,295.523315,287.758789,0.011809,-0.023558,21.309216,-0.003939,0.061242,0.116287,0.0,1.0,2460.1875
63.817085,-86.968369,-85.774925,3.070031,0.271435,3.070031,0.271435,-89.999855,-90.0,3.734134,31.53524,11.541071,295.49585,287.344116,0.01545,-0.024379,21.866499,-0.003918,0.061305,0.117203,0.0,1.0,2466.211182
64.352325,-86.932678,-85.739235,3.083199,0.269426,3.083199,0.269426,-89.999855,-90.0,3.775474,32.011662,12.879574,295.478821,287.068115,0.017997,-0.024651,22.423309,-0.003878,0.061401,0.118576,0.0,1.0,2470.239502
65.160561,-86.876953,-85.68351,3.088557,0.284298,3.088557,0.284298,-89.999855,-90.0,3.840276,32.728355,13.035398,295.346405,286.659576,0.01361,-0.044758,23.48555,-0.003849,0.061664,0.0,0.0,1.0,2476.299561
65.714798,-86.838509,-85.645065,3.086785,0.285744,3.086785,0.285744,-89.999855,-90.0,3.883899,33.207546,13.134646,294.979279,286.392365,-0.004765,-0.101526,18.282202,-0.004061,0.061771,0.006621,0.0,1.0,2480.382568
66.585052,-86.77755,-85.584106,3.080559,0.259898,3.080559,0.259898,-89.999855,-90.0,3.951847,33.948551,13.313684,294.075928,285.986084,-0.064155,-0.230003,21.756945,-0.004082,0.061736,0.024977,0.0,1.0,2486.7854
67.129379,-86.738747,-85.545303,3.077174,0.233344,3.077174,0.233344,-89.999855,-90.0,3.994601,34.410618,13.450648,293.413635,285.733673,-0.120998,-0.315095,23.297493,-0.003713,0.061611,0.070145,0.0,1.0,2490.826416
68.005272,-86.674957,-85.481506,3.076242,0.179054,3.076242,0.179054,-89.999855,-90.0,4.064392,35.156395,13.710478,292.473694,285.320557,-0.211421,-0.413792,22.113543,-0.003333,0.061543,0.103259,0.0,1.0,2497.395752
68.547249,-86.634506,-85.441063,3.079996,0.148672,3.079996,0.148672,-89.999855,-90.0,4.108483,35.621559,13.888074,292.069244,285.056488,-0.261873,-0.438478,19.440481,-0.002558,0.061525,0.150256,0.0,1.0,2501.507813
69.390465,-86.569656,-85.376213,3.092818,0.107025,3.092818,0.107025,-89.999855,-90.0,4.182002,36.351868,15.455724,291.887665,284.630646,-0.306175,-0.400496,19.043894,-0.002124,0.0616,0.170479,0.0,1.0,2507.956055
69.956039,-86.524834,-85.33139,3.076712,0.046733,3.076712,0.046733,-89.999855,-90.0,4.23489,36.840252,16.165739,292.093384,284.340881,-0.30742,-0.327754,16.673384,-0.001529,0.061856,0.179558,0.0,1.0,2512.267578
70.809319,-86.45285,-85.259399,3.033491,-0.049724,3.033491,-0.049724,-89.999855,-90.0,4.317904,37.597176,15.90648,292.833679,283.896881,-0.263361,-0.164327,24.020014,-6.68E-4,0.061534,0.169272,0.0,1.0,2518.915527
71.336235,-86.404808,-85.211365,3.029845,-0.058307,3.029845,-0.058307,-89.999855,-90.0,4.370025,38.090584,15.325994,293.47937,283.620087,-0.206751,-0.045278,24.380342,7.1E-4,0.06067,0.132257,0.0,1.0,2523.167725
72.092796,-86.33149,-85.138046,3.031008,0.105965,3.031008,0.105965,-89.999855,-90.0,4.451452,38.832203,17.729637,294.397797,283.238037,-0.101169,0.10584,24.951117,8.33E-4,0.060597,0.099973,0.0,1.0,2529.374756
72.592155,-86.280746,-85.087303,2.9556,0.368299,2.9556,0.368299,-89.999855,-90.0,4.513238,39.327343,18.989056,294.842316,283.01358,-0.030781,0.170476,21.787359,-0.001514,0.06062,0.054051,0.0,1.0,2533.408936
73.365372,-86.200935,-85.007492,2.798034,0.882817,2.798034,0.882817,-89.999855,-90.0,4.606134,40.070942,17.816727,295.054565,282.732452,0.057193,0.186067,22.0991,-0.005261,0.059112,0.031825,0.0,1.0,2539.410889
73.903099,-86.146332,-84.952888,2.733773,1.169634,2.733773,1.169634,-79.999855,-80.0,4.663965,40.567307,16.956682,294.871399,282.584198,0.093871,0.142867,22.367672,-0.012612,0.055961,0.021213,0.0,1.0,2543.451172
74.733719,-86.06385,-84.870407,2.703181,1.269219,2.703181,1.269219,-79.999855,-80.0,4.750059,41.313068,18.335213,294.221466,282.416901,0.111547,0.020823,22.552771,-0.016709,0.054675,0.030371,0.0,1.0,2549.640137
75.293831,-86.007858,-84.814415,2.682858,1.048583,2.682858,1.048583,-79.999855,-80.0,4.814361,41.81126,20.197092,293.671021,282.337341,0.101915,-0.074301,22.606632,-0.018132,0.054064,0.062868,0.0,1.0,2553.854004
76.135284,-85.919846,-84.726402,2.636547,0.307234,2.636547,0.307234,-79.999855,-80.0,4.92493,42.560368,24.361324,292.990204,282.25766,0.066428,-0.183968,21.78014,-0.01498,0.053657,0.09039,0.0,1.0,2560.2771
76.693237,-85.85656,-84.663116,2.64878,-0.34153,2.64878,-0.34153,-79.999855,-80.0,5.014858,43.061062,29.913799,292.76123,282.228027,0.040438,-0.215341,20.339472,-0.004389,0.052731,0.124431,0.0,1.0,2564.605225
77.511261,-85.747795,-84.554352,2.769663,-1.237446,2.769663,-1.237446,-79.999855,-80.0,5.202627,43.813786,46.636978,292.870178,282.217194,0.013694,-0.183588,24.742249,0.004879,0.052976,0.13588,0.0,1.0,2571.120117
78.027977,-85.658325,-84.464882,2.910707,-1.639215,2.910707,-1.639215,-79.999855,-80.0,5.387239,44.316345,64.253998,293.204834,282.233002,0.012528,-0.119841,30.035622,0.017678,0.055393,0.130432,0.0,1.0,2575.428955
78.738922,-85.479294,-84.285851,3.150425,-1.737952,3.150425,-1.737952,-79.999855,-80.0,5.792253,45.070324,97.877625,293.886505,282.293243,0.036257,0.001987,42.550587,0.023417,0.058214,0.113699,0.0,1.0,2581.721191
79.170624,-85.317085,-84.123642,3.314202,-1.486749,3.314202,-1.486749,-79.999855,-80.0,6.161725,45.57243,123.148499,294.312164,282.358246,0.064287,0.074709,53.954594,0.024828,0.063009,0.079616,0.0,1.0,2585.745605
79.780533,-84.988312,-83.794868,3.489857,-0.793077,3.489857,-0.793077,-79.999855,-80.0,6.876086,46.323723,160.920837,294.648956,282.490234,0.111194,0.1288,75.085876,0.021239,0.066284,0.058333,0.0,1.0,2591.512695
80.17794,-84.702507,-83.509064,3.576511,-0.281011,3.576511,-0.281011,-79.999855,-80.0,7.45177,46.822865,183.216522,294.607483,282.597046,0.134389,0.119374,91.053177,0.01133,0.069797,0.041493,0.0,1.0,2595.220459
80.7743,-84.165192,-82.971741,3.659671,0.250102,3.659671,0.250102,-79.999855,-80.0,8.441232,47.568527,210.579666,294.179352,282.774506,0.146755,0.044917,116.243454,0.004014,0.07153,0.043567,0.0,1.0,2600.42627
81.170532,-83.733917,-82.540474,3.71059,0.356552,3.71059,0.356552,-79.999855,-80.0,9.170076,48.063526,225.868439,293.751678,282.896729,0.136709,-0.025634,133.047501,-0.003573,0.073193,0.064973,0.0,1.0,2603.270996
81.754494,-82.980827,-81.787384,3.790785,0.090377,3.790785,0.090377,-79.999855,-80.0,10.352889,48.802818,246.325302,293.170502,283.073212,0.101593,-0.116719,157.535599,-0.005094,0.074212,0.086357,0.0,1.0,2606.841553
82.135185,-82.41095,-81.217499,3.856345,-0.274505,3.856345,-0.274505,-79.999855,-80.0,11.196962,49.293472,259.667908,292.949615,283.180511,0.074645,-0.147073,173.223343,-0.001291,0.075816,0.115416,0.0,1.0,2608.898926
82.685234,-81.458832,-80.265388,3.968167,-0.84499,3.968167,-0.84499,-79.999855,-80.0,12.548236,50.025787,280.40274,293.004974,283.320435,0.044131,-0.126339,195.937698,0.003921,0.077127,0.12646,0.0,1.0,2611.657471
83.026863,-80.760849,-79.567406,4.0661,-1.095685,4.0661,-1.095685,-79.999855,-80.0,13.508068,50.511177,295.120331,293.277802,283.399292,0.039512,-0.074527,210.707581,0.012071,0.079363,0.123692,0.0,1.0,2613.329346
83.48867,-79.619751,-78.426308,4.222167,-1.078637,4.222167,-1.078637,-79.999855,-80.0,15.046847,51.234161,320.803467,293.858063,283.498322,0.057723,0.027841,232.706696,0.015653,0.081322,0.110051,0.0,1.0,2615.626709
83.764488,-78.794563,-77.60112,4.334693,-0.814951,4.334693,-0.814951,-79.999855,-80.0,16.151451,51.712204,341.643188,294.224426,283.553253,0.082091,0.089062,247.678528,0.015409,0.084443,0.081038,0.0,1.0,2617.032227
84.151184,-77.452728,-76.259285,4.4778,-0.186397,4.4778,-0.186397,-79.999855,-80.0,17.947863,52.42252,376.172913,294.507233,283.620056,0.123098,0.13167,271.398315,0.011642,0.086694,0.06272,0.0,1.0,2618.983154
84.403168,-76.483765,-75.290321,4.565045,0.245712,4.565045,0.245712,-79.999855,-80.0,19.238258,52.891247,396.669708,294.463837,283.652649,0.142503,0.120132,288.222687,0.002663,0.089556,0.048579,0.0,1.0,2620.206543
84.786087,-74.915504,-73.722061,4.643546,0.643239,4.643546,0.643239,-69.999855,-70.0,21.28441,53.58699,419.314362,294.095581,283.677826,0.150315,0.05247,314.212067,-0.00351,0.091301,0.050749,0.0,1.0,2621.970215
85.045876,-73.796463,-72.60302,4.671024,0.676838,4.671024,0.676838,-69.999855,-70.0,22.700321,54.046047,429.651611,293.748047,283.674835,0.138766,-0.007419,331.24411,-0.009189,0.092871,0.069162,0.0,1.0,2623.116699
85.438797,-72.017982,-70.824539,4.696947,0.367819,4.696947,0.367819,-69.999855,-70.0,24.883339,54.727772,442.765472,293.322266,283.635132,0.104619,-0.077636,355.297119,-0.009669,0.09342,0.086539,0.0,1.0,2624.808594
85.698692,-70.772057,-69.578613,4.729662,0.0251,4.729662,0.0251,-69.999855,-70.0,26.373463,55.177795,451.085327,293.205536,283.58371,0.080789,-0.094742,370.108124,-0.005255,0.093939,0.107828,0.0,1.0,2625.919922
86.073196,-68.821648,-67.628197,4.811168,-0.445423,4.811168,-0.445423,-69.999855,-70.0,28.665274,55.846031,465.787445,293.363068,283.470459,0.057452,-0.06392,390.589996,-3.59E-4,0.094593,0.113664,0.0,1.0,2627.55542
86.302299,-67.46991,-66.276466,4.888617,-0.613802,4.888617,-0.613802,-69.999855,-70.0,30.238222,56.286751,477.890564,293.647217,283.373688,0.057366,-0.014958,403.385834,0.006363,0.096223,0.105788,0.0,1.0,2628.613525
86.608223,-65.365692,-64.172249,5.007389,-0.513487,5.007389,-0.513487,-59.999859,-60.0,32.681713,56.940086,499.390228,294.147064,283.203247,0.078921,0.067447,422.006622,0.008769,0.097772,0.09158,0.0,1.0,2630.128906
86.79229,-63.910202,-62.716759,5.085183,-0.251115,5.085183,-0.251115,-59.999859,-60.0,34.373192,57.370144,515.040405,294.411255,283.076599,0.101547,0.108218,434.430756,0.007336,0.100148,0.066588,0.0,1.0,2631.084717
87.061859,-61.644066,-60.450623,5.16433,0.261274,5.16433,0.261274,-59.999859,-60.0,37.008739,58.006626,538.141541,294.530365,282.871338,0.134051,0.120139,453.503174,0.003587,0.101704,0.053378,0.0,1.0,2632.44873
87.246483,-60.076416,-58.882973,5.205215,0.553559,5.205215,0.553559,-59.999859,-60.0,38.826981,58.425194,552.094177,294.409241,282.725067,0.144863,0.094491,466.539307,-0.003732,0.103287,0.047423,0.0,1.0,2633.329346
87.533524,-57.639488,-56.446045,5.254804,0.709414,5.254804,0.709414,-59.999859,-60.0,41.63612,59.044678,570.475037,294.028534,282.490204,0.139508,0.024175,486.320374,-0.007908,0.104104,0.053479,0.0,1.0,2634.634033
87.728638,-55.959274,-54.765831,5.292176,0.604531,5.292176,0.604531,-59.999859,-60.0,43.556526,59.452316,581.247009,293.747284,282.322021,0.122683,-0.025028,499.437469,-0.010134,0.105096,0.072514,0.0,1.0,2635.500977
88.021149,-53.359398,-52.165951,5.349839,0.202954,5.349839,0.202954,-49.999859,-50.0,46.50288,60.05608,596.866943,293.494568,282.050873,0.088655,-0.067396,518.677795,-0.008636,0.105844,0.086577,0.0,1.0,2636.800049
88.211105,-51.575211,-50.381767,5.399304,-0.115318,5.399304,-0.115318,-49.999859,-50.0,48.511066,60.453529,607.755127,293.502228,281.858307,0.070232,-0.0652,531.134766,-0.002899,0.106997,0.099213,0.0,1.0,2637.661865
88.475388,-48.824631,-47.631187,5.490022,-0.438664,5.490022,-0.438664,-49.999859,-50.0,51.595203,61.04195,625.743835,293.774567,281.556091,0.059162,-0.018299,549.341125,0.001647,0.107986,0.09883,0.0,1.0,2638.932861
88.63076,-46.941418,-45.747971,5.567189,-0.481488,5.567189,-0.481488,-49.999859,-50.0,53.703972,61.428848,639.246216,294.058533,281.34964,0.066137,0.028408,561.295532,0.006267,0.1098,0.085213,0.0,1.0,2639.752686
88.83532,-44.040295,-42.846848,5.673322,-0.250071,5.673322,-0.250071,-39.999859,-40.0,56.956467,62.000648,661.292664,294.436188,281.039398,0.092019,0.087502,579.276184,0.006878,0.111344,0.071014,0.0,1.0,2640.922119
88.961433,-42.053413,-40.85997,5.736614,0.024085,5.736614,0.024085,-39.999859,-40.0,59.186588,62.37595,676.228333,294.565796,280.835419,0.111347,0.104855,591.462219,0.003572,0.113466,0.052132,0.0,1.0,2641.661133
89.152985,-38.991093,-37.797649,5.798435,0.413276,5.798435,0.413276,-39.999859,-40.0,62.622787,62.929966,697.100464,294.493805,280.536407,0.131308,0.085126,610.152466,-3.44E-4,0.114732,0.045651,0.0,1.0,2642.726563
89.286713,-36.894421,-35.700977,5.833205,0.559667,5.833205,0.559667,-39.999859,-40.0,64.967583,63.293476,709.107422,294.298584,280.341766,0.131849,0.048287,622.815613,-0.005904,0.115969,0.049251,0.0,1.0,2643.422607
89.494804,-33.668743,-32.4753,5.878953,0.493471,5.878953,0.493471,-29.999857,-30.0,68.554565,63.830368,724.816528,293.940552,280.055176,0.114126,-0.015601,641.807556,-0.007995,0.116664,0.059012,0.0,1.0,2644.46167
89.635841,-31.466759,-30.273314,5.913779,0.29064,5.913779,0.29064,-29.999857,-30.0,70.987221,64.182945,734.369263,293.756531,279.86673,0.094948,-0.04711,654.275269,-0.00705,0.117579,0.076913,0.0,1.0,2645.154785
89.843903,-28.091366,-26.897923,5.970686,-0.108497,5.970686,-0.108497,-29.999857,-30.0,74.695572,64.704002,748.600586,293.704041,279.58786,0.067313,-0.054881,672.424988,-0.004152,0.118276,0.086115,0.0,1.0,2646.192627
89.973824,-25.793903,-24.600458,6.021503,-0.332341,6.021503,-0.332341,-29.999857,-30.0,77.208015,65.046165,758.614197,293.829346,279.405914,0.058156,-0.033299,684.184265,0.00155,0.119414,0.088739,0.0,1.0,2646.876953
90.144936,-22.27968,-21.086235,6.10738,-0.435707,6.10738,-0.435707,-19.999857,-20.0,81.042763,65.551338,775.079834,294.16571,279.143402,0.062553,0.022708,701.313416,0.004748,0.12043,0.082474,0.0,1.0,2647.873047
90.241943,-19.891602,-18.698156,6.170899,-0.338466,6.170899,-0.338466,-19.999857,-20.0,83.646782,65.882538,787.019775,294.400635,278.978333,0.076076,0.060081,712.506226,0.006224,0.122148,0.065656,0.0,1.0,2648.506348
90.369835,-16.345715,-15.152271,6.240976,-0.023474,6.240976,-0.023474,-19.999857,-20.0,87.517181,66.357277,804.676575,294.595642,278.755707,0.102364,0.087655,728.515869,0.004835,0.123418,0.053909,0.0,1.0,2649.380615
90.461067,-13.761422,-12.567978,6.280714,0.226772,6.280714,0.226772,-9.999858,-10.0,90.33239,66.690323,816.327942,294.581726,278.610992,0.115202,0.081158,740.2146,3.35E-4,0.12482,0.044159,0.0,1.0,2649.977051
90.601089,-9.970138,-8.776693,6.317989,0.437198,6.317989,0.437198,-9.999858,-10.0,94.45282,67.161263,830.880432,294.360138,278.422699,0.119625,0.038431,756.900024,-0.00324,0.125614,0.044855,0.0,1.0,2650.807861
90.700783,-7.397708,-6.204264,6.340273,0.429807,6.340273,0.429807,-9.999858,-10.0,97.236618,67.46978,838.924133,294.147614,278.308807,0.110728,5.82E-4,767.879272,-0.006246,0.12636,0.055934,0.0,1.0,2651.343994
90.85601,-3.47589,-2.282445,6.373293,0.194976,6.373293,0.194976,1.42E-4,0.0,101.458862,67.924805,849.458313,293.899933,278.152466,0.08611,-0.041917,783.90625,-0.00614,0.126805,0.06656,0.0,1.0,2652.136475
90.959496,-0.803747,0.389697,6.402036,-0.037836,6.402036,-0.037836,1.42E-4,0.0,104.302063,68.223145,856.235413,293.849091,278.056763,0.069753,-0.050012,794.18689,-0.002785,0.127466,0.078944,0.0,1.0,2652.659424
91.105225,3.430469,4.623913,6.45466,-0.327263,6.45466,-0.327263,1.42E-4,0.0,108.610672,68.663208,867.070557,293.984955,277.926147,0.055279,-0.026018,808.930237,5.41E-4,0.128041,0.081487,0.0,1.0,2653.431152
91.189827,6.290155,7.4836,6.500954,-0.409448,6.500954,-0.409448,10.000142,10.0,111.514618,68.951523,875.153931,294.177979,277.848846,0.056954,0.00618,818.340271,0.004675,0.129093,0.074693,0.0,1.0,2653.928955
91.295929,10.634194,11.827639,6.567199,-0.2995,6.567199,-0.2995,10.000142,10.0,115.924614,69.376152,888.600037,294.475739,277.750366,0.073825,0.053965,831.987732,0.005849,0.130019,0.065042,0.0,1.0,2654.635498
91.357742,13.56694,14.760385,6.607674,-0.114781,6.607674,-0.114781,10.000142,10.0,118.902542,69.653877,897.828857,294.602814,277.697601,0.089069,0.072539,840.891541,0.004279,0.131344,0.050154,0.0,1.0,2655.07666
91.450478,18.021954,19.215399,6.645201,0.188496,6.645201,0.188496,20.000143,20.0,123.425674,70.062393,910.680786,294.595337,277.638062,0.107611,0.066073,854.101746,0.00164,0.132153,0.0438,0.0,1.0,2655.703125
91.517479,21.029047,22.222492,6.663074,0.32513,6.663074,0.32513,20.000143,20.0,126.474014,70.329475,917.88385,294.468414,277.610321,0.110664,0.04183,862.826294,-0.002693,0.132904,0.044174,0.0,1.0,2656.108154
91.627243,25.593069,26.786514,6.681862,0.319965,6.681862,0.319965,30.000143,30.0,131.087219,70.72258,926.774536,294.2005,277.583038,0.100061,-0.006058,875.686279,-0.004645,0.133261,0.05052,0.0,1.0,2656.711914
91.705009,28.669188,29.862633,6.695781,0.188715,6.695781,0.188715,30.000143,30.0,134.185272,70.979881,931.795959,294.046936,277.572083,0.085878,-0.032322,884.014038,-0.004571,0.133637,0.063916,0.0,1.0,2657.117188
91.822739,33.329346,34.522793,6.721907,-0.105283,6.721907,-0.105283,30.000143,30.0,138.862915,71.358963,939.074158,293.97641,277.563477,0.063512,-0.04328,895.995789,-0.002696,0.133916,0.071594,0.0,1.0,2657.72998
91.896736,36.464691,37.658138,6.748483,-0.283664,6.748483,-0.283664,40.000141,40.0,142.002075,71.607155,944.32135,294.053101,277.562286,0.055066,-0.02978,903.607971,0.001504,0.134438,0.075121,0.0,1.0,2658.137451
91.992348,41.208401,42.401844,6.797733,-0.385366,6.797733,-0.385366,40.000141,40.0,146.746338,71.972549,953.355652,294.294952,277.567871,0.056515,0.010988,914.504028,0.004052,0.13497,0.071286,0.0,1.0,2658.733154
92.044159,44.397678,45.591122,6.835812,-0.326321,6.835812,-0.326321,40.000141,40.0,149.935852,72.211433,960.200073,294.473969,277.577393,0.066398,0.039859,921.493652,0.005505,0.135955,0.059193,0.0,1.0,2659.111328
92.111229,49.222515,50.415958,6.879189,-0.089706,6.879189,-0.089706,50.000141,50.0,154.764389,72.5625,970.825928,294.63327,277.601379,0.087029,0.063142,931.731384,0.004662,0.136716,0.050243,0.0,1.0,2659.644043
92.155411,52.466904,53.660347,6.900429,0.093452,6.900429,0.093452,50.000141,50.0,158.011932,72.791718,977.36969,294.628387,277.623566,0.097663,0.0596,938.467224,0.001282,0.137584,0.042278,0.0,1.0,2659.980225
92.228966,57.375122,58.568569,6.916367,0.260766,6.916367,0.260766,60.000141,60.0,162.920837,73.128479,985.548279,294.464569,277.66394,0.102223,0.028245,948.467773,-0.001335,0.138009,0.042522,0.0,1.0,2660.470947
92.284081,60.674042,61.867485,6.923951,0.260937,6.923951,0.260937,60.000141,60.0,166.213501,73.348495,989.765259,294.301819,277.693481,0.095731,-5.06E-4,955.02417,-0.003725,0.138327,0.050713,0.0,1.0,2660.796875
92.373283,65.65947,66.852921,6.935568,0.086694,6.935568,0.086694,70.000145,70.0,171.17627,73.672165,995.052979,294.109253,277.737976,0.076701,-0.033233,964.560547,-0.003728,0.138479,0.05885,0.0,1.0,2661.292236
92.434059,69.005753,70.199196,6.948111,-0.090098,6.948111,-0.090098,70.000145,70.0,174.498917,73.883865,998.417053,294.068451,277.766144,0.063871,-0.03955,970.650024,-0.001238,0.138711,0.068478,0.0,1.0,2661.626953
92.519112,74.056206,75.249649,6.97725,-0.310413,6.97725,-0.310413,70.000145,70.0,179.50499,74.195381,1004.028381,294.171539,277.805023,0.052529,-0.021033,979.327698,0.001287,0.138962,0.070519,0.0,1.0,2662.129395
92.566994,77.442841,78.636284,7.005419,-0.371621,7.005419,-0.371621,80.000145,80.0,182.859375,74.398994,1008.546143,294.319,277.829071,0.053998,0.003759,984.825134,0.004434,0.139545,0.065364,0.0,1.0,2662.457031
92.624046,82.552048,83.745499,7.0469,-0.283146,7.0469,-0.283146,80.000145,80.0,187.921844,74.698135,1016.347351,294.543427,277.86377,0.067565,0.04006,992.745789,0.005309,0.140108,0.057991,0.0,1.0,2662.924561
92.655693,85.978188,87.171631,7.071734,-0.139356,7.071734,-0.139356,90.000145,90.0,191.319077,74.893303,1021.799072,294.635193,277.886658,0.079623,0.053586,997.889465,0.004045,0.140938,0.04677,0.0,1.0,2663.217041
92.703392,91.148315,92.341766,7.091982,0.091361,7.091982,0.091361,90.000145,90.0,196.447937,75.179657,1029.253906,294.61792,277.920532,0.093902,0.047097,1005.507324,0.001991,0.141435,0.042181,0.0,1.0,2663.633301
92.739395,94.61573,95.809174,7.099359,0.190843,7.099359,0.190843,90.000145,90.0,199.885818,75.366425,1033.206909,294.51358,277.941925,0.095829,0.027645,1010.537415,-0.001305,0.14184,0.043045,0.0,1.0,2663.903076
92.801292,99.846405,101.039848,7.104775,0.174775,7.104775,0.174775,100.000145,100.0,205.064148,75.640671,1037.733765,294.304901,277.969604,0.08672,-0.009121,1017.948853,-0.002726,0.141987,0.048262,0.0,1.0,2664.308105
92.846634,103.351738,104.545181,7.109316,0.066777,7.109316,0.066777,100.000145,100.0,208.527466,75.819778,1040.122314,294.191437,277.983521,0.075363,-0.028242,1022.73877,-0.002497,0.142096,0.058696,0.0,1.0,2664.582031
92.915703,108.634193,109.827637,7.122155,-0.16109,7.122155,-0.16109,110.000145,110.0,213.737015,76.083069,1043.648682,294.151276,277.995941,0.058243,-0.033935,1029.600586,-9.54E-4,0.142186,0.064369,0.0,1.0,2664.999512
92.958168,112.170769,113.364212,7.137926,-0.292138,7.137926,-0.292138,110.000145,110.0,217.220505,76.255074,1046.417969,294.220367,277.998535,0.052444,-0.021706,1033.934814,0.002301,0.142443,0.066377,0.0,1.0,2665.27832
93.010216,117.496857,118.6903,7.168992,-0.352216,7.168992,-0.352216,120.000145,120.0,222.465378,76.507706,1051.579834,294.413208,277.995209,0.055159,0.010918,1040.106201,0.004173,0.142759,0.062923,0.0,1.0,2665.686035
93.0364,121.06176,122.255211,7.192739,-0.293533,7.192739,-0.293533,120.000145,120.0,225.977585,76.672462,1055.672363,294.546844,277.98941,0.063699,0.032511,1044.053223,0.005032,0.14338,0.053281,0.0,1.0,2665.94458
93.068848,126.431358,127.624802,7.217866,-0.100728,7.217866,-0.100728,130.000137,130.0,231.272461,76.914001,1062.015015,294.651001,277.977142,0.080114,0.047492,1049.838501,0.004193,0.143855,0.046599,0.0,1.0,2666.308838
93.090828,130.026474,131.21991,7.228448,0.03816,7.228448,0.03816,130.000137,130.0,234.819138,77.071304,1065.779907,294.631165,277.966949,0.087812,0.04227,1053.656006,0.001439,0.144357,0.041391,0.0,1.0,2666.539307
93.130104,135.442276,136.635712,7.233356,0.149386,7.233356,0.149386,130.000137,130.0,240.160095,77.301895,1070.178101,294.487244,277.947876,0.089668,0.015597,1059.339478,-5.45E-4,0.144569,0.042383,0.0,1.0,2666.877441
93.161339,139.067535,140.260986,7.234265,0.133191,7.234265,0.133191,140.000137,140.0,243.731049,77.452209,1072.224121,294.359314,277.931763,0.083502,-0.006635,1063.068481,-0.002134,0.144667,0.049579,0.0,1.0,2667.104004
93.213448,144.525314,145.718765,7.23741,-0.019524,7.23741,-0.019524,140.000137,140.0,249.098541,77.672882,1074.637817,294.223846,277.900879,0.067877,-0.029186,1068.478149,-0.001903,0.144685,0.055975,0.0,1.0,2667.451172
93.248848,148.175705,149.369141,7.243771,-0.1587,7.243771,-0.1587,150.000137,150.0,252.683411,77.81691,1076.251099,294.208527,277.875488,0.058323,-0.031128,1071.914551,2.79E-4,0.144748,0.062749,0.0,1.0,2667.687256
93.29641,153.667221,154.860672,7.262064,-0.314174,7.262064,-0.314174,150.000137,150.0,258.072144,78.028374,1079.314941,294.310425,277.830841,0.051345,-0.01294,1076.781494,0.002267,0.144875,0.063515,0.0,1.0,2668.041748
93.321136,157.338379,158.53183,7.280248,-0.343411,7.280248,-0.343411,160.000137,160.0,261.674377,78.166252,1082.028687,294.431091,277.797882,0.053994,0.007344,1079.851563,0.004488,0.145241,0.05842,0.0,1.0,2668.272461
93.347839,162.860703,164.054138,7.305677,-0.249001,7.305677,-0.249001,160.000137,160.0,267.096832,78.368309,1086.88855,294.59552,277.746094,0.066216,0.033826,1084.277588,0.004906,0.145605,0.052386,0.0,1.0,2668.60083
93.361954,166.553238,167.746674,7.319463,-0.128353,7.319463,-0.128353,170.000137,170.0,270.725555,78.499786,1090.227173,294.649689,277.711182,0.07572,0.04151,1087.166992,0.003557,0.146114,0.044165,0.0,1.0,2668.806641
93.384949,172.109421,173.302856,7.328035,0.043423,7.328035,0.043423,170.000137,170.0,276.188385,78.692215,1094.551514,294.6073,277.659027,0.085496,0.031847,1091.478149,0.001834,0.146389,0.041457,0.0,1.0,2669.101318
93.404335,175.82518,177.018616,7.329161,0.104477,7.329161,0.104477,180.000137,180.0,279.840668,78.817429,1096.633423,294.512543,277.624237,0.085491,0.014727,1094.341675,-6.2E-4,0.146561,0.043576,0.0,1.0,2669.294434
93.440224,181.415161,182.608597,7.328022,0.062546,7.328022,0.062546,180.000137,180.0,285.329712,79.000923,1098.758057,294.349365,277.570892,0.076306,-0.013478,1098.566772,-0.001493,0.146583,0.048314,0.0,1.0,2669.587646
93.467392,185.151596,186.345047,7.328533,-0.036029,7.328533,-0.036029,180.000137,180.0,288.99408,79.120514,1099.795288,294.27356,277.533966,0.06695,-0.025957,1101.289551,-8.94E-4,0.14656,0.056473,0.0,1.0,2669.788574
93.508202,190.768967,191.962418,7.335879,-0.214625,7.335879,-0.214625,190.000137,190.0,294.497192,79.295975,1101.491333,294.270782,277.476257,0.054514,-0.025316,1105.164795,5.15E-4,0.146571,0.060263,0.0,1.0,2670.096191
93.531891,194.521515,195.714951,7.34669,-0.303924,7.34669,-0.303924,190.000137,190.0,298.171448,79.410339,1103.070068,294.341675,277.436829,0.0515,-0.012886,1107.595337,0.003066,0.146718,0.060402,0.0,1.0,2670.301758
93.558083,200.161301,201.354752,7.3679,-0.31988,7.3679,-0.31988,200.000137,200.0,303.694702,79.577904,1106.291748,294.500183,277.378113,0.056184,0.013814,1111.043579,0.004342,0.146934,0.056857,0.0,1.0,2670.601807
93.569611,203.928757,205.122208,7.383091,-0.254643,7.383091,-0.254643,200.000137,200.0,307.38678,79.68689,1108.903442,294.595703,277.340515,0.063905,0.029124,1113.253174,0.00457,0.147358,0.048932,0.0,1.0,2670.791992
93.583427,209.592361,210.785797,7.396881,-0.092851,7.396881,-0.092851,210.000137,210.0,312.941589,79.84623,1112.809326,294.648651,277.288055,0.076671,0.036057,1116.516968,0.003638,0.147662,0.044156,0.0,1.0,2671.060547
93.594055,213.376831,214.570282,7.400931,0.008838,7.400931,0.008838,210.000137,210.0,316.654755,79.949745,1114.945068,294.611969,277.256012,0.081523,0.028576,1118.689941,0.001326,0.147938,0.041508,0.0,1.0,2671.232178
93.615921,219.066589,220.260025,7.399839,0.068226,7.399839,0.068226,220.000137,220.0,322.235687,80.10112,1117.148804,294.481018,277.2117,0.080417,0.005057,1121.941284,-1.26E-4,0.148019,0.043343,0.0,1.0,2671.487549
93.63472,222.867844,224.061279,7.397708,0.034027,7.397708,0.034027,220.000137,220.0,325.96109,80.199593,1117.993408,294.382477,277.18396,0.074231,-0.011753,1124.07312,-9.75E-4,0.147997,0.04989,0.0,1.0,2671.660889
93.666557,228.579041,229.772491,7.397673,-0.10488,7.397673,-0.10488,230.000137,230.0,331.553467,80.343864,1118.918579,294.298309,277.143951,0.061402,-0.025302,1127.092407,-4.86E-4,0.147954,0.054817,0.0,1.0,2671.928467
93.69738,234.302185,235.495621,7.405262,-0.258,7.405262,-0.258,230.000137,230.0,337.151001,80.484161,1120.169556,294.33194,277.10556,0.052609,-0.018687,1129.975708,0.001498,0.147953,0.059026,0.0,1.0,2672.202637
93.712227,238.122742,239.316193,7.416018,-0.331105,7.416018,-0.331105,240.000137,240.0,340.887054,80.575455,1121.470947,294.45871,277.081451,0.042654,0.003493,1131.766968,0.001015,0.148035,0.1,0.0,1.0,2672.384033
93.712509,243.861328,245.054779,7.447244,-0.309604,7.447244,-0.309604,240.000137,240.0,346.501801,80.708824,1124.645996,294.852142,277.050079,0.050194,0.066794,1134.304688,0.001577,0.14832,0.1,0.0,1.0,2672.63623
93.694847,247.692932,248.886368,7.472696,-0.147047,7.472696,-0.147047,250.000137,250.0,350.25592,80.795135,1127.817871,295.162231,277.03479,0.067472,0.114065,1135.954834,0.001639,0.148704,0.1,0.0,1.0,2672.77832
93.648445,253.451614,254.645065,7.504661,0.30235,7.504661,0.30235,250.000137,250.0,355.909729,80.920334,1133.650269,295.562439,277.024384,0.102485,0.170029,1138.506714,7.0E-4,0.149454,0.1,0.0,1.0,2672.939941
93.612701,257.300018,258.493469,7.511981,0.683732,7.511981,0.683732,260.000153,260.0,359.695099,81.000809,1137.298462,295.736359,277.027405,0.125679,0.189679,1140.33667,-6.23E-4,0.149934,0.1,0.0,1.0,2673.016113
93.564674,263.08844,264.281891,7.510535,1.268417,7.510535,1.268417,260.000153,260.0,365.392456,81.11705,1141.206543,295.838684,277.047974,0.151541,0.191088,1143.323853,-0.003256,0.15024,0.1,0.0,1.0,2673.100586
93.540169,266.957947,268.151367,7.504719,1.599822,7.504719,1.599822,270.000153,270.0,369.199158,81.191696,1142.586182,295.824005,277.071869,0.160103,0.177738,1145.443237,-0.005147,0.150248,0.1,0.0,1.0,2673.14917
93.515228,272.774933,273.968353,7.495277,1.958974,7.495277,1.958974,270.000153,270.0,374.913818,81.299767,1142.972046,295.750397,277.120941,0.160102,0.14951,1148.615234,-0.007618,0.150094,0.1,0.0,1.0,2673.226563
93.505013,276.661499,277.854919,7.490089,2.095091,7.490089,2.095091,280.000153,280.0,378.722961,81.369438,1142.473633,295.713013,277.161102,0.153786,0.13283,1150.734009,-0.00886,0.149963,0.1,0.0,1.0,2673.286621
93.495598,282.498993,283.692444,7.481967,2.186036,7.481967,2.186036,280.000153,280.0,384.432098,81.470757,1141.137207,295.734192,277.230591,0.140778,0.120737,1153.656006,-0.009977,0.149802,0.1,0.0,1.0,2673.391113
93.490623,286.393799,287.58725,7.477473,2.203668,7.477473,2.203668,290.000153,290.0,388.234192,81.536308,1140.170288,295.815704,277.282532,0.133045,0.123406,1155.369995,-0.010322,0.149691,0.1,0.0,1.0,2673.468994
93.48082,292.238007,293.431458,7.472432,2.230364,7.472432,2.230364,290.000153,290.0,393.931946,81.631783,1139.055298,296.032104,277.36908,0.12681,0.141574,1157.536255,-0.010494,0.149549,0.1,0.0,1.0,2673.591553
93.470886,296.13443,297.327881,7.471321,2.275326,7.471321,2.275326,300.000153,300.0,397.728088,81.693542,1138.714844,296.220123,277.433167,0.127006,0.159574,1158.712646,-0.010561,0.149473,0.1,0.0,1.0,2673.672852
93.450104,301.978699,303.17215,7.471098,2.404559,7.471098,2.404559,300.000153,300.0,403.421722,81.783318,1138.835327,296.524475,277.540283,0.132797,0.18792,1160.126709,-0.010835,0.149426,0.1,0.0,1.0,2673.786865
93.433311,305.874634,307.068085,7.471053,2.527677,7.471053,2.527677,310.000153,310.0,407.218414,81.841225,1139.186035,296.719208,277.619843,0.13878,0.203906,1160.882202,-0.011206,0.149421,0.1,0.0,1.0,2673.855957
93.406738,311.718536,312.911987,7.469653,2.744511,7.469653,2.744511,310.000153,310.0,412.915894,81.925171,1139.759766,296.973969,277.752167,0.14784,0.219768,1161.81543,-0.012037,0.149421,0.1,0.0,1.0,2673.949707
93.389877,315.614716,316.808167,7.467579,2.88914,7.467579,2.88914,320.000153,320.0,416.715515,81.979233,1139.970825,297.115417,277.849152,0.152427,0.224573,1162.340942,-0.012717,0.149407,0.1,0.0,1.0,2674.007813
93.367867,321.45932,322.652771,7.462964,3.080587,7.462964,3.080587,320.000153,320.0,422.415222,82.057571,1139.820679,297.295166,278.007324,0.155766,0.22539,1163.016724,-0.013758,0.149352,0.1,0.0,1.0,2674.093506
93.355728,325.355713,326.549164,7.45938,3.178417,7.45938,3.178417,320.000153,320.0,426.213989,82.10807,1139.40271,297.405396,278.120758,0.155596,0.223782,1163.394043,-0.014391,0.149292,0.1,0.0,1.0,2674.1521
93.340858,331.199493,332.392914,7.452944,3.280916,7.452944,3.280916,330.000153,330.0,431.908539,82.181381,1138.383789,297.57843,278.301849,0.152835,0.222042,1163.834106,-0.015135,0.149188,0.1,0.0,1.0,2674.245361
93.332512,335.094147,336.287598,7.448249,3.32468,7.448249,3.32468,330.000153,330.0,435.701721,82.228737,1137.54248,297.708893,278.429321,0.150254,0.222936,1164.030273,-0.015623,0.149059,0.1,0.0,1.0,2674.311523
93.320831,340.933411,342.126862,7.441997,3.368949,7.441997,3.368949,340.000153,340.0,441.386139,82.2976,1136.275146,297.935303,278.629974,0.146889,0.228488,1164.1604,-0.015832,0.148965,0.1,0.0,1.0,2674.415527
93.312843,344.823944,346.017365,7.437789,3.395753,7.437789,3.395753,340.000153,340.0,445.172394,82.342117,1135.519409,298.105621,278.769775,0.145633,0.234731,1164.135254,-0.016043,0.14884,0.1,0.0,1.0,2674.487061
93.299721,350.655731,351.849182,7.432678,3.445067,7.432678,3.445067,350.000153,350.0,450.847504,82.406876,1134.597656,298.381073,278.988342,0.145631,0.246247,1163.942017,-0.01617,0.148756,0.1,0.0,1.0,2674.595215
93.290092,354.540833,355.734283,7.4295,3.48826,7.4295,3.48826,350.000153,350.0,454.628662,82.448715,1134.135254,298.57077,279.139893,0.146714,0.25413,1163.724487,-0.016405,0.148654,0.1,0.0,1.0,2674.666748
93.274719,360.364441,361.557861,7.425622,3.566441,7.425622,3.566441,360.000153,360.0,460.297913,82.509521,1133.599243,298.852966,279.375763,0.149242,0.264411,1163.297974,-0.016611,0.14859,0.1,0.0,1.0,2674.772217
93.264305,364.244263,365.437683,7.422974,3.624264,7.422974,3.624264,360.000153,360.0,464.07605,82.548775,1133.292358,299.035187,279.538452,0.150997,0.26961,1162.966309,-0.016983,0.148512,0.1,0.0,1.0,2674.841553
93.249229,370.060364,371.253784,7.419188,3.708904,7.419188,3.708904,370.000153,370.0,469.741272,82.605797,1132.794678,299.297607,279.790039,0.153017,0.274717,1162.424805,-0.017258,0.148459,0.1,0.0,1.0,2674.94458
93.239899,373.935425,375.128876,7.416319,3.760086,7.416319,3.760086,370.000153,370.0,473.516571,82.642609,1132.398193,299.466827,279.962402,0.153702,0.27671,1162.0448,-0.017661,0.148384,0.1,0.0,1.0,2675.013672
93.227173,379.744598,380.938049,7.412038,3.82238,7.412038,3.82238,380.000153,380.0,479.176788,82.696121,1131.682129,299.717682,280.226868,0.153726,0.278602,1161.453613,-0.017905,0.148326,0.1,0.0,1.0,2675.118652
93.219482,383.615021,384.808472,7.408812,3.85458,7.408812,3.85458,380.000153,380.0,482.948151,82.730705,1131.136475,299.886597,280.406647,0.153236,0.279801,1161.045166,-0.018202,0.148241,0.1,0.0,1.0,2675.190186
93.206673,389.247681,390.441101,7.404334,3.889657,7.404334,3.889657,390.000153,390.0,488.444611,82.779655,1130.289185,300.140015,280.672882,0.1522,0.282221,1160.001587,-0.018355,0.148176,0.1,0.0,1.0,2675.296875
93.201256,393.276245,394.469666,7.400918,3.909603,7.400918,3.909603,390.000153,390.0,492.368134,82.813591,1129.688232,300.327576,280.86557,0.151579,0.284673,1159.715942,-0.018522,0.148087,0.1,0.0,1.0,2675.375
93.191307,399.071838,400.265259,7.396524,3.935699,7.396524,3.935699,400.000153,400.0,498.014465,82.861,1128.873413,300.606812,281.145966,0.151068,0.28915,1159.154907,-0.018617,0.148018,0.1,0.0,1.0,2675.489014
93.184563,402.932617,404.126038,7.393612,3.95407,7.393612,3.95407,400.000153,400.0,501.77652,82.891685,1128.387085,300.797455,281.334503,0.151079,0.292492,1158.73291,-0.018741,0.14793,0.1,0.0,1.0,2675.565674
93.17421,408.719452,409.912903,7.389906,3.984697,7.389906,3.984697,410.000153,410.0,507.416748,82.936378,1127.744873,301.086578,281.619171,0.151555,0.297454,1158.049683,-0.018829,0.147872,0.1,0.0,1.0,2675.681152
93.167198,412.574615,413.768036,7.38742,4.007388,7.38742,4.007388,410.000153,410.0,511.175262,82.965309,1127.365845,301.279449,281.809875,0.152054,0.300424,1157.572388,-0.018975,0.147798,0.1,0.0,1.0,2675.758545
93.156288,418.353394,419.546844,7.384131,4.042415,7.384131,4.042415,420.000153,420.0,516.810669,83.007446,1126.81897,301.566895,282.096802,0.152729,0.304062,1156.841309,-0.019083,0.147748,0.1,0.0,1.0,2675.874268
93.14888,422.2034,423.39682,7.381871,4.063273,7.381871,4.063273,420.000153,420.0,520.56604,83.034729,1126.394653,301.758026,282.288361,0.152539,0.306081,1156.350952,-0.01925,0.147683,0.1,0.0,1.0,2675.951172
93.138779,427.97467,429.168121,7.378479,4.084324,7.378479,4.084324,430.000153,430.0,526.196228,83.074509,1125.687622,302.049469,282.575623,0.151576,0.309295,1155.61499,-0.019349,0.147637,0.1,0.0,1.0,2676.067139
93.132484,431.819733,433.013184,7.375777,4.092889,7.375777,4.092889,430.000153,430.0,529.947632,83.100304,1125.190063,302.249146,282.766815,0.150824,0.311935,1155.123413,-0.019449,0.14757,0.1,0.0,1.0,2676.14502
93.123253,437.583527,438.776947,7.37188,4.102034,7.37188,4.102034,440.000153,440.0,535.571655,83.137962,1124.449829,302.557922,283.052948,0.149988,0.316796,1154.382324,-0.01949,0.147516,0.1,0.0,1.0,2676.262939
93.11705,441.423492,442.616943,7.369227,4.108665,7.369227,4.108665,440.000153,440.0,539.319031,83.162392,1123.992188,302.768951,283.243195,0.149774,0.320474,1153.88501,-0.019533,0.147438,0.1,0.0,1.0,2676.342041
93.107521,447.179657,448.373108,7.365901,4.122542,7.365901,4.122542,450.000153,450.0,544.937439,83.198059,1123.390137,303.089966,283.527771,0.149996,0.326103,1153.136597,-0.019565,0.147385,0.1,0.0,1.0,2676.461182
93.101036,451.014648,452.208099,7.363725,4.135068,7.363725,4.135068,450.000153,450.0,548.681458,83.221199,1123.046509,303.304718,283.71698,0.150416,0.329581,1152.639404,-0.019631,0.147318,0.1,0.0,1.0,2676.540527
93.091309,456.76358,457.957031,7.360892,4.157358,7.360892,4.157358,460.000153,460.0,554.295471,83.25499,1122.583008,303.625,284.000031,0.151205,0.333951,1151.903687,-0.019691,0.147274,0.1,0.0,1.0,2676.659668
93.08493,460.593964,461.787415,7.358943,4.1733,7.358943,4.1733,460.000153,460.0,558.036926,83.276909,1122.290527,303.836365,284.188232,0.151684,0.336194,1151.423828,-0.019797,0.147218,0.1,0.0,1.0,2676.739258
93.075752,466.336304,467.529755,7.356246,4.195675,7.356246,4.195675,470.000153,470.0,563.647217,83.308914,1121.843262,304.150208,284.469696,0.152154,0.338629,1150.724609,-0.019873,0.147179,0.1,0.0,1.0,2676.858887
93.069969,470.162476,471.355927,7.354301,4.208547,7.354301,4.208547,470.000153,470.0,567.386169,83.329689,1121.53125,304.358063,284.656738,0.152256,0.3398,1150.273071,-0.019979,0.147125,0.1,0.0,1.0,2676.939453
93.061813,475.898682,477.092133,7.351525,4.223373,7.351525,4.223373,480.000153,480.0,572.992554,83.360054,1121.038574,304.669617,284.936371,0.152133,0.341233,1149.616455,-0.020041,0.147086,0.1,0.0,1.0,2677.061035
93.056717,479.720825,480.914246,7.349518,4.230581,7.349518,4.230581,480.000153,480.0,576.72876,83.379784,1120.700806,304.878204,285.122162,0.151933,0.342165,1149.190796,-0.020111,0.147031,0.1,0.0,1.0,2677.143311
93.049431,485.451019,486.64447,7.346727,4.238279,7.346727,4.238279,480.000153,480.0,582.330994,83.408646,1120.196899,305.193665,285.399902,0.151598,0.343736,1148.567139,-0.020146,0.14699,0.1,0.0,1.0,2677.267822
93.044724,489.269196,490.462646,7.344781,4.242368,7.344781,4.242368,490.000153,490.0,586.064392,83.427414,1119.875,305.405853,285.584473,0.151425,0.344935,1148.159668,-0.020182,0.146935,0.1,0.0,1.0,2677.351563
93.037766,494.9935,496.18692,7.342228,4.248477,7.342186,4.248337,490.000153,490.0,591.662598,83.454887,1119.424927,305.726532,285.860565,0.151315,0.346893,1147.559814,-0.020202,0.146896,0.1,0.0,1.0,2677.478516
93.033173,498.80777,500.00119,7.340548,4.253251,7.34043,4.25286,500.000153,500.0,595.393555,83.472763,1119.151978,305.941376,286.04422,0.151348,0.348214,1147.167603,-0.020231,0.146844,0.1,0.0,1.0,2677.563477
93.026344,504.526367,505.719788,7.338422,4.261709,7.338122,4.260709,500.000153,500.0,600.988342,83.49894,1118.777954,306.264099,286.319183,0.151514,0.350053,1146.592773,-0.020254,0.146809,0.1,0.0,1.0,2677.69165
93.021889,508.336945,509.530396,7.337027,4.268117,7.336558,4.266554,510.000153,510.0,604.717224,83.515976,1118.549927,306.479034,286.502258,0.151661,0.351109,1146.219604,-0.020294,0.146762,0.1,0.0,1.0,2677.777588
93.015358,514.050232,515.243652,7.335252,4.278051,7.33446,4.27541,510.000153,510.0,610.309082,83.540932,1118.225586,306.800659,286.776672,0.151862,0.352383,1145.677002,-0.020324,0.146731,0.1,0.0,1.0,2677.906982
93.011139,517.857361,519.050842,7.334061,4.284523,7.333006,4.281008,520.000122,520.0,614.036194,83.55719,1118.017456,307.014526,286.959564,0.151951,0.353038,1145.327759,-0.020372,0.146689,0.1,0.0,1.0,2677.993652
93.005043,523.565674,524.759155,7.332527,4.293216,7.331008,4.288153,520.000122,520.0,619.625488,83.581017,1117.708984,307.3349,287.233887,0.151997,0.353807,1144.822754,-0.020402,0.14666,0.1,0.0,1.0,2678.124512
93.001137,527.36969,528.56311,7.331478,4.298246,7.329603,4.291996,530.000122,530.0,623.35083,83.596542,1117.506226,307.548431,287.41687,0.151974,0.354237,1144.498535,-0.020444,0.14662,0.1,0.0,1.0,2678.212158
92.995522,533.073364,534.266785,7.330143,4.304549,7.327663,4.296284,530.000122,530.0,628.937561,83.619324,1117.207031,307.869232,287.691528,0.151892,0.354853,1144.030151,-0.020468,0.146592,0.1,0.0,1.0,2678.344482
92.991928,536.874329,538.067749,7.32924,4.308175,7.32631,4.298409,540.000122,540.0,632.661255,83.634186,1117.014648,308.083618,287.874878,0.151828,0.35528,1143.729004,-0.020498,0.146553,0.1,0.0,1.0,2678.43335
92.986671,542.573547,543.767029,7.328148,4.313101,7.324473,4.300851,540.000122,540.0,638.245605,83.655998,1116.73999,308.406067,288.15033,0.151755,0.355967,1143.292969,-0.020515,0.146526,0.1,0.0,1.0,2678.567383
92.983246,546.371643,547.565063,7.327431,4.316351,7.323213,4.302289,550.000122,550.0,641.967773,83.670235,1116.56958,308.621552,288.334351,0.151734,0.356446,1143.012329,-0.020539,0.146489,0.1,0.0,1.0,2678.657227
92.978195,552.066711,553.260132,7.326629,4.321416,7.321524,4.3044,550.000122,550.0,647.550049,83.691154,1116.33252,308.945251,288.611023,0.151751,0.357154,1142.606445,-0.020554,0.146464,0.1,0.0,1.0,2678.79248
92.974884,555.862,557.055481,7.326117,4.325035,7.320375,4.305894,560.000122,560.0,651.270874,83.704811,1116.187622,309.161163,288.796021,0.151786,0.35759,1142.345703,-0.020578,0.14643,0.1,0.0,1.0,2678.883057
92.970032,561.553101,562.746521,7.3256,4.330691,7.318831,4.308128,560.000122,560.0,656.851318,83.724892,1115.985352,309.485016,289.074371,0.151857,0.358155,1141.969971,-0.020595,0.146407,0.1,0.0,1.0,2679.019287
92.966881,565.345886,566.539368,7.325274,4.334554,7.317774,4.309554,560.000122,560.0,660.571045,83.738014,1115.859863,309.700745,289.260559,0.151902,0.358462,1141.729736,-0.020622,0.146377,0.1,0.0,1.0,2679.110596
92.96228,571.033264,572.226746,7.325004,4.340177,7.316337,4.311286,570.000122,570.0,666.149841,83.757317,1115.68103,310.024139,289.540833,0.151952,0.358822,1141.384766,-0.020641,0.146355,0.1,0.0,1.0,2679.247803
92.959297,574.82373,576.017151,7.324836,4.34376,7.315343,4.312119,570.000122,570.0,669.868591,83.769936,1115.567505,310.239624,289.728394,0.151969,0.359009,1141.165039,-0.020668,0.146327,0.1,0.0,1.0,2679.339844
92.954948,580.507629,581.70105,7.324784,4.348712,7.313984,4.312713,580.000122,580.0,675.446045,83.788513,1115.403931,310.562805,290.010834,0.151974,0.359238,1140.850098,-0.020685,0.146307,0.1,0.0,1.0,2679.478271
