airspeed_indicator_indicated_speed_kt,altimeter_indicated_altitude_ft,altimeter_pressure_alt_ft,attitude_indicator_indicated_pitch_deg,attitude_indicator_indicated_roll_deg,attitude_indicator_internal_pitch_deg,attitude_indicator_internal_roll_deg,encoder_indicated_altitude_ft,encoder_pressure_alt_ft,gps_indicated_altitude_ft,gps_indicated_ground_speed_kt,gps_indicated_vertical_speed,indicated_heading_deg,magnetic_compass_indicated_heading_deg,slip_skid_ball_indicated_slip_skid,turn_indicator_indicated_turn_rate,vertical_speed_indicator_indicated_speed_fpm,flight_aileron,flight_elevator,flight_rudder,flight_flaps,engine_throttle,engine_rpm
4.187869,-97.081749,-95.888306,2.972322,1.379133,2.592876,0.114311,-99.999855,-100.0,2.286494,0.0,0.007704,297.870758,271.473389,0.009263,-0.063095,-13.380578,-0.0,0.0,0.0,0.0,0.0,600.50769
4.135506,-97.108711,-95.91526,2.970928,1.374762,2.593021,0.115072,-99.999855,-100.0,2.286524,0.0,0.007838,297.869873,273.929291,0.009148,-0.05658,-20.942343,-0.0,0.0,0.0,0.0,0.0,600.533325
4.090285,-97.137459,-95.944016,2.774654,0.746292,2.585519,0.115842,-99.999855,-100.0,2.286531,2.9E-5,-0.007805,297.868622,277.367737,0.008847,-0.048678,-15.897244,-0.019639,0.05186,4.4E-5,0.0,1.0,673.842041
4.073692,-97.15229,-95.958847,2.638636,0.358243,2.565727,0.115215,-99.999855,-100.0,2.286474,1.29E-4,-0.027199,297.867676,279.656769,0.008612,-0.04408,-9.627038,-0.010661,0.05171,1.07E-4,0.0,1.0,787.090698
4.095619,-97.168747,-95.975304,2.526005,0.111541,2.525942,0.11133,-99.999855,-100.0,2.28637,7.27E-4,-0.002278,297.866058,282.856354,0.0084,-0.038417,-12.372193,-0.005118,0.051315,1.54E-4,0.0,1.0,997.425659
4.167532,-97.177788,-95.984344,2.518997,0.106079,2.518997,0.106079,-99.999855,-100.0,2.286438,0.002379,0.040832,297.864624,285.062469,0.009077,-0.03498,-17.620319,-0.001593,0.050519,2.35E-4,0.0,1.0,1161.036255
4.390108,-97.188469,-95.995026,2.540792,0.094584,2.540792,0.094584,-99.999855,-100.0,2.286825,0.009313,0.108594,297.861542,288.340393,0.012553,-0.03054,-18.1322,-0.001515,0.05038,3.07E-4,0.0,1.0,1408.775024
4.629258,-97.193687,-96.000244,2.566335,0.085643,2.566335,0.085643,-99.999855,-100.0,2.287243,0.018248,0.145607,297.857727,290.366425,0.016353,-0.028338,-18.276194,-0.001351,0.050816,4.61E-4,0.0,1.0,1555.310547
4.928948,-97.197678,-96.004234,2.593399,0.076583,2.593399,0.076583,-99.999855,-100.0,2.287753,0.031281,0.170796,297.851624,292.220551,0.022252,-0.02684,-13.338875,-0.001223,0.051327,6.52E-4,0.0,1.0,1680.589233
5.543027,-97.202492,-96.009048,2.636954,0.062212,2.636954,0.062212,-99.999855,-100.0,2.288825,0.064834,0.221409,297.833069,295.070374,0.032827,-0.026026,-11.575621,-0.001094,0.051868,9.57E-4,0.0,1.0,1851.854736
6.220615,-97.205368,-96.011925,2.670798,0.051132,2.670798,0.051132,-99.999855,-100.0,2.290069,0.11161,0.281769,297.80188,297.431976,0.045022,-0.027538,-13.261326,-8.89E-4,0.052739,0.001884,0.0,1.0,1971.791504
6.760326,-97.206688,-96.013245,2.68953,0.045324,2.68953,0.045324,-99.999855,-100.0,2.291115,0.155607,0.32106,297.770386,298.950226,0.040396,-0.029895,-18.789005,-7.3E-4,0.053416,0.003444,0.0,1.0,2038.059204
7.599556,-97.207733,-96.01429,2.708306,0.040251,2.708306,0.040251,-99.999855,-100.0,2.292878,0.235774,0.382793,297.71225,300.87384,0.034743,-0.034806,-12.35872,-6.47E-4,0.053791,0.005019,0.0,1.0,2110.152832
8.194352,-97.20797,-96.014526,2.716815,0.038955,2.716815,0.038955,-99.999855,-100.0,2.294237,0.30077,0.42942,297.664124,301.977051,0.031628,-0.039118,-13.594055,-5.75E-4,0.054166,0.007925,0.0,1.0,2145.809326
9.088273,-97.207771,-96.01432,2.724275,0.039982,2.724275,0.039982,-99.999855,-100.0,2.296503,0.412636,0.501101,297.583282,303.321442,0.027478,-0.046267,-12.547431,-5.56E-4,0.054336,0.010332,0.0,1.0,2184.111328
9.42953,-97.207542,-96.014099,2.726052,0.041259,2.726052,0.041259,-99.999855,-100.0,2.297437,0.459411,0.529774,297.549683,303.739838,0.026001,-0.049235,-11.284676,-5.56E-4,0.054336,0.010332,0.0,1.0,2194.99292
9.42953,-97.207542,-96.014099,2.726052,0.041259,2.726052,0.041259,-99.999855,-100.0,2.297437,0.459411,0.529774,297.549683,303.739838,0.026001,-0.049235,-11.284676,-5.56E-4,0.054336,0.010332,0.0,1.0,2194.99292
11.644383,-97.205307,-96.011864,2.729792,0.058172,2.729792,0.058172,-99.999855,-100.0,2.304585,0.819778,0.719094,297.298553,305.368805,0.015406,-0.070327,13.154856,-5.89E-4,0.054521,0.016054,0.0,1.0,2235.223389
12.305612,-97.203781,-96.01033,2.729392,0.064305,2.729392,0.064305,-99.999855,-100.0,2.307082,0.946335,0.778817,297.210724,305.522003,0.012768,-0.077234,6.052453,-7.78E-4,0.054595,0.026099,0.0,1.0,2240.728271
13.355502,-97.200974,-96.00753,2.728651,0.076409,2.728651,0.076409,-99.999855,-100.0,2.311448,1.165744,0.873711,297.078766,305.478729,0.008577,-0.085694,8.472105,-9.19E-4,0.054588,0.033002,0.0,1.0,2245.833252
14.019671,-97.198967,-96.005524,2.728411,0.084677,2.728411,0.084677,-99.999855,-100.0,2.314466,1.316086,0.935076,297.003601,305.278687,0.006382,-0.089051,18.451283,-0.001026,0.054578,0.037257,0.0,1.0,2247.374268
14.958229,-97.19577,-96.002327,2.728359,0.097346,2.728359,0.097346,-99.999855,-100.0,2.319084,1.544266,1.019486,296.904602,304.780426,0.003406,-0.092097,9.201733,-0.00121,0.054568,0.043358,0.0,1.0,2249.652588
15.620719,-97.193298,-95.999855,2.728586,0.106962,2.728586,0.106962,-99.999855,-100.0,2.322588,1.715808,1.081019,296.842407,304.286835,0.001797,-0.092759,8.677249,-0.001336,0.054567,0.046919,0.0,1.0,2251.61377
16.667847,-97.18898,-95.995537,2.729534,0.123383,2.729534,0.123383,-99.999855,-100.0,2.32855,2.004674,1.175779,296.748993,303.286865,-6.64E-4,-0.09296,17.555979,-0.001528,0.054572,0.051418,0.0,1.0,2254.952393
17.329401,-97.185997,-95.992554,2.730558,0.133284,2.730558,0.133284,-99.999855,-100.0,2.332578,2.197752,1.236273,296.692383,302.53064,-0.002571,-0.092692,18.991489,-0.001674,0.054582,0.054401,0.0,1.0,2257.096191
18.209019,-97.181709,-95.988266,2.732706,0.144132,2.732706,0.144132,-99.999855,-100.0,2.338265,2.467643,1.320482,296.619812,301.390808,-0.005203,-0.091955,15.699507,-0.001904,0.054611,0.058919,0.0,1.0,2259.91748
18.976456,-97.177689,-95.984245,2.735161,0.152188,2.735161,0.152188,-99.999855,-100.0,2.343537,2.715181,1.389149,296.564484,300.286407,-0.006836,-0.090099,9.346273,-0.002015,0.054639,0.061458,0.0,1.0,2262.321777
19.961958,-97.172089,-95.978645,2.738976,0.161595,2.738976,0.161595,-99.999855,-100.0,2.350718,3.048604,1.481833,296.501373,298.74588,-0.00814,-0.086807,12.215555,-0.002174,0.054703,0.065314,0.0,1.0,2265.305664
20.590237,-97.168282,-95.974831,2.741611,0.167309,2.741611,0.167309,-99.999855,-100.0,2.355544,3.270316,1.537302,296.467163,297.704865,-0.008481,-0.083977,17.739906,-0.002262,0.054751,0.067398,0.0,1.0,2267.150635
21.569092,-97.161942,-95.968498,2.746103,0.176303,2.746103,0.176303,-99.999855,-100.0,2.363466,3.630549,1.626938,296.419586,296.010956,-0.00873,-0.079171,11.283747,-0.00239,0.054832,0.07018,0.0,1.0,2269.949951
22.24803,-97.15728,-95.963837,2.749332,0.182578,2.749332,0.182578,-99.999855,-100.0,2.369232,3.889944,1.689341,296.39032,294.803558,-0.008682,-0.075646,7.375162,-0.00248,0.054894,0.071872,0.0,1.0,2271.838135
23.223845,-97.150192,-95.956749,2.754244,0.192025,2.754244,0.192025,-99.999855,-100.0,2.377916,4.276362,1.780618,296.348816,293.045074,-0.008939,-0.071119,17.833408,-0.002608,0.054987,0.074022,0.0,1.0,2274.490967
23.846418,-97.145447,-95.952003,2.757452,0.198326,2.757452,0.198326,-99.999855,-100.0,2.383699,4.530993,1.839403,296.321289,291.922058,-0.009377,-0.068732,15.975057,-0.002694,0.055049,0.075348,0.0,1.0,2276.152344
24.844484,-97.13736,-95.943909,2.768167,0.214345,2.768167,0.214345,-99.999855,-100.0,2.393949,4.952897,2.086906,296.270599,290.138916,-0.010641,-0.066244,17.319763,-0.002833,0.055149,0.077473,0.0,1.0,2278.779297
25.491287,-97.131744,-95.938301,2.772805,0.222692,2.772805,0.222692,-99.999855,-100.0,2.40123,5.234437,2.21543,296.232941,289.009857,-0.012929,-0.065632,19.20396,-0.002966,0.055283,0.07907,0.0,1.0,2280.459473
26.405216,-97.123276,-95.929832,2.777496,0.233495,2.777496,0.233495,-99.999855,-100.0,2.411897,5.643553,2.301147,296.17157,287.464569,-0.017039,-0.066145,11.073677,-0.003181,0.055456,0.081891,0.0,1.0,2282.814941
27.076591,-97.116699,-95.923256,2.780947,0.241319,2.780947,0.241319,-99.999855,-100.0,2.420015,5.951839,2.370249,296.122772,286.379059,-0.020147,-0.067036,17.688721,-0.003287,0.055521,0.083928,0.0,1.0,2284.532471
28.068409,-97.106438,-95.912994,2.786729,0.253007,2.786729,0.253007,-99.999855,-100.0,2.432467,6.419335,2.475091,296.044037,284.867645,-0.025279,-0.069209,17.090445,-0.003447,0.055619,0.087399,0.0,1.0,2287.057129
28.6828,-97.099754,-95.906311,2.790487,0.260003,2.790487,0.260003,-99.999855,-100.0,2.440472,6.716499,2.535786,295.993958,283.992859,-0.028651,-0.070546,12.117336,-0.003553,0.05569,0.089822,0.0,1.0,2288.61792
29.56102,-97.089142,-95.895699,2.796474,0.270139,2.796474,0.270139,-99.999855,-100.0,2.453013,7.178038,2.617785,295.91687,282.767517,-0.03369,-0.072489,12.672339,-0.003714,0.05581,0.09384,0.0,1.0,2290.95874
30.193964,-97.080956,-95.887512,2.800732,0.276319,2.800732,0.276319,-99.999855,-100.0,2.46258,7.527973,2.67992,295.864594,281.945923,-0.036479,-0.07294,14.545646,-0.003814,0.055889,0.096394,0.0,1.0,2292.646973
31.01837,-97.069824,-95.876381,2.806435,0.283039,2.806435,0.283039,-99.999855,-100.0,2.475447,7.994386,2.76711,295.804291,280.992523,-0.039076,-0.072218,17.287954,-0.003947,0.056015,0.100308,0.0,1.0,2294.809326
31.645864,-97.06102,-95.867577,2.810744,0.2871,2.810744,0.2871,-99.999855,-100.0,2.485567,8.357587,2.835308,295.768372,280.359497,-0.039369,-0.070123,8.074441,-0.004014,0.056089,0.102336,0.0,1.0,2296.438232
32.509819,-97.04834,-95.854897,2.823924,0.29166,2.823924,0.29166,-99.999855,-100.0,2.500948,8.869504,3.277155,295.730865,279.624237,-0.038048,-0.065718,19.102905,-0.004101,0.056215,0.105119,0.0,1.0,2298.668213
33.082909,-97.039406,-95.845963,2.82827,0.294517,2.82827,0.294517,-99.999855,-100.0,2.511972,9.21642,3.335606,295.71344,279.226196,-0.035828,-0.06195,13.416254,-0.004146,0.056404,0.106451,0.0,1.0,2300.142334
33.939346,-97.025314,-95.831871,2.833783,0.298994,2.833783,0.298994,-99.999855,-100.0,2.528903,9.744958,3.434654,295.693542,278.767365,-0.031849,-0.056044,17.423849,-0.004207,0.056565,0.107866,0.0,1.0,2302.3396
34.461002,-97.016342,-95.822899,2.837221,0.301989,2.837221,0.301989,-99.999855,-100.0,2.539498,10.072633,3.497325,295.682648,278.567841,-0.029211,-0.05267,10.028625,-0.004246,0.056634,0.108505,0.0,1.0,2303.676025
35.359833,-97.000221,-95.806778,2.84351,0.308128,2.84351,0.308128,-99.999855,-100.0,2.558256,10.646685,3.607661,295.659271,278.364166,-0.026389,-0.048287,14.014674,-0.004314,0.056744,0.109406,0.0,1.0,2305.976318
35.926189,-96.98967,-95.796219,2.847405,0.31263,2.847405,0.31263,-99.999855,-100.0,2.570402,11.014344,3.677165,295.638977,278.324554,-0.025654,-0.046732,14.54116,-0.004373,0.056831,0.110158,0.0,1.0,2307.425293
36.774132,-96.973305,-95.779854,2.853281,0.32038,2.853281,0.32038,-99.999855,-100.0,2.589058,11.572966,3.781706,295.597015,278.387756,-0.02689,-0.046471,15.359213,-0.004466,0.056948,0.111589,0.0,1.0,2309.595215
37.338417,-96.962051,-95.768608,2.85756,0.325891,2.85756,0.325891,-99.999855,-100.0,2.601899,11.94998,4.2127,295.561584,278.506958,-0.029507,-0.047492,18.373413,-0.004536,0.057024,0.112851,0.0,1.0,2311.040283
38.181938,-96.94445,-95.751007,2.867447,0.334609,2.867447,0.334609,-99.999855,-100.0,2.623318,12.522132,4.352915,295.49823,278.792145,-0.034298,-0.05036,14.932695,-0.004656,0.057151,0.115459,0.0,1.0,2313.205811
38.742687,-96.932159,-95.738708,2.872825,0.342121,2.872825,0.342121,-99.999855,-100.0,2.637995,12.907836,4.44657,295.451996,279.04715,-0.038524,-0.052621,9.936628,-0.004714,0.05728,0.11743,0.0,1.0,2314.648438
39.581451,-96.912926,-95.719482,2.879551,0.3514,2.879551,0.3514,-99.999855,-100.0,2.660555,13.492552,4.57208,295.379181,279.515808,-0.045471,-0.05616,13.761249,-0.004887,0.057457,0.120938,0.0,1.0,2316.810303
40.115238,-96.900185,-95.706741,2.883402,0.356056,2.883402,0.356056,-99.999855,-100.0,2.675286,13.869857,4.647512,295.335083,279.862976,-0.049523,-0.057755,20.714785,-0.004981,0.05755,0.123373,0.0,1.0,2318.189941
40.970314,-96.878998,-95.685555,2.889804,0.362163,2.889804,0.362163,-99.999855,-100.0,2.699489,14.4827,4.767931,295.270996,280.487244,-0.054113,-0.058961,20.302412,-0.005087,0.057668,0.126784,0.0,1.0,2320.405762
41.521759,-96.864815,-95.671371,2.898162,0.365745,2.898162,0.365745,-99.999855,-100.0,2.715945,14.883956,5.311271,295.237122,280.928253,-0.055302,-0.058403,13.627457,-0.005147,0.057752,0.128935,0.0,1.0,2321.840332
42.343945,-96.842567,-95.649124,2.907759,0.370198,2.907759,0.370198,-99.999855,-100.0,2.742979,15.491111,5.468166,295.197235,281.630676,-0.055083,-0.056019,16.835598,-0.005225,0.057963,0.131682,0.0,1.0,2323.986084
42.843979,-96.828384,-95.634941,2.9112,0.371743,2.9112,0.371743,-99.999855,-100.0,2.759799,15.865153,5.538407,295.179321,282.078033,-0.053227,-0.053739,10.663282,-0.005272,0.058105,0.132985,0.0,1.0,2325.293701
43.68121,-96.803528,-95.610085,2.917212,0.374213,2.917212,0.374213,-99.999855,-100.0,2.788591,16.499151,5.663314,295.155609,282.849762,-0.048949,-0.049401,15.136879,-0.005311,0.058224,0.134572,0.0,1.0,2327.753174
44.22192,-96.786842,-95.593399,2.921177,0.375966,2.921177,0.375966,-99.999855,-100.0,2.807611,16.913574,5.744978,295.142426,283.35672,-0.045568,-0.046603,15.721246,-0.005334,0.058302,0.135376,0.0,1.0,2330.089844
45.053478,-96.760315,-95.566872,2.927496,0.379402,2.927496,0.379402,-99.999855,-100.0,2.837471,17.557177,5.872364,295.119385,284.136658,-0.040958,-0.043267,10.748334,-0.005371,0.058424,0.136417,0.0,1.0,2334.520508
45.59166,-96.74263,-95.549187,2.937184,0.387891,2.937184,0.387891,-99.999855,-100.0,2.857968,17.977591,6.443103,295.100891,284.635376,-0.037756,-0.041744,16.409607,-0.005402,0.058506,0.137131,0.0,1.0,2337.733154
46.397091,-96.714874,-95.521431,2.948646,0.39727,2.948646,0.39727,-99.999855,-100.0,2.892157,18.612373,6.907258,295.063873,285.362823,-0.037234,-0.041395,18.771351,-0.005541,0.058744,0.138493,0.0,1.0,2342.844482
46.933926,-96.695404,-95.501961,2.951859,0.400853,2.951859,0.400853,-99.999855,-100.0,2.915325,19.03825,6.99083,295.032837,285.828705,-0.037906,-0.042224,20.171658,-0.005647,0.058924,0.139554,0.0,1.0,2346.376221
47.739178,-96.665016,-95.471565,2.956995,0.406601,2.956995,0.406601,-99.999855,-100.0,2.950629,19.68096,7.127361,294.977081,286.49057,-0.04098,-0.044725,15.939158,-0.005726,0.059037,0.141896,0.0,1.0,2351.786377
48.275642,-96.644012,-95.450569,2.960703,0.410319,2.960703,0.410319,-99.999855,-100.0,2.974551,20.11195,7.222087,294.936768,286.902771,-0.043895,-0.046657,16.45735,-0.005782,0.059105,0.143713,0.0,1.0,2355.441406
49.035084,-96.61348,-95.420036,2.966326,0.415284,2.966326,0.415284,-99.999855,-100.0,3.008983,20.725847,7.356507,294.877472,287.44101,-0.048906,-0.049413,20.286972,-0.005862,0.059214,0.1467,0.0,1.0,2360.659424
49.614658,-96.589531,-95.396088,2.970608,0.41837,2.970608,0.41837,-99.999855,-100.0,3.035742,21.197853,7.459909,294.834747,287.812805,-0.051895,-0.050827,17.473963,-0.00591,0.059287,0.148625,0.0,1.0,2364.669189
50.393166,-96.556458,-95.363007,2.976584,0.421671,2.976584,0.421671,-99.999855,-100.0,3.072353,21.836618,7.598449,294.78241,288.254211,-0.055135,-0.051697,14.104616,-0.005977,0.059412,0.151801,0.0,1.0,2370.082275
50.925655,-96.533279,-95.339828,2.980594,0.423106,2.980594,0.423106,-99.999855,-100.0,3.097846,22.276798,7.693444,294.75296,288.515656,-0.055879,-0.051202,14.503335,-0.006012,0.059495,0.153648,0.0,1.0,2373.799316
51.744385,-96.496742,-95.303299,2.986994,0.424581,2.986994,0.424581,-99.999855,-100.0,3.137768,22.95874,7.839588,294.716553,288.850342,-0.05484,-0.049173,21.71096,-0.006044,0.059612,0.15589,0.0,1.0,2379.531738
52.252144,-96.473602,-95.280151,2.990851,0.424935,2.990851,0.424935,-99.999855,-100.0,3.16296,23.384624,7.928988,294.69931,289.015808,-0.052641,-0.047227,12.484596,-0.006061,0.059696,0.157135,0.0,1.0,2383.095215
53.045006,-96.436775,-95.243324,2.996592,0.425715,2.996592,0.425715,-99.999855,-100.0,3.2029,24.054157,8.008341,294.676941,289.208954,-0.047752,-0.043847,14.17885,-0.00607,0.059817,0.158572,0.0,1.0,2388.671387
53.594845,-96.410774,-95.217331,2.999856,0.426592,2.999856,0.426592,-99.999855,-100.0,3.230753,24.521149,8.060762,294.662781,289.296143,-0.043847,-0.041587,18.54903,-0.006074,0.059896,0.159311,0.0,1.0,2392.542969
54.363514,-96.373886,-95.180443,3.005544,0.426922,3.005544,0.426922,-99.999855,-100.0,3.270281,25.177641,8.19746,294.64032,289.355042,-0.037991,-0.039269,19.542484,-0.006094,0.059997,0.160399,0.0,1.0,2397.963623
54.868122,-96.349319,-95.155876,3.011391,0.426246,3.011391,0.426246,-99.999855,-100.0,3.296886,25.610712,8.826583,294.622681,289.354767,-0.034588,-0.038409,18.924185,-0.006098,0.060076,0.161145,0.0,1.0,2401.527344
55.656704,-96.309982,-95.116531,3.020114,0.426082,3.020114,0.426082,-99.999855,-100.0,3.340944,26.291103,9.024042,294.588104,289.294952,-0.03029,-0.038295,13.274547,-0.006089,0.060228,0.162404,0.0,1.0,2407.107666
56.224735,-96.280617,-95.087166,3.031743,0.426024,3.031743,0.426024,-99.999855,-100.0,3.37583,26.784349,9.846203,294.558624,289.208832,-0.029203,-0.038913,18.743769,-0.006085,0.060361,0.163608,0.0,1.0,2411.140381
57.010822,-96.238159,-95.044716,3.037178,0.426663,3.037178,0.426663,-99.999855,-100.0,3.425404,27.469763,9.981594,294.51123,289.034119,-0.027318,-0.040669,20.654978,-0.006086,0.060635,0.165607,0.0,1.0,2416.727783
57.534618,-96.208839,-95.015396,3.040066,0.426852,3.040066,0.426852,-99.999855,-100.0,3.458847,27.928234,10.080776,294.477814,288.88446,-0.026682,-0.041968,16.51129,-0.006093,0.060711,0.167026,0.0,1.0,2420.456055
58.319206,-96.163536,-94.970093,3.046296,0.427529,3.046296,0.427529,-89.999855,-90.0,3.509857,28.618151,10.526475,294.427277,288.61499,-0.025927,-0.043688,13.822339,-0.006098,0.060801,0.169647,0.0,1.0,2426.053467
58.797134,-96.135033,-94.941582,3.053682,0.431654,3.053682,0.431654,-89.999855,-90.0,3.54287,29.041019,10.908899,294.399445,288.4263,-0.025673,-0.044049,14.311388,-0.006099,0.060865,0.171286,0.0,1.0,2429.475586
59.577969,-96.086861,-94.893417,3.059312,0.430082,3.059312,0.430082,-89.999855,-90.0,3.597802,29.734961,11.060067,294.358917,288.083282,-0.023664,-0.043947,15.093061,-0.006166,0.061074,0.173566,0.0,1.0,2435.075928
60.140671,-96.051033,-94.85759,3.062624,0.42818,3.062624,0.42818,-89.999855,-90.0,3.637956,30.23761,11.175126,294.335938,287.812836,-0.021229,-0.042891,15.57365,-0.006154,0.061158,0.175018,0.0,1.0,2439.12085
60.917923,-96.00013,-94.806686,3.067758,0.425027,3.067758,0.425027,-89.999855,-90.0,3.694255,30.935535,11.339525,294.311859,287.413269,-0.015833,-0.040432,16.193577,-0.006117,0.061252,0.176741,0.0,1.0,2444.735107
61.434975,-95.965446,-94.772003,3.071217,0.422474,3.071217,0.422474,-89.999855,-90.0,3.732245,31.402035,11.449526,294.300323,287.134338,-0.011,-0.038296,16.568493,-0.00609,0.061318,0.177563,0.0,1.0,2448.524658
62.207676,-95.912056,-94.718613,3.087089,0.417601,3.087089,0.417601,-89.999855,-90.0,3.794157,32.103516,12.825511,294.286957,286.703125,-0.00231,-0.034904,17.467079,-0.006035,0.061424,0.178522,0.0,1.0,2454.259521
62.70047,-95.876633,-94.683189,3.090625,0.414347,3.090625,0.414347,-89.999855,-90.0,3.835287,32.552731,12.921344,294.278839,286.422791,0.004492,-0.03296,23.161282,-0.005988,0.06166,0.178967,0.0,1.0,2457.942871
63.492821,-95.817719,-94.624275,3.094898,0.408533,3.094898,0.408533,-89.999855,-90.0,3.902131,33.277023,13.090666,294.262207,285.969879,0.015248,-0.030796,22.467438,-0.005919,0.061813,0.179596,0.0,1.0,2463.889404
63.985443,-95.780098,-94.586655,3.097565,0.404534,3.097565,0.404534,-89.999855,-90.0,3.944134,33.728249,13.202209,294.248779,285.690247,0.022481,-0.030114,17.209362,-0.005867,0.061869,0.180104,0.0,1.0,2467.596191
64.756065,-95.719818,-94.526375,3.102104,0.39753,3.102104,0.39753,-89.999855,-90.0,4.010604,34.435986,13.380709,294.222168,285.260559,0.033155,-0.030064,21.876717,-0.005779,0.061951,0.181099,0.0,1.0,2473.410889
65.285652,-95.67878,-94.485336,3.103708,0.420633,3.103708,0.420633,-89.999855,-90.0,4.0554,34.908833,13.494026,294.03421,284.982239,0.028361,-0.061234,19.554487,-0.005711,0.062015,0.0,0.0,1.0,2477.311279
66.154999,-95.614288,-94.420845,3.102238,0.420636,3.102238,0.420636,-89.999855,-90.0,4.127001,35.639511,14.297932,293.04422,284.565796,-0.017326,-0.212452,22.366173,-0.006009,0.062074,0.009834,0.0,1.0,2483.500732
66.709183,-95.573135,-94.379692,3.096361,0.386723,3.096361,0.386723,-89.999855,-90.0,4.172846,36.094791,14.403646,292.141083,284.310394,-0.078736,-0.34054,19.944862,-0.006114,0.062057,0.037822,0.0,1.0,2487.480957
67.595894,-95.505402,-94.311958,3.087524,0.307023,3.087524,0.307023,-89.999855,-90.0,4.247459,36.829037,14.642941,290.574829,283.892456,-0.203897,-0.542917,19.315012,-0.005525,0.061927,0.104491,0.0,1.0,2494.031982
68.140152,-95.462418,-94.268967,3.086067,0.248964,3.086067,0.248964,-89.999855,-90.0,4.294545,37.28669,14.832429,289.707764,283.621124,-0.291236,-0.629821,19.078127,-0.004838,0.061798,0.15571,0.0,1.0,2498.148193
69.002907,-95.391846,-94.198402,3.095087,0.167283,3.095087,0.167283,-89.999855,-90.0,4.371705,38.026714,15.279032,288.82251,283.156525,-0.39606,-0.671015,17.059412,-0.003557,0.061721,0.226157,0.0,1.0,2504.782471
69.560593,-95.345047,-94.151604,3.097971,0.109507,3.097971,0.109507,-89.999855,-90.0,4.424375,38.508888,16.257687,288.736969,282.835022,-0.436715,-0.616378,17.505783,-0.002785,0.061793,0.259566,0.0,1.0,2509.07666
70.378746,-95.274681,-94.081238,3.066717,0.008944,3.066717,0.008944,-89.999855,-90.0,4.504828,39.21389,16.548197,289.331238,282.344604,-0.432766,-0.434612,20.964867,-0.001564,0.061959,0.274696,0.0,1.0,2515.354492
70.911919,-95.225121,-94.031677,3.059319,-0.007383,3.059319,-0.007383,-89.999855,-90.0,4.558703,39.698666,15.773903,290.136902,282.003021,-0.382624,-0.262092,21.362799,-5.35E-4,0.061569,0.258612,0.0,1.0,2519.632568
71.634933,-95.149864,-93.956413,3.085257,0.186775,3.085257,0.186775,-89.999855,-90.0,4.639809,40.427513,17.57626,291.609924,281.504517,-0.252131,0.014822,25.27219,1.05E-4,0.061186,0.2047,0.0,1.0,2525.820313
72.062263,-95.100418,-93.906967,3.033457,0.582368,3.033457,0.582368,-89.999855,-90.0,4.699742,40.893906,19.672276,292.516479,281.207428,-0.147128,0.166339,21.395258,-0.001131,0.061652,0.153848,0.0,1.0,2529.564697
72.775749,-95.011505,-93.818062,2.715963,1.463085,2.715963,1.463085,-89.999855,-90.0,4.827917,41.66518,24.688078,293.556885,280.776062,-0.010267,0.316271,20.199997,-0.00832,0.060669,0.085721,0.0,1.0,2535.487061
73.224762,-94.954971,-93.761528,2.506941,1.924274,2.506941,1.924274,-89.999855,-90.0,4.899868,42.112072,22.373165,293.745758,280.569031,0.068627,0.324783,19.524797,-0.016479,0.057093,0.046959,0.0,1.0,2538.890381
74.049026,-94.856583,-93.663139,2.3604,2.302261,2.3604,2.302261,-89.999855,-90.0,5.002824,42.864525,17.849821,293.359589,280.299042,0.132485,0.219233,19.83812,-0.02749,0.050139,0.024257,0.0,1.0,2544.805664
74.633629,-94.791,-93.597557,2.433686,2.214132,2.433686,2.214132,-89.999855,-90.0,5.06055,43.373806,15.831316,292.720703,280.16925,0.140414,0.091075,19.31168,-0.032002,0.047434,0.032216,0.0,1.0,2548.991699
75.475975,-94.700127,-93.506683,2.65531,1.714229,2.65531,1.714229,-89.999855,-90.0,5.139189,44.108841,16.922115,291.584198,280.042999,0.129832,-0.110246,18.709452,-0.03163,0.048674,0.07551,0.0,1.0,2555.227539
76.260658,-94.614433,-93.42099,2.7586,0.846378,2.7586,0.846378,-89.999855,-90.0,5.249905,44.805153,30.69245,290.703003,279.97168,0.088145,-0.249553,19.647226,-0.027947,0.051343,0.110139,0.0,1.0,2561.240723
76.807327,-94.546112,-93.352669,2.763173,0.076512,2.763173,0.076512,-89.999855,-90.0,5.372001,45.297859,41.907436,290.397278,279.941925,0.052051,-0.288152,22.623238,-0.016679,0.054834,0.164369,0.0,1.0,2565.525635
77.627434,-94.414742,-93.221298,2.814494,-1.023042,2.814494,-1.023042,-89.999855,-90.0,5.630505,46.058983,58.713081,290.602203,279.926514,0.017233,-0.232569,29.856169,-0.001093,0.055263,0.191681,0.0,1.0,2572.150391
78.143814,-94.301483,-93.10804,2.944999,-1.449347,2.944999,-1.449347,-89.999855,-90.0,5.86052,46.573864,74.014755,291.147308,279.93927,0.016216,-0.129303,36.349739,0.010136,0.055628,0.189217,0.0,1.0,2576.569824
78.784103,-94.096359,-92.902916,3.222228,-1.412328,3.222228,-1.412328,-89.999855,-90.0,6.293657,47.294506,105.153809,292.168213,279.993988,0.049831,0.050061,48.66169,0.017916,0.057238,0.171037,0.0,1.0,2582.509766
79.169945,-93.912636,-92.719193,3.406911,-0.971219,3.406911,-0.971219,-89.999855,-90.0,6.690762,47.787834,132.316833,292.822937,280.058624,0.092772,0.158414,60.18898,0.021559,0.06239,0.121213,0.0,1.0,2586.337646
79.696747,-93.560524,-92.367081,3.591085,0.072167,3.591085,0.072167,-89.999855,-90.0,7.436151,48.504982,172.858231,293.38562,280.192078,0.160497,0.243301,81.521027,0.013875,0.068138,0.070398,0.0,1.0,2591.577637
80.084099,-93.236374,-92.042931,3.63877,0.849802,3.63877,0.849802,-89.999855,-90.0,8.082081,49.015079,197.090805,293.366547,280.3125,0.196247,0.229963,98.79792,0.004038,0.071002,0.047685,0.0,1.0,2595.174072
80.483597,-92.846962,-91.653519,3.66377,1.434922,3.66377,1.434922,-89.999855,-90.0,8.800464,49.523239,215.1409,293.012939,280.448547,0.213511,0.16101,117.137047,-0.007442,0.072479,0.040511,0.0,1.0,2598.639893
81.05706,-92.191002,-90.997551,3.723061,1.718288,3.723061,1.718288,-89.999855,-90.0,9.896395,50.231529,234.377823,292.177673,280.65271,0.197844,0.013128,142.209457,-0.020499,0.073275,0.060898,0.0,1.0,2602.645996
81.444939,-91.672462,-90.479019,3.776837,1.476894,3.776837,1.476894,-89.999855,-90.0,10.697265,50.715218,245.520355,291.600983,280.792847,0.164243,-0.084619,158.293152,-0.024407,0.073979,0.087329,0.0,1.0,2604.957275
82.03437,-90.77224,-89.578796,3.861399,0.629229,3.861399,0.629229,-89.999855,-90.0,12.003481,51.45779,262.495483,291.049988,280.995331,0.10226,-0.172371,181.300323,-0.021098,0.075537,0.131496,0.0,1.0,2608.060303
82.556694,-89.84343,-88.649986,3.94086,-0.263863,3.94086,-0.263863,-89.999855,-90.0,13.281673,52.13649,278.460327,291.156433,281.159058,0.05447,-0.147413,201.290512,-0.013869,0.07668,0.152866,0.0,1.0,2610.577393
82.910004,-89.102783,-87.90934,4.029411,-0.714659,4.029411,-0.714659,-89.999855,-90.0,14.271366,52.632851,291.301178,291.585114,281.265839,0.045396,-0.071879,215.292252,2.36E-4,0.078266,0.158472,0.0,1.0,2612.276611
83.352631,-87.948357,-86.754913,4.209635,-0.808102,4.209635,-0.808102,-89.999855,-90.0,15.788686,53.342606,316.685699,292.477875,281.404602,0.06952,0.076617,235.471176,0.010209,0.080588,0.132289,0.0,1.0,2614.513916
83.616592,-87.085281,-85.891838,4.338683,-0.455138,4.338683,-0.455138,-89.999855,-90.0,16.928919,53.831333,339.6875,293.043976,281.494263,0.104668,0.165823,249.643005,0.012317,0.082825,0.104306,0.0,1.0,2615.92334
83.957802,-85.778786,-84.585342,4.4927,0.373227,4.4927,0.373227,-89.999855,-90.0,18.669542,54.508919,375.342499,293.456329,281.61319,0.160706,0.221835,271.700348,0.009854,0.085361,0.074236,0.0,1.0,2617.729004
84.206825,-84.770622,-83.577171,4.573179,0.971033,4.573179,0.971033,-79.999855,-80.0,20.014343,54.987854,397.44873,293.399902,281.691742,0.188903,0.201086,288.638123,-9.55E-4,0.088852,0.042732,0.0,1.0,2618.938721
84.567932,-83.29306,-82.099617,4.621028,1.456503,4.621028,1.456503,-79.999855,-80.0,21.944906,55.632496,417.429657,292.896851,281.783447,0.198958,0.103116,312.808472,-0.009992,0.090817,0.03822,0.0,1.0,2620.536621
84.844513,-82.13488,-80.941437,4.63458,1.457341,4.63458,1.457341,-79.999855,-80.0,23.411795,56.101833,426.688232,292.374847,281.834137,0.17984,0.009334,329.948181,-0.019326,0.092206,0.056506,0.0,1.0,2621.698975
85.096436,-81.01783,-79.824379,4.644754,1.18907,4.644754,1.18907,-79.999855,-80.0,24.786154,56.530357,433.316528,291.923431,281.864227,0.146878,-0.068851,345.262207,-0.020819,0.092692,0.092802,0.0,1.0,2622.764404
85.520454,-79.078796,-77.885353,4.676644,0.370808,4.676644,0.370808,-79.999855,-80.0,27.100424,57.231781,443.585175,291.556366,281.873657,0.088996,-0.129062,368.278839,-0.016987,0.092895,0.115373,0.0,1.0,2624.514648
85.911873,-77.147926,-75.954483,4.749872,-0.387815,4.749872,-0.387815,-79.999855,-80.0,29.348761,57.888618,456.086151,291.805908,281.835663,0.0518,-0.084208,387.414337,-0.009353,0.093262,0.131303,0.0,1.0,2626.151855
86.138603,-75.812538,-74.619095,4.830485,-0.662334,4.830485,-0.662334,-79.999855,-80.0,30.887873,58.322025,467.352234,292.228912,281.788361,0.050402,-0.013117,399.433319,0.002063,0.094326,0.128984,0.0,1.0,2627.214111
86.434196,-73.741173,-72.547729,4.976066,-0.548621,4.976066,-0.548621,-69.999855,-70.0,33.278454,58.964657,489.140747,292.97287,281.69278,0.079022,0.107275,416.526611,0.007835,0.09569,0.112453,0.0,1.0,2628.723145
86.602921,-72.311348,-71.117905,5.065352,-0.180852,5.065352,-0.180852,-69.999855,-70.0,34.938675,59.387665,506.381927,293.361694,281.617279,0.113707,0.165626,428.036469,0.009312,0.098499,0.075046,0.0,1.0,2629.659424
86.855286,-70.086128,-68.892685,5.142958,0.556291,5.142958,0.556291,-69.999855,-70.0,37.536396,60.01363,531.389038,293.523956,281.491028,0.160431,0.179708,446.170441,0.005562,0.100502,0.052019,0.0,1.0,2630.980469
87.036423,-68.54599,-67.352547,5.174945,0.963404,5.174945,0.963404,-69.999855,-70.0,39.333851,60.425266,546.07312,293.337677,281.398376,0.176848,0.139562,458.879547,-0.004401,0.102434,0.034984,0.0,1.0,2631.833496
87.327446,-66.149818,-64.956375,5.211493,1.162956,5.211493,1.162956,-69.999855,-70.0,42.111389,61.034637,563.557922,292.75708,281.243164,0.1694,0.031933,478.456879,-0.011168,0.103228,0.038602,0.0,1.0,2633.11084
87.527748,-64.497009,-63.303562,5.240951,0.984754,5.240951,0.984754,-59.999859,-60.0,44.006882,61.435829,573.139893,292.334381,281.125763,0.142566,-0.042037,491.470886,-0.016525,0.103962,0.062836,0.0,1.0,2633.969971
87.831718,-61.940266,-60.746822,5.288472,0.361655,5.288472,0.361655,-59.999859,-60.0,46.907341,62.030479,586.734009,291.936005,280.924591,0.091161,-0.108762,510.40741,-0.014068,0.104819,0.094826,0.0,1.0,2635.269287
88.032021,-60.187088,-58.993641,5.32613,-0.119608,5.32613,-0.119608,-59.999859,-60.0,48.879475,62.422222,596.239563,291.947479,280.773529,0.061153,-0.104768,522.515686,-0.00857,0.105456,0.110579,0.0,1.0,2636.139404
88.307693,-57.487564,-56.294117,5.422644,-0.631491,5.422644,-0.631491,-59.999859,-60.0,51.901669,63.00256,612.817078,292.357819,280.526123,0.044084,-0.034168,539.97345,0.001709,0.106523,0.114171,0.0,1.0,2637.43042
88.45665,-55.722118,-54.528675,5.504268,-0.68685,5.504268,-0.68685,-59.999859,-60.0,53.880199,63.368469,625.627258,292.759186,280.359375,0.054232,0.032513,550.577393,0.007314,0.107709,0.102599,0.0,1.0,2638.226563
88.651276,-52.804813,-51.611366,5.643156,-0.341384,5.643156,-0.341384,-49.999859,-50.0,57.157688,63.948486,649.912476,293.352356,280.085876,0.092024,0.126094,568.171753,0.009812,0.110085,0.073586,0.0,1.0,2639.426758
88.766068,-50.858677,-49.665234,5.704886,0.070879,5.704886,0.070879,-49.999859,-50.0,59.352932,64.318748,666.372498,293.538116,279.909088,0.122865,0.150804,580.027466,0.007231,0.112053,0.052078,0.0,1.0,2640.150635
88.947922,-47.855236,-46.661793,5.765855,0.66468,5.765855,0.66468,-49.999859,-50.0,62.743515,64.86525,688.613708,293.424835,279.647766,0.152913,0.121375,598.624207,-0.001013,0.114098,0.034639,0.0,1.0,2641.187256
89.082169,-45.797504,-44.604061,5.789535,0.869487,5.789535,0.869487,-49.999859,-50.0,65.060547,65.223846,700.66272,293.127869,279.475555,0.155172,0.065506,611.277649,-0.006828,0.114985,0.035554,0.0,1.0,2641.867676
89.295753,-42.629173,-41.43573,5.82759,0.778163,5.82759,0.778163,-39.999859,-40.0,68.602318,65.7537,715.150513,292.568268,279.216766,0.129428,-0.032925,630.346436,-0.012421,0.115791,0.055151,0.0,1.0,2642.894531
89.442795,-40.465553,-39.27211,5.852443,0.465846,5.852443,0.465846,-39.999859,-40.0,71.000931,66.101868,723.549255,292.290649,279.041748,0.099533,-0.079681,642.826538,-0.012384,0.116303,0.074075,0.0,1.0,2643.586914
89.663467,-37.148891,-35.955448,5.902227,-0.145453,5.902227,-0.145453,-39.999859,-40.0,74.650421,66.616783,736.048096,292.196014,278.774261,0.058539,-0.093264,660.860229,-0.006655,0.117049,0.097012,0.0,1.0,2644.634277
89.801422,-34.893078,-33.699631,5.94963,-0.472099,5.94963,-0.472099,-29.999857,-30.0,77.119507,66.955132,745.163635,292.378937,278.594208,0.043323,-0.060563,672.364075,-8.08E-4,0.117676,0.102707,0.0,1.0,2645.330322
89.974358,-31.444782,-30.251339,6.053721,-0.640442,6.053721,-0.640442,-29.999857,-30.0,80.885658,67.45488,761.46051,292.887634,278.327515,0.049585,0.02485,688.960571,0.006744,0.118993,0.092598,0.0,1.0,2646.342529
90.064842,-29.102591,-27.909145,6.125053,-0.482943,6.125053,-0.482943,-29.999857,-30.0,83.445595,67.782555,774.099976,293.232758,278.156281,0.070638,0.080469,699.766907,0.009145,0.120341,0.076379,0.0,1.0,2646.978027
90.180779,-25.52154,-24.328094,6.215684,0.012845,6.215684,0.012845,-29.999857,-30.0,87.367714,68.265442,794.262146,293.538666,277.915131,0.109942,0.124989,715.956299,0.006899,0.122501,0.049907,0.0,1.0,2647.862061
90.26088,-23.087065,-21.89362,6.246614,0.370979,6.246614,0.370979,-19.999857,-20.0,90.0373,68.581543,806.614807,293.51297,277.766571,0.131462,0.114866,726.891418,0.002462,0.123834,0.037599,0.0,1.0,2648.417236
90.397675,-19.363775,-18.170332,6.276703,0.704701,6.276703,0.704701,-19.999857,-20.0,94.11013,69.047272,821.41626,293.172577,277.561249,0.139355,0.050644,743.488831,-0.0053,0.124932,0.035896,0.0,1.0,2649.232178
90.498901,-16.835432,-15.641987,6.290133,0.685677,6.290133,0.685677,-19.999857,-20.0,96.861771,69.35244,828.958801,292.851929,277.433929,0.126765,-0.006081,754.519043,-0.009116,0.125375,0.045735,0.0,1.0,2649.777344
90.663155,-12.982459,-11.789014,6.313315,0.337447,6.313315,0.337447,-9.999858,-10.0,101.030846,69.802788,838.18988,292.458313,277.253174,0.091032,-0.072596,770.379395,-0.009795,0.125803,0.068948,0.0,1.0,2650.60791
90.765831,-10.483476,-9.290031,6.332391,0.004646,6.332391,0.004646,-9.999858,-10.0,103.717674,70.086037,843.764648,292.37619,277.142609,0.065131,-0.084865,780.188782,-0.007143,0.126093,0.083002,0.0,1.0,2651.139893
90.926109,-6.404397,-5.210953,6.386381,-0.460616,6.386381,-0.460616,-9.999858,-10.0,108.079361,70.534409,853.846924,292.565979,276.973328,0.043163,-0.050544,795.444214,-6.6E-5,0.126648,0.092735,0.0,1.0,2651.976074
91.012909,-3.838411,-2.644967,6.434269,-0.575109,6.434269,-0.575109,1.42E-4,0.0,110.819275,70.808449,861.414368,292.832977,276.875305,0.044704,-0.005002,804.247192,0.004845,0.127313,0.088335,0.0,1.0,2652.474854
91.107147,0.298542,1.491986,6.521967,-0.429611,6.521967,-0.429611,1.42E-4,0.0,115.161873,71.229805,875.690186,293.28833,276.737701,0.068815,0.069223,817.643188,0.008216,0.128685,0.069896,0.0,1.0,2653.200928
91.166397,3.178875,4.37232,6.566794,-0.153488,6.566794,-0.153488,1.42E-4,0.0,118.098831,71.505363,885.997314,293.481659,276.659088,0.092844,0.098151,826.349487,0.007463,0.129886,0.054129,0.0,1.0,2653.642822
91.247963,7.680668,8.874113,6.613079,0.328876,6.613079,0.328876,10.000142,10.0,122.691856,71.921715,900.82074,293.487213,276.560028,0.121123,0.092396,839.899658,0.002193,0.131336,0.037462,0.0,1.0,2654.273682
91.311859,10.639274,11.832718,6.623739,0.531556,6.623739,0.531556,10.000142,10.0,125.70858,72.18644,908.534729,293.302368,276.509155,0.127814,0.057144,848.665955,-0.002625,0.132056,0.035158,0.0,1.0,2654.667236
91.422691,15.132574,16.326017,6.633959,0.545943,6.633959,0.545943,10.000142,10.0,130.273819,72.576157,916.823792,292.89093,276.448395,0.113984,-0.015321,861.691833,-0.007594,0.132475,0.046426,0.0,1.0,2655.258789
91.503792,18.162252,19.355698,6.64064,0.351288,6.64064,0.351288,20.000143,20.0,133.337372,72.83136,921.013489,292.657684,276.415314,0.092713,-0.054709,870.137512,-0.008377,0.132619,0.060002,0.0,1.0,2655.660889
91.629921,22.752338,23.945784,6.659832,-0.088924,6.659832,-0.088924,20.000143,20.0,137.957413,73.207611,926.899658,292.527374,276.373077,0.059866,-0.074699,882.209839,-0.005018,0.132813,0.078661,0.0,1.0,2656.2771
91.709923,25.83992,27.033363,6.68383,-0.350152,6.68383,-0.350152,30.000143,30.0,141.054657,73.454124,931.375,292.6297,276.349182,0.045521,-0.055666,889.792297,-8.98E-4,0.133036,0.084883,0.0,1.0,2656.691895
91.808578,30.509661,31.703104,6.743152,-0.521311,6.743152,-0.521311,30.000143,30.0,145.732773,73.817207,940.085266,292.985168,276.321289,0.046452,0.004849,900.505554,0.005002,0.133677,0.08006,0.0,1.0,2657.299072
91.85688,33.648205,34.841648,6.787195,-0.431039,6.787195,-0.431039,30.000143,30.0,148.878693,74.054619,947.293396,293.146179,276.309784,0.061075,0.047821,907.315308,0.007218,0.13443,0.06898,0.0,1.0,2657.680176
91.91246,38.395828,39.589275,6.845051,-0.082017,6.845051,-0.082017,40.000141,40.0,153.645721,74.403473,959.296021,293.285156,276.305695,0.090397,0.087314,917.286194,0.006158,0.135744,0.054236,0.0,1.0,2658.204834
91.948624,41.588943,42.782387,6.864297,0.189912,6.864297,0.189912,40.000141,40.0,156.856705,74.631157,966.756042,293.298309,276.312073,0.107234,0.087028,923.90387,0.003094,0.136593,0.048875,0.0,1.0,2658.52832
92.012711,46.421738,47.615181,6.879702,0.482591,6.879702,0.482591,50.000141,50.0,161.714294,74.965584,975.585022,293.210388,276.333557,0.117243,0.052297,933.860291,-0.002713,0.137286,0.046629,0.0,1.0,2658.994873
92.063507,49.671539,50.864983,6.883752,0.521087,6.883752,0.521087,50.000141,50.0,164.97403,75.184036,979.866272,293.11142,276.353607,0.112529,0.01677,940.462524,-0.005904,0.137528,0.048991,0.0,1.0,2659.304688
92.149818,54.584705,55.778149,6.890716,0.356322,6.890716,0.356322,50.000141,50.0,169.886078,75.505417,984.597046,292.970459,276.38797,0.093213,-0.031704,950.125488,-0.007444,0.137675,0.055974,0.0,1.0,2659.779053
92.211365,57.883209,59.076656,6.897999,0.145892,6.897999,0.145892,60.000141,60.0,173.172775,75.715691,987.291809,292.917084,276.411499,0.077204,-0.049151,956.295776,-0.006256,0.137762,0.060957,0.0,1.0,2660.103516
92.302551,62.861485,64.054924,6.918834,-0.182653,6.918834,-0.182653,60.000141,60.0,178.120239,76.025284,991.71814,292.920868,276.445557,0.059201,-0.04634,965.02478,-0.002084,0.13796,0.065691,0.0,1.0,2660.598877
92.357552,66.199005,67.392448,6.940253,-0.324768,6.940253,-0.324768,70.000145,70.0,181.432068,76.227798,995.334167,292.972534,276.467316,0.054591,-0.02769,970.484436,0.001187,0.13821,0.066122,0.0,1.0,2660.928467
92.425148,71.232101,72.425545,6.982648,-0.368083,6.982648,-0.368083,70.000145,70.0,186.425598,76.525597,1002.175232,293.083771,276.499451,0.060008,0.010549,978.216675,0.00464,0.138805,0.062918,0.0,1.0,2661.407471
92.460861,74.605621,75.799065,7.008604,-0.279589,7.008604,-0.279589,70.000145,70.0,189.775269,76.720055,1007.423157,293.150787,276.521362,0.069591,0.032699,983.156738,0.005424,0.139369,0.059259,0.0,1.0,2661.709961
92.506943,79.694397,80.88784,7.041239,-0.053253,7.041239,-0.053253,80.000145,80.0,194.833084,77.005524,1015.456665,293.204926,276.555786,0.085312,0.048644,990.405579,0.003994,0.140172,0.054005,0.0,1.0,2662.135986
92.537338,83.105591,84.299042,7.053208,0.095941,7.053208,0.095941,80.000145,80.0,198.226547,77.191727,1020.28302,293.201172,276.57959,0.093063,0.044843,995.142883,0.001911,0.14065,0.05181,0.0,1.0,2662.405029
92.587791,88.253868,89.447319,7.065747,0.235417,7.065747,0.235417,90.000145,90.0,203.343735,77.465057,1026.189697,293.148682,276.615173,0.095953,0.023046,1002.318909,-0.001371,0.141064,0.051486,0.0,1.0,2662.797852
92.625267,91.705109,92.898552,7.070972,0.238443,7.070972,0.238443,90.000145,90.0,206.769974,77.643456,1029.321167,293.100098,276.637512,0.092024,0.004144,1007.035767,-0.002946,0.141249,0.053014,0.0,1.0,2663.057861
92.685944,96.908447,98.101891,7.08007,0.131544,7.08007,0.131544,100.000145,100.0,211.926834,77.905579,1033.221069,293.039246,276.666595,0.08091,-0.018737,1013.920593,-0.003406,0.141419,0.05654,0.0,1.0,2663.450684
92.727501,100.393555,101.586998,7.087924,0.018674,7.087924,0.018674,100.000145,100.0,215.375122,78.076805,1035.643433,293.021454,276.682098,0.072824,-0.02511,1018.333313,-0.002562,0.141537,0.058751,0.0,1.0,2663.715332
92.78717,105.643387,106.83683,7.10608,-0.13975,7.10608,-0.13975,110.000145,110.0,220.563156,78.328453,1039.554688,293.034882,276.69873,0.064896,-0.0198,1024.638916,-2.67E-4,0.141758,0.060472,0.0,1.0,2664.112549
92.822845,109.157219,110.350662,7.121376,-0.196673,7.121376,-0.196673,110.000145,110.0,224.033432,78.492767,1042.526855,293.064514,276.705566,0.063772,-0.00869,1028.63623,0.001348,0.141987,0.060272,0.0,1.0,2664.374268
92.868309,114.448311,115.641754,7.148378,-0.191951,7.148378,-0.191951,110.000145,110.0,229.258896,78.734024,1047.638306,293.119049,276.710419,0.068059,0.010968,1034.372681,0.00281,0.142428,0.058319,0.0,1.0,2664.754639
92.894073,117.98938,119.182823,7.163983,-0.133723,7.163983,-0.133723,120.000145,120.0,232.757324,78.891357,1051.256592,293.148468,276.710602,0.073439,0.020992,1038.069702,0.002947,0.142794,0.056485,0.0,1.0,2664.997803
92.929245,123.32193,124.515373,7.184396,-0.011282,7.184396,-0.011282,120.000145,120.0,238.027374,79.122108,1056.572876,293.168152,276.707031,0.081223,0.026258,1043.496582,0.00191,0.14328,0.054121,0.0,1.0,2665.34668
92.952568,126.891068,128.084503,7.192944,0.059989,7.192944,0.059989,130.000137,130.0,241.554962,79.272491,1059.762817,293.162933,276.702179,0.084512,0.022582,1047.060791,7.52E-4,0.143574,0.053276,0.0,1.0,2665.571289
92.989693,132.265579,133.459015,7.203283,0.115808,7.203283,0.115808,130.000137,130.0,246.864487,79.493057,1063.813354,293.136169,276.690826,0.084815,0.010125,1052.327637,-8.57E-4,0.143859,0.053398,0.0,1.0,2665.901123
93.016212,135.861877,137.055328,7.208329,0.106543,7.208329,0.106543,140.000137,140.0,250.414581,79.636856,1066.085205,293.114624,276.680145,0.082214,6.55E-4,1055.766357,-0.001523,0.144007,0.054211,0.0,1.0,2666.119141
93.057709,141.274872,142.468323,7.217133,0.041513,7.217133,0.041513,140.000137,140.0,255.752838,79.84787,1069.092407,293.090942,276.658875,0.076287,-0.009577,1060.768188,-0.001522,0.144167,0.055814,0.0,1.0,2666.446289
93.085258,144.89386,146.087311,7.223993,-0.016574,7.223993,-0.016574,140.000137,140.0,259.319824,79.985497,1071.019531,293.086609,276.641083,0.072421,-0.011602,1063.912598,-9.73E-4,0.144282,0.056702,0.0,1.0,2666.664551
93.124382,150.339233,151.532684,7.237793,-0.090294,7.237793,-0.090294,150.000137,150.0,264.682648,80.187454,1074.075928,293.097839,276.609375,0.069111,-0.007538,1068.488159,2.37E-4,0.14448,0.057214,0.0,1.0,2666.989746
93.148232,153.979279,155.172729,7.24796,-0.111821,7.24796,-0.111821,150.000137,150.0,268.266724,80.319115,1076.284302,293.113373,276.585297,0.069048,-0.001656,1071.384644,0.001005,0.144659,0.056943,0.0,1.0,2667.203369
93.179375,159.456161,160.649597,7.264796,-0.099522,7.264796,-0.099522,160.000137,160.0,273.657196,80.512154,1079.861084,293.138855,276.545807,0.071649,0.00764,1075.671875,0.001597,0.144959,0.055876,0.0,1.0,2667.515625
93.198082,163.117111,164.310562,7.274254,-0.066991,7.274254,-0.066991,160.000137,160.0,277.260986,80.637901,1082.287231,293.151428,276.517853,0.074358,0.0118,1078.420776,0.001565,0.14519,0.055003,0.0,1.0,2667.717529
93.224449,168.623169,169.81662,7.287085,-0.006667,7.287085,-0.006667,170.000137,170.0,282.681488,80.822136,1085.784302,293.158569,276.474274,0.077879,0.013007,1082.422119,9.57E-4,0.145485,0.053973,0.0,1.0,2668.011719
93.24192,172.303558,173.496994,7.293023,0.024784,7.293023,0.024784,170.000137,170.0,286.304535,80.942101,1087.901733,293.155457,276.444427,0.079118,0.010467,1085.022705,3.74E-4,0.145668,0.05365,0.0,1.0,2668.202881
93.268982,177.838242,179.031693,7.300974,0.044398,7.300974,0.044398,180.000137,180.0,291.751343,81.117859,1090.691284,293.143585,276.398651,0.078713,0.00387,1088.82605,-3.54E-4,0.14586,0.053772,0.0,1.0,2668.485596
93.287704,181.537048,182.730484,7.305274,0.035179,7.305274,0.035179,180.000137,180.0,295.389893,81.232323,1092.333008,293.134979,276.367554,0.077191,-6.63E-4,1091.289063,-6.08E-4,0.145972,0.054143,0.0,1.0,2668.672607
93.316193,187.097885,188.291321,7.312675,-6.97E-4,7.312675,-6.97E-4,190.000137,190.0,300.857452,81.400055,1094.603027,293.126953,276.32019,0.074198,-0.005109,1094.856445,-5.03E-4,0.146105,0.054796,0.0,1.0,2668.951904
93.334846,190.810699,192.004135,7.317985,-0.029029,7.317985,-0.029029,190.000137,190.0,304.508698,81.5093,1096.078369,293.126831,276.2883,0.072418,-0.005689,1097.019653,-1.87E-4,0.146204,0.05511,0.0,1.0,2669.137207
93.361183,196.395157,197.588608,7.327805,-0.062075,7.327805,-0.062075,200.000137,200.0,309.994904,81.669365,1098.351807,293.134033,276.24054,0.07106,-0.003367,1100.365112,4.15E-4,0.14636,0.055203,0.0,1.0,2669.412842
93.377563,200.125183,201.318619,7.334754,-0.069839,7.334754,-0.069839,200.000137,200.0,313.658752,81.773567,1099.898193,293.141785,276.209106,0.071184,-5.69E-4,1102.490112,7.66E-4,0.146489,0.055003,0.0,1.0,2669.594238
93.399841,205.730438,206.923889,7.346015,-0.060748,7.346015,-0.060748,210.000137,210.0,319.164429,81.926155,1102.325195,293.153473,276.163361,0.072519,0.003463,1105.540894,9.98E-4,0.146695,0.054456,0.0,1.0,2669.861084
93.416527,209.469193,210.662628,7.352149,-0.044491,7.352149,-0.044491,210.000137,210.0,322.841675,82.025421,1103.935547,293.158936,276.134125,0.073756,0.005014,1107.241455,9.48E-4,0.14685,0.054051,0.0,1.0,2670.035156
93.432465,215.094742,216.288193,7.360514,-0.016947,7.360514,-0.016947,210.000137,210.0,328.36731,82.170715,1106.250977,293.161987,276.092651,0.075216,0.004937,1110.166504,6.36E-4,0.147043,0.053598,0.0,1.0,2670.291016
93.445343,218.85231,220.045746,7.364357,-0.003987,7.364357,-0.003987,220.000137,220.0,332.057373,82.265213,1107.696167,293.160767,276.066772,0.075618,0.003413,1112.078369,3.65E-4,0.147162,0.053461,0.0,1.0,2670.45874
93.465508,224.495468,225.688904,7.370742,-0.011268,7.370742,-0.011268,220.000137,220.0,337.600952,82.403458,1109.646362,293.176849,276.030792,0.065567,0.011278,1114.703613,1.9E-5,0.147287,0.1,0.0,1.0,2670.706299
93.46727,228.104095,229.297531,7.380567,-0.001434,7.380567,-0.001434,230.000137,230.0,341.147797,82.489563,1110.983398,293.230316,276.010101,0.064073,0.035035,1116.210693,1.7E-5,0.147362,0.1,0.0,1.0,2670.858154
93.452606,233.922455,235.115906,7.408926,0.16002,7.408926,0.16002,230.000137,230.0,346.865143,82.624298,1114.340088,293.357635,275.983368,0.077003,0.088499,1118.830688,7.0E-6,0.147611,0.1,0.0,1.0,2671.076904
93.432388,237.705978,238.899414,7.427444,0.375501,7.427444,0.375501,240.000137,240.0,350.584717,82.709068,1117.344482,293.443359,275.972321,0.092884,0.122082,1120.652466,-4.02E-4,0.147979,0.1,0.0,1.0,2671.194824
93.394745,243.390076,244.583527,7.446915,0.820464,7.446915,0.820464,240.000137,240.0,356.184052,82.832153,1122.252319,293.545105,275.968048,0.120134,0.156816,1123.278931,-0.001788,0.148549,0.1,0.0,1.0,2671.333008
93.363228,247.186615,248.380066,7.449846,1.147587,7.449846,1.147587,250.000137,250.0,359.929962,82.911499,1125.047485,293.586365,275.974457,0.136244,0.166025,1125.044067,-0.003151,0.148853,0.1,0.0,1.0,2671.404297
93.326668,252.899384,254.092819,7.447768,1.607617,7.447768,1.607617,250.000137,250.0,365.563019,83.026566,1127.824097,293.610596,275.998413,0.152119,0.161179,1128.066284,-0.005465,0.148997,0.1,0.0,1.0,2671.494385
93.309006,256.557251,257.750702,7.444149,1.842605,7.444149,1.842605,260.000153,260.0,369.16745,83.097748,1128.70813,293.610352,276.022339,0.15601,0.150466,1130.009888,-0.006974,0.148983,0.1,0.0,1.0,2671.549316
93.289169,262.457062,263.650482,7.436964,2.10589,7.436964,2.10589,260.000153,260.0,374.96875,83.208778,1128.862305,293.604828,276.073425,0.153292,0.131228,1133.272705,-0.008774,0.148883,0.1,0.0,1.0,2671.643311
93.280632,266.289276,267.482697,7.43226,2.203164,7.43226,2.203164,270.000153,270.0,378.730896,83.278694,1128.386841,293.608795,276.114044,0.147823,0.122558,1135.216064,-0.0097,0.148786,0.1,0.0,1.0,2671.710938
93.270935,272.043304,273.236755,7.424912,2.282331,7.424912,2.282331,270.000153,270.0,384.370087,83.380722,1127.281128,293.637634,276.185028,0.13864,0.12058,1137.831055,-0.010491,0.148645,0.1,0.0,1.0,2671.822266
93.26458,275.881592,277.075043,7.421148,2.31623,7.421148,2.31623,280.000153,280.0,388.126404,83.446938,1126.570313,293.673798,276.238892,0.134029,0.127032,1139.336914,-0.010772,0.148543,0.1,0.0,1.0,2671.901123
93.252251,281.639313,282.832764,7.41717,2.382306,7.41717,2.382306,280.000153,280.0,393.757202,83.543655,1125.853271,293.748596,276.330109,0.131568,0.145471,1141.170898,-0.01103,0.148423,0.1,0.0,1.0,2672.020996
93.24144,285.478912,286.672363,7.416094,2.451094,7.416094,2.451094,280.000153,280.0,397.509735,83.606407,1125.700684,293.806549,276.398376,0.133032,0.160592,1142.209229,-0.01122,0.148362,0.1,0.0,1.0,2672.099121
93.221405,291.238068,292.431519,7.415101,2.597963,7.415101,2.597963,290.000153,290.0,403.13855,83.697937,1125.892822,293.89502,276.513123,0.138599,0.182175,1143.459595,-0.011672,0.148322,0.1,0.0,1.0,2672.208984
93.206505,295.077362,296.270813,7.414344,2.716734,7.414344,2.716734,290.000153,290.0,406.891998,83.757248,1126.163818,293.950195,276.598328,0.143293,0.193458,1144.130981,-0.012114,0.148308,0.1,0.0,1.0,2672.277344
93.184074,300.836304,302.029755,7.412085,2.90638,7.412085,2.90638,300.000153,300.0,412.523804,83.843674,1126.50708,294.023071,276.739532,0.149636,0.204001,1144.961304,-0.012937,0.148287,0.1,0.0,1.0,2672.373291
93.170212,304.67572,305.869171,7.409785,3.024443,7.409785,3.024443,300.000153,300.0,416.278961,83.899666,1126.559204,294.065186,276.842529,0.152466,0.207033,1145.424316,-0.013542,0.14826,0.1,0.0,1.0,2672.434814
93.155197,310.432281,311.625732,7.405061,3.174657,7.405061,3.174657,310.000153,310.0,421.911163,83.981331,1126.247559,294.122162,277.009796,0.154009,0.207829,1145.87207,-0.014402,0.148196,0.1,0.0,1.0,2672.527588
93.150146,314.266632,315.460052,7.401527,3.250137,7.401527,3.250137,310.000153,310.0,425.664581,84.034309,1125.796265,294.158997,277.129333,0.153408,0.207479,1145.943848,-0.014902,0.148134,0.1,0.0,1.0,2672.591064
93.128433,320.027008,321.220459,7.395323,3.331966,7.395323,3.331966,320.000153,320.0,431.29126,84.11174,1124.850342,294.217224,277.319702,0.151074,0.208256,1146.514648,-0.015477,0.148031,0.1,0.0,1.0,2672.690918
93.120781,323.864807,325.058228,7.391381,3.370157,7.391381,3.370157,320.000153,320.0,435.03952,84.162064,1124.135376,294.259827,277.453583,0.149261,0.210527,1146.713867,-0.015755,0.147947,0.1,0.0,1.0,2672.760254
93.109634,329.618469,330.81189,7.38529,3.418061,7.38529,3.418061,330.000153,330.0,440.657471,84.235718,1123.079468,294.3302,277.664124,0.14724,0.216931,1146.832764,-0.016048,0.147828,0.1,0.0,1.0,2672.867676
93.101891,333.451935,334.645355,7.381949,3.450152,7.381949,3.450152,330.000153,330.0,444.399963,84.283638,1122.462646,294.380768,277.810699,0.146713,0.22274,1146.800049,-0.016203,0.147743,0.1,0.0,1.0,2672.94043
93.089386,339.198364,340.391785,7.377162,3.507203,7.377162,3.507203,340.000153,340.0,450.010284,84.35379,1121.712036,294.459656,278.039551,0.147261,0.232378,1146.605713,-0.016429,0.147639,0.1,0.0,1.0,2673.049805
93.080467,343.026764,344.220215,7.374614,3.551799,7.374614,3.551799,340.000153,340.0,453.748627,84.399445,1121.322021,294.512665,278.197845,0.148308,0.238529,1146.396973,-0.016604,0.147572,0.1,0.0,1.0,2673.12207
93.066658,348.765686,349.959137,7.370741,3.62653,7.370741,3.62653,350.000153,350.0,459.353973,84.466278,1120.835693,294.590546,278.443451,0.150307,0.246213,1145.996826,-0.016913,0.147492,0.1,0.0,1.0,2673.229492
93.057503,352.589294,353.782745,7.3684,3.677238,7.3684,3.677238,350.000153,350.0,463.089569,84.509766,1120.529541,294.640717,278.612213,0.151553,0.249984,1145.689331,-0.017148,0.147439,0.1,0.0,1.0,2673.300293
93.044388,358.32135,359.514801,7.364468,3.749333,7.364468,3.749333,360.000153,360.0,468.690948,84.573479,1120.020996,294.713257,278.872192,0.152841,0.253759,1145.188721,-0.017511,0.147368,0.1,0.0,1.0,2673.406494
93.03624,362.140564,363.333984,7.361887,3.790849,7.361887,3.790849,360.000153,360.0,472.423676,84.614975,1119.627441,294.760315,279.04953,0.15319,0.255359,1144.836548,-0.017745,0.147315,0.1,0.0,1.0,2673.477783
93.025024,367.866058,369.059509,7.357512,3.842362,7.357512,3.842362,370.000153,370.0,478.020111,84.675827,1118.938232,294.8302,279.320618,0.153035,0.257225,1144.286133,-0.018052,0.147238,0.1,0.0,1.0,2673.586426
93.017982,371.679688,372.873138,7.354806,3.869142,7.354806,3.869142,370.000153,370.0,481.749023,84.715508,1118.423706,294.877014,279.50415,0.152628,0.258537,1143.850464,-0.018223,0.147179,0.1,0.0,1.0,2673.660156
93.008186,377.398621,378.592072,7.350467,3.90186,7.350467,3.90186,380.000153,380.0,487.339111,84.773781,1117.630981,294.948364,279.782837,0.151916,0.261101,1143.279297,-0.018424,0.147096,0.1,0.0,1.0,2673.772461
93.001831,381.20874,382.402191,7.347811,3.920458,7.347811,3.920458,380.000153,380.0,491.06366,84.811829,1117.119629,294.996857,279.970367,0.151544,0.263275,1142.874512,-0.018532,0.147037,0.1,0.0,1.0,2673.848633
92.992264,386.920135,388.113586,7.343615,3.947764,7.343615,3.947764,390.000153,390.0,496.6474,84.867744,1116.403564,295.070648,280.253601,0.151336,0.267059,1142.235352,-0.018669,0.146956,0.1,0.0,1.0,2673.963867
92.985657,390.724091,391.917511,7.341102,3.966614,7.341102,3.966614,390.000153,390.0,500.367981,84.904282,1115.982422,295.120209,280.443329,0.151447,0.269706,1141.738647,-0.018755,0.146899,0.1,0.0,1.0,2674.04126
92.975891,396.428253,397.621674,7.337214,3.997136,7.337214,3.997136,400.000153,400.0,505.946411,84.958008,1115.407837,295.194336,280.728729,0.151905,0.273451,1141.084595,-0.018889,0.146822,0.1,0.0,1.0,2674.157471
92.969368,400.228546,401.421997,7.335027,4.018245,7.335027,4.018245,400.000153,400.0,509.663818,84.993141,1115.057251,295.243317,280.919189,0.152303,0.275604,1140.637329,-0.018985,0.146768,0.1,0.0,1.0,2674.235107
92.959831,405.925507,407.118958,7.331668,4.049985,7.331668,4.049985,410.000153,410.0,515.237854,85.044838,1114.55957,295.315735,281.20462,0.152868,0.278165,1139.960938,-0.019134,0.146701,0.1,0.0,1.0,2674.352051
92.960838,409.721222,410.914642,7.329655,4.068907,7.329655,4.068907,410.000153,410.0,518.952515,85.078659,1114.242676,295.363373,281.394409,0.152803,0.279488,1139.511475,-0.019236,0.146655,0.1,0.0,1.0,2674.433838
92.963432,415.408295,416.601746,7.326449,4.088,7.326449,4.088,410.000153,410.0,524.522522,85.128494,1113.791992,295.434998,281.677887,0.151833,0.281613,1138.702271,-0.019376,0.146593,0.1,0.0,1.0,2674.568115
92.966988,421.095673,422.289124,7.323512,4.097043,7.323512,4.097043,420.000153,420.0,530.090454,85.177299,1113.406616,295.50827,281.959442,0.150585,0.284715,1138.128784,-0.019443,0.146549,0.1,0.0,1.0,2674.712646
92.972336,424.88385,426.077301,7.321757,4.101013,7.321757,4.101013,420.000153,420.0,533.801453,85.20929,1113.203125,295.558289,282.145905,0.149944,0.287461,1137.669434,-0.019499,0.14649,0.1,0.0,1.0,2674.812988
92.974838,430.559753,431.753204,7.319923,4.108785,7.319923,4.108785,430.000153,430.0,539.367004,85.25647,1113.049438,295.634613,282.423737,0.149551,0.29228,1136.841919,-0.019519,0.146451,0.1,0.0,1.0,2674.966797
92.972931,434.346832,435.540283,7.318997,4.1171,7.318997,4.1171,430.000153,430.0,543.077148,85.287399,1113.044312,295.685822,282.607697,0.149674,0.295613,1136.594238,-0.019551,0.14641,0.1,0.0,1.0,2675.071045
92.974609,440.024872,441.218323,7.318218,4.134942,7.318218,4.134942,440.000153,440.0,548.642639,85.333023,1113.168213,295.762207,282.881836,0.150299,0.300173,1136.203247,-0.019584,0.146388,0.1,0.0,1.0,2675.228516
92.978439,443.807556,445.001007,7.317886,4.149615,7.317886,4.149615,440.000153,440.0,552.353394,85.362923,1113.307373,295.812347,283.063446,0.150846,0.302646,1135.87561,-0.019659,0.146369,0.1,0.0,1.0,2675.333496
92.979279,449.477478,450.670929,7.317635,4.172925,7.317635,4.172925,450.000153,450.0,557.920593,85.407028,1113.558594,295.885986,283.334137,0.151611,0.305309,1135.312622,-0.019724,0.14636,0.1,0.0,1.0,2675.490723
92.976128,453.260651,454.454102,7.317484,4.187709,7.317484,4.187709,450.000153,450.0,561.632751,85.435944,1113.730591,295.934052,283.513458,0.151932,0.306438,1135.21228,-0.019834,0.146354,0.1,0.0,1.0,2675.595947
92.97718,458.934235,460.127686,7.317231,4.206211,7.317231,4.206211,460.000153,460.0,567.202026,85.478607,1113.9646,296.004913,283.780792,0.152099,0.307455,1135.065186,-0.019907,0.146351,0.1,0.0,1.0,2675.753906
92.977966,462.716034,463.909485,7.317015,4.2157,7.317015,4.2157,460.000153,460.0,570.915527,85.506599,1114.100342,296.051605,283.957886,0.152002,0.307905,1134.978638,-0.020003,0.146347,0.1,0.0,1.0,2675.859619
92.98204,468.382263,469.575714,7.316646,4.225726,7.316646,4.225726,470.000153,470.0,576.48645,85.54792,1114.280029,296.121307,284.221893,0.151699,0.308579,1134.584839,-0.020054,0.146342,0.1,0.0,1.0,2676.018555
92.979439,472.164337,473.357758,7.316381,4.230497,7.316381,4.230497,470.000153,470.0,580.200928,85.575043,1114.39624,296.167694,284.396881,0.151453,0.309157,1134.636841,-0.020109,0.146336,0.1,0.0,1.0,2676.125
92.980637,477.836639,479.03009,7.316054,4.236298,7.316054,4.236298,480.000153,480.0,585.773376,85.615112,1114.580566,296.237274,284.657959,0.151179,0.310277,1134.691772,-0.020135,0.14633,0.1,0.0,1.0,2676.285156
92.98127,481.617798,482.811249,7.315892,4.24026,7.315892,4.24026,480.000153,480.0,589.488892,85.641426,1114.717407,296.2836,284.831177,0.151099,0.311149,1134.721313,-0.020164,0.146323,0.1,0.0,1.0,2676.391602
92.985062,487.287781,488.481232,7.315782,4.247267,7.315782,4.247267,490.000153,490.0,595.06311,85.680305,1114.951416,296.352783,285.090088,0.151157,0.312483,1134.692993,-0.020182,0.146319,0.1,0.0,1.0,2676.551514
92.98201,491.067566,492.261017,7.315767,4.252858,7.315767,4.252858,490.000153,490.0,598.779907,85.705841,1115.124756,296.39856,285.262146,0.151277,0.313286,1134.698242,-0.020213,0.146316,0.1,0.0,1.0,2676.657959
92.982277,496.738953,497.932404,7.315822,4.262177,7.315822,4.262177,500.000153,500.0,604.356201,85.743576,1115.399658,296.466492,285.519745,0.15152,0.314224,1134.814941,-0.020238,0.146315,0.1,0.0,1.0,2676.817139
92.982353,500.519775,501.713226,7.31588,4.268623,7.31588,4.268623,500.000153,500.0,608.074524,85.768364,1115.585938,296.51123,285.691284,0.151671,0.314638,1134.891602,-0.020281,0.146316,0.1,0.0,1.0,2676.922852
92.98558,506.188446,507.381897,7.315956,4.277718,7.315956,4.277718,510.000153,510.0,613.653198,85.805008,1115.856445,296.577484,285.948425,0.151836,0.31496,1134.873291,-0.020312,0.146317,0.1,0.0,1.0,2677.081299
92.982285,509.968475,511.161926,7.315986,4.283093,7.315986,4.283093,510.000153,510.0,617.373047,85.829086,1116.029541,296.621155,286.119904,0.151876,0.315023,1134.940796,-0.020356,0.146319,0.1,0.0,1.0,2677.186768
92.982178,515.640686,516.834167,7.315975,4.289676,7.315975,4.289676,520.000122,520.0,622.953796,85.864693,1116.27356,296.685974,286.37738,0.151856,0.314998,1135.160034,-0.020383,0.14632,0.1,0.0,1.0,2677.344971
92.982262,519.422119,520.615601,7.315949,4.293194,7.315949,4.293194,520.000122,520.0,626.674988,85.888107,1116.427368,296.728851,286.549286,0.151802,0.314962,1135.294434,-0.020417,0.14632,0.1,0.0,1.0,2677.450439
92.98233,525.094299,526.287781,7.315893,4.297438,7.315893,4.297438,520.000122,520.0,632.25769,85.922737,1116.650635,296.792694,286.807739,0.151711,0.314943,1135.485474,-0.020436,0.146319,0.1,0.0,1.0,2677.608643
92.985397,528.874512,530.067932,7.315853,4.29992,7.315853,4.29992,530.000122,530.0,635.980164,85.945518,1116.796875,296.834961,286.98053,0.151666,0.314967,1135.535522,-0.020458,0.146318,0.1,0.0,1.0,2677.713867
92.982094,534.547119,535.74054,7.315805,4.303527,7.315805,4.303527,530.000122,530.0,641.564697,85.979233,1117.020142,296.897919,287.240631,0.151638,0.315037,1135.750122,-0.02047,0.146317,0.1,0.0,1.0,2677.871826
92.981995,538.328857,539.522278,7.315784,4.306057,7.315784,4.306057,540.000122,540.0,645.288391,86.001404,1117.171143,296.939575,287.414734,0.15165,0.315083,1135.884277,-0.020487,0.146316,0.1,0.0,1.0,2677.976807
92.981735,544.001526,545.194946,7.315777,4.310102,7.315777,4.310102,540.000122,540.0,650.874817,86.034241,1117.401489,297.001465,287.677124,0.151708,0.315098,1136.077148,-0.020499,0.146316,0.1,0.0,1.0,2678.134521
