airspeed_indicator_indicated_speed_kt,altimeter_indicated_altitude_ft,altimeter_pressure_alt_ft,attitude_indicator_indicated_pitch_deg,attitude_indicator_indicated_roll_deg,attitude_indicator_internal_pitch_deg,attitude_indicator_internal_roll_deg,encoder_indicated_altitude_ft,encoder_pressure_alt_ft,gps_indicated_altitude_ft,gps_indicated_ground_speed_kt,gps_indicated_vertical_speed,indicated_heading_deg,magnetic_compass_indicated_heading_deg,slip_skid_ball_indicated_slip_skid,turn_indicator_indicated_turn_rate,vertical_speed_indicator_indicated_speed_fpm,flight_aileron,flight_elevator,flight_rudder,flight_flaps,engine_throttle,engine_rpm,
Command: takeoff
0.399526,-26.745668,-25.552225,3.071178,1.361469,2.716391,0.178843,-29.999857,-30.0,18.855347,4.0E-5,-2.34E-4,297.86554,14.568379,-0.046372,-0.035948,-16.18132,-0.0,0.0,0.0,0.0,0.0,607.021606,
0.361375,-26.746904,-25.553459,3.069171,1.354884,2.71635,0.178814,-29.999857,-30.0,18.855347,4.0E-5,-1.34E-4,297.864685,14.163896,-0.046363,-0.032521,-9.250053,-0.0,0.0,0.0,0.0,0.0,607.017822,
0.310881,-26.748348,-25.554905,2.885805,0.746877,2.715315,0.178575,-29.999857,-30.0,18.855345,3.8E-5,-0.002077,297.863434,13.566634,-0.046463,-0.027998,-16.714857,-0.019355,0.054327,4.3E-5,0.0,1.0,680.472473,
0.281831,-26.749098,-25.555655,2.768461,0.380792,2.707403,0.177267,-29.999857,-30.0,18.855322,6.0E-5,-0.012662,297.862488,13.179008,-0.046608,-0.025387,-6.233281,-0.01067,0.054306,1.05E-4,0.0,1.0,794.07782,
0.251899,-26.749996,-25.556553,2.651846,0.171776,2.651846,0.171776,-29.999857,-30.0,18.855124,4.77E-4,-0.06036,297.860687,12.620024,-0.047564,-0.022075,-12.625382,-0.00544,0.054148,1.53E-4,0.0,1.0,1018.844543,
0.254642,-26.750498,-25.557053,2.600781,0.165386,2.600781,0.165386,-29.999857,-30.0,18.855005,0.001866,-0.002881,297.859314,12.26567,-0.047545,-0.02021,-15.051664,-0.002454,0.053037,2.43E-4,0.0,1.0,1183.803833,
0.363251,-26.751068,-25.557623,2.573225,0.152237,2.573225,0.152237,-29.999857,-30.0,18.855322,0.007981,0.131573,297.857147,11.766589,-0.048294,-0.017831,-17.411688,-0.002363,0.052016,3.11E-4,0.0,1.0,1426.098145,
0.530508,-26.751274,-25.557829,2.575524,0.14234,2.575524,0.14234,-29.999857,-30.0,18.855894,0.01589,0.226199,297.855743,11.470581,-0.043955,-0.01654,-18.187166,-0.002175,0.051465,4.2E-4,0.0,1.0,1567.602661,
0.942849,-26.751253,-25.55781,2.592719,0.125334,2.592719,0.125334,-29.999857,-30.0,18.857519,0.038005,0.404063,297.851959,11.035878,-0.050996,-0.015,-18.114447,-0.002033,0.05151,4.9E-4,0.0,1.0,1763.434814,
1.289283,-26.750957,-25.557514,2.606697,0.114396,2.606697,0.114396,-29.999857,-30.0,18.859098,0.060076,0.535267,297.845886,10.783262,-0.056939,-0.014688,-16.982027,-0.00179,0.051854,6.79E-4,0.0,1.0,1867.800171,
1.903663,-26.75,-25.556557,2.626587,0.099465,2.626587,0.099465,-29.999857,-30.0,18.862364,0.106835,0.764179,297.832245,10.450304,-0.057657,-0.014979,-12.647906,-0.001634,0.052134,9.83E-4,0.0,1.0,1992.595703,
2.365207,-26.748962,-25.555519,2.63838,0.090766,2.63838,0.090766,-29.999857,-30.0,18.865204,0.148153,0.934339,297.818268,10.26006,-0.053006,-0.015887,-4.556315,-0.001421,0.052532,0.001665,0.0,1.0,2057.046143,
3.118233,-26.746708,-25.553263,2.652707,0.079898,2.652707,0.079898,-29.999857,-30.0,18.870564,0.226697,1.207366,297.791962,10.023363,-0.047113,-0.017864,16.792234,-0.001297,0.052768,0.002364,0.0,1.0,2130.593018,
3.651994,-26.744678,-25.551233,2.660535,0.074072,2.660535,0.074072,-29.999857,-30.0,18.874924,0.29065,1.402347,297.770996,9.898199,-0.043945,-0.019526,14.51,-0.001141,0.053054,0.003679,0.0,1.0,2167.074707,
4.487837,-26.740751,-25.547308,2.669629,0.067232,2.669629,0.067232,-29.999857,-30.0,18.882719,0.404558,1.709305,297.736969,9.759011,-0.040199,-0.022058,7.195533,-0.001058,0.053211,0.004727,0.0,1.0,2207.321777,
5.062703,-26.737494,-25.54405,2.674558,0.06373,2.674558,0.06373,-29.999857,-30.0,18.888784,0.492662,1.921,297.713043,9.697978,-0.038217,-0.023715,11.919654,-9.6E-4,0.053393,0.006429,0.0,1.0,2226.614258,
5.943611,-26.731565,-25.538122,2.680356,0.059731,2.680356,0.059731,-29.999857,-30.0,18.899235,0.643153,2.249663,297.678741,9.652427,-0.035894,-0.025592,15.619389,-9.1E-4,0.053491,0.007625,0.0,1.0,2247.138916,
6.539761,-26.726879,-25.533434,2.683628,0.057688,2.683628,0.057688,-29.999857,-30.0,18.90712,0.755657,2.471876,297.657501,9.651471,-0.034595,-0.026417,13.629481,-8.53E-4,0.053607,0.00934,0.0,1.0,2256.525635,
7.442688,-26.718685,-25.52524,2.687711,0.055269,2.687711,0.055269,-29.999857,-30.0,18.920347,0.94247,2.809651,297.631317,9.691579,-0.032912,-0.026579,15.807613,-8.24E-4,0.053673,0.010402,0.0,1.0,2265.884277,
8.048408,-26.712416,-25.51897,2.690183,0.053966,2.690183,0.053966,-29.999857,-30.0,18.930109,1.078876,3.036419,297.617889,9.744299,-0.031816,-0.026031,19.747406,-7.9E-4,0.053754,0.011711,0.0,1.0,2269.734131,
8.960013,-26.701759,-25.508314,2.693493,0.052305,2.693493,0.052305,-29.999857,-30.0,18.946175,1.300916,3.378079,297.605469,9.859143,-0.030151,-0.02408,8.194745,-7.71E-4,0.053804,0.012383,0.0,1.0,2272.901123,
9.568621,-26.6938,-25.500357,2.695615,0.051368,2.695615,0.051368,-29.999857,-30.0,18.957834,1.460324,3.607728,297.60202,9.957545,-0.028964,-0.022177,9.146705,-7.47E-4,0.05387,0.013004,0.0,1.0,2273.697998,
10.48128,-26.680552,-25.487108,2.699433,0.05012,2.699433,0.05012,-29.999857,-30.0,18.976791,1.716066,3.992699,297.603607,10.134311,-0.027099,-0.0186,11.715121,-7.34E-4,0.053912,0.013176,0.0,1.0,2273.463623,
11.088207,-26.670795,-25.477352,2.70713,0.045497,2.70713,0.045497,-29.999857,-30.0,18.990795,1.897372,4.338579,297.608215,10.269423,-0.026551,-0.016057,19.532738,-7.16E-4,0.053989,0.013097,0.0,1.0,2272.588623,
11.996245,-26.654655,-25.46121,2.716982,0.034797,2.716982,0.034797,-29.999857,-30.0,19.013536,2.185065,4.805045,297.618744,10.494335,-0.02385,-0.012195,9.118199,-6.5E-4,0.054143,0.012866,0.0,1.0,2270.497803,
12.599527,-26.642845,-25.4494,2.719049,0.03377,2.719049,0.03377,-29.999857,-30.0,19.029951,2.387065,5.036704,297.627045,10.656993,-0.02187,-0.009599,15.458402,-4.97E-4,0.05434,0.01234,0.0,1.0,2268.714355,
13.501695,-26.623547,-25.430103,2.720673,0.033784,2.720673,0.033784,-29.999857,-30.0,19.056042,2.704888,5.389853,297.638702,10.916133,-0.020052,-0.006278,18.659338,-4.82E-4,0.054381,0.011925,0.0,1.0,2265.619385,
14.101007,-26.609646,-25.416203,2.722195,0.033978,2.722195,0.033978,-29.999857,-30.0,19.074421,2.926375,5.627944,297.645111,11.09666,-0.019289,-0.004541,20.575651,-4.83E-4,0.054413,0.011342,0.0,1.0,2263.423096,
14.996537,-26.587267,-25.393822,2.724997,0.034738,2.724997,0.034738,-29.999857,-30.0,19.10347,3.272536,5.982767,297.651031,11.37511,-0.0187,-0.002824,14.169348,-4.85E-4,0.054444,0.011021,0.0,1.0,2261.819336,
15.591928,-26.571337,-25.377893,2.727155,0.035468,2.727155,0.035468,-29.999857,-30.0,19.123823,3.512336,6.219015,297.652283,11.563547,-0.018708,-0.002236,14.915529,-4.96E-4,0.0545,0.010725,0.0,1.0,2261.741211,
16.483488,-26.545944,-25.352501,2.730687,0.036673,2.730687,0.036673,-29.999857,-30.0,19.15583,3.885168,6.574073,297.650024,11.846537,-0.019239,-0.002102,17.691933,-5.07E-4,0.054543,0.010663,0.0,1.0,2262.526367,
17.077154,-26.528025,-25.334579,2.733297,0.03746,2.733297,0.03746,-29.999857,-30.0,19.178156,4.142253,6.810958,297.646149,12.033237,-0.019841,-0.002387,12.727146,-5.24E-4,0.054614,0.010776,0.0,1.0,2263.435791,
17.966911,-26.499662,-25.306219,2.737411,0.038529,2.737411,0.038529,-29.999857,-30.0,19.213127,4.540316,7.167557,297.638184,12.306796,-0.020931,-0.003084,18.646162,-5.35E-4,0.054666,0.01097,0.0,1.0,2265.14502,
18.559681,-26.479773,-25.286329,2.740377,0.03913,2.740377,0.03913,-29.999857,-30.0,19.237429,4.813778,7.405815,297.632263,12.482903,-0.021647,-0.003586,11.558834,-5.5E-4,0.054748,0.011368,0.0,1.0,2266.428711,
19.448315,-26.448467,-25.255024,2.744969,0.039768,2.744969,0.039768,-29.999857,-30.0,19.275364,5.235767,7.758763,297.624359,12.734643,-0.022506,-0.004086,12.530094,-5.59E-4,0.054808,0.011664,0.0,1.0,2268.478516,
20.0404,-26.42662,-25.233175,2.748232,0.040037,2.748232,0.040037,-29.999857,-30.0,19.301641,5.524767,7.996384,297.620422,12.892614,-0.022834,-0.00417,13.326286,-5.68E-4,0.054899,0.012059,0.0,1.0,2269.895264,
20.928017,-26.392385,-25.198942,2.753204,0.040157,2.753204,0.040157,-29.999857,-30.0,19.342539,5.96946,8.35181,297.617645,13.112457,-0.022857,-0.003781,14.503843,-5.72E-4,0.054965,0.012256,0.0,1.0,2272.060791,
21.519403,-26.368589,-25.175144,2.756696,0.040129,2.756696,0.040129,-29.999857,-30.0,19.370789,6.273203,8.588025,297.618073,13.246473,-0.022558,-0.003203,18.501869,-5.74E-4,0.055064,0.012395,0.0,1.0,2273.519531,
22.407389,-26.331522,-25.138077,2.737473,0.040095,2.737473,0.040095,-29.999857,-30.0,19.412933,6.739446,7.692441,297.622009,13.427103,-0.021691,-0.001913,21.062504,-5.73E-4,0.055134,0.012373,0.0,1.0,2275.718506,
23.001822,-26.306427,-25.112982,2.733976,0.039942,2.733976,0.039942,-29.999857,-30.0,19.438982,7.05722,7.933211,297.62677,13.533179,-0.020887,-8.32E-4,21.137125,-5.73E-4,0.054749,0.012177,0.0,1.0,2277.188965,
23.891848,-26.268467,-25.075024,2.742312,0.039841,2.742312,0.039841,-29.999857,-30.0,19.479521,7.54402,8.268373,297.634674,13.669912,-0.019631,6.99E-4,15.507654,-5.71E-4,0.05468,0.011939,0.0,1.0,2279.397705,
24.484369,-26.242804,-25.049358,2.747769,0.039948,2.747769,0.039948,-29.999857,-30.0,19.507442,7.875147,8.477523,297.639557,13.745879,-0.018943,0.001535,18.97048,-5.69E-4,0.054846,0.011543,0.0,1.0,2280.87085,
25.370848,-26.203485,-25.01004,2.766098,0.035753,2.766098,0.035753,-29.999857,-30.0,19.552094,8.381438,9.363795,297.64447,13.836896,-0.018653,0.00214,13.370872,-5.71E-4,0.054955,0.011299,0.0,1.0,2283.080078,
25.960398,-26.176388,-24.982943,2.771306,0.035891,2.771306,0.035891,-19.999857,-20.0,19.583647,8.725193,9.563063,297.645782,13.882424,-0.018307,0.002256,20.122427,-5.11E-4,0.055322,0.011053,0.0,1.0,2284.552002,
26.843987,-26.134327,-24.940882,2.775745,0.036947,2.775745,0.036947,-19.999857,-20.0,19.632269,9.249895,9.879534,297.644379,13.928374,-0.018638,0.001904,20.436071,-5.13E-4,0.055426,0.010988,0.0,1.0,2286.759277,
27.43243,-26.10536,-24.911915,2.778806,0.037834,2.778806,0.037834,-19.999857,-20.0,19.665527,9.60559,10.03978,297.641388,13.944428,-0.019297,0.00138,14.069861,-5.28E-4,0.055515,0.011058,0.0,1.0,2288.230469,
28.317522,-26.060972,-24.867529,2.760185,0.039302,2.760185,0.039302,-19.999857,-20.0,19.712313,10.14774,9.159671,297.635223,13.947358,-0.020606,4.45E-4,14.282385,-5.4E-4,0.055576,0.011208,0.0,1.0,2290.437988,
28.907515,-26.031343,-24.8379,2.76361,0.040081,2.76361,0.040081,-19.999857,-20.0,19.743221,10.514786,9.374883,297.630493,13.935735,-0.021532,-2.04E-4,21.058985,-5.61E-4,0.055204,0.011516,0.0,1.0,2291.910889,
29.790691,-25.98642,-24.792974,2.77222,0.041051,2.77222,0.041051,-19.999857,-20.0,19.790878,11.07352,9.67752,297.623535,13.899135,-0.022792,-0.001031,14.555364,-5.73E-4,0.055272,0.011752,0.0,1.0,2294.12207,
30.378536,-25.956123,-24.762678,2.777451,0.041568,2.777451,0.041568,-19.999857,-20.0,19.823475,11.451311,9.873071,297.619629,13.862791,-0.023429,-0.001397,18.968746,-5.86E-4,0.055444,0.0121,0.0,1.0,2295.597168,
31.257629,-25.909853,-24.716408,2.796126,0.034966,2.796126,0.034966,-19.999857,-20.0,19.875504,12.025701,10.921263,297.615967,13.791996,-0.024476,-0.001709,19.468422,-5.94E-4,0.055549,0.012296,0.0,1.0,2297.810547,
31.841957,-25.878038,-24.684593,2.802138,0.034549,2.802138,0.034549,-19.999857,-20.0,19.912233,12.413611,11.110181,297.615387,13.735101,-0.023947,-0.001496,19.991314,-5.0E-4,0.055923,0.012479,0.0,1.0,2299.286621,
32.717426,-25.828793,-24.635347,2.807425,0.034377,2.807425,0.034377,-19.999857,-20.0,19.968536,13.002721,11.40488,297.617523,13.637215,-0.02281,-7.34E-4,20.733027,-4.94E-4,0.056043,0.012508,0.0,1.0,2301.501221,
33.300621,-25.795004,-24.601561,2.800746,0.034607,2.800746,0.034607,-19.999857,-20.0,20.00634,13.40016,10.335383,297.620758,13.564774,-0.021076,2.2E-5,21.177185,-4.91E-4,0.056148,0.012401,0.0,1.0,2302.978271,
34.178276,-25.74399,-24.550547,2.791461,0.037778,2.791461,0.037778,-19.999857,-20.0,20.057459,14.003196,10.337461,297.627716,13.447326,-0.019816,0.001354,21.128569,-4.94E-4,0.056015,0.012239,0.0,1.0,2305.196289,
34.762123,-25.710052,-24.516609,2.796752,0.037853,2.796752,0.037853,-19.999857,-20.0,20.092258,14.409685,10.530901,297.632629,13.364343,-0.018886,0.002138,21.136494,-5.4E-4,0.055829,0.011891,0.0,1.0,2306.676514,
35.635403,-25.658903,-24.46546,2.814649,0.031857,2.814649,0.031857,-19.999857,-20.0,20.146732,15.0259,11.70889,297.638367,13.234963,-0.018208,0.002729,21.351139,-5.41E-4,0.055935,0.011646,0.0,1.0,2308.898682,
36.215061,-25.624146,-24.4307,2.824004,0.030614,2.824004,0.030614,-19.999857,-20.0,20.185946,15.440891,11.849708,297.640533,13.14673,-0.017382,0.002909,21.794331,-4.55E-4,0.056293,0.011359,0.0,1.0,2310.380371,
37.083241,-25.570662,-24.377218,2.82977,0.03176,2.82977,0.03176,-19.999857,-20.0,20.245871,16.069441,12.118614,297.640533,13.013482,-0.017141,0.002686,22.450975,-4.37E-4,0.05648,0.01125,0.0,1.0,2312.603516,
37.660995,-25.534143,-24.340698,2.83356,0.032747,2.83356,0.032747,-19.999857,-20.0,20.286583,16.492397,12.303815,297.638428,12.925088,-0.017558,0.002227,22.873411,-4.54E-4,0.056595,0.01125,0.0,1.0,2314.085938,
Command_Fault: set /instrumentation/altimeter/serviceable false
Command_Fault: set /instrumentation/altimeter/serviceable false
38.526867,-25.478184,-24.284739,2.826703,0.035448,2.826703,0.035448,-19.999857,-20.0,20.347033,17.132524,11.400226,297.632782,12.794784,-0.018966,0.001279,23.372469,-4.68E-4,0.056671,0.011356,0.0,1.0,2316.310059,
39.104599,-25.459414,-24.26597,2.827214,0.036157,2.827214,0.036157,-19.999857,-20.0,20.385374,17.562977,11.598489,297.628143,12.710268,-0.020123,5.56E-4,23.373381,-5.06E-4,0.056534,0.011638,0.0,1.0,2317.793701,
39.968842,-25.459414,-24.26597,2.833614,0.039724,2.833614,0.039724,-19.999857,-20.0,20.444162,18.214022,11.861969,297.621002,12.588364,-0.022234,-3.51E-4,23.500635,-5.17E-4,0.056544,0.01187,0.0,1.0,2320.020508,
40.543598,-25.459414,-24.26597,2.839505,0.039296,2.839505,0.039296,-19.999857,-20.0,20.484035,18.651518,12.050653,297.616699,12.51105,-0.023284,-8.72E-4,23.639688,-5.67E-4,0.056672,0.012227,0.0,1.0,2321.505371,
41.403706,-25.459414,-24.26597,2.847341,0.039202,2.847341,0.039202,-19.999857,-20.0,20.544983,19.312777,12.319324,297.612427,12.402192,-0.024227,-0.001191,15.247246,-5.61E-4,0.05679,0.012442,0.0,1.0,2323.733154,
41.975739,-25.459414,-24.26597,2.852113,0.038172,2.852113,0.038172,-19.999857,-20.0,20.586422,19.756855,12.470426,297.61142,12.334988,-0.024563,-0.001124,23.542496,-5.6E-4,0.056947,0.012656,0.0,1.0,2325.218506,
42.833923,-25.459414,-24.26597,2.84585,0.036502,2.84585,0.036502,-19.999857,-20.0,20.645514,20.427668,11.782383,297.613251,12.243194,-0.023831,-4.81E-4,17.826738,-5.45E-4,0.057042,0.012706,0.0,1.0,2327.446777,
43.404728,-25.459414,-24.26597,2.850624,0.036414,2.850624,0.036414,-19.999857,-20.0,20.685099,20.877914,11.959343,297.616364,12.188487,-0.022972,1.99E-4,16.940552,-5.21E-4,0.056917,0.012614,0.0,1.0,2329.047119,
44.258537,-25.459414,-24.26597,2.858744,0.03657,2.858744,0.03657,-19.999857,-20.0,20.745543,21.557669,12.208488,297.622375,12.116856,-0.021293,0.001307,19.032711,-5.2E-4,0.057012,0.012459,0.0,1.0,2332.659912,
44.826702,-25.459414,-24.26597,2.863744,0.036816,2.863744,0.036816,-19.999857,-20.0,20.786518,22.013666,12.369168,297.626556,12.076368,-0.020118,0.001982,21.41263,-5.22E-4,0.057175,0.012158,0.0,1.0,2335.662109,
45.681808,-25.459414,-24.26597,2.83845,0.034434,2.83845,0.034434,-19.999857,-20.0,20.840864,22.701796,9.736412,297.631897,12.026872,-0.018308,0.002656,18.397753,-5.26E-4,0.057275,0.011949,0.0,1.0,2340.699707,
46.253174,-25.459414,-24.26597,2.84058,0.034568,2.84058,0.034568,-19.999857,-20.0,20.873644,23.163267,9.918564,297.63443,12.001414,-0.01755,0.002923,18.154993,-4.92E-4,0.056769,0.011682,0.0,1.0,2344.290039,
47.108723,-25.459414,-24.26597,2.850648,0.035487,2.850648,0.035487,-19.999857,-20.0,20.923843,23.859436,10.146338,297.634796,11.974482,-0.017131,0.002742,17.390617,-4.94E-4,0.056812,0.011556,0.0,1.0,2349.883789,
47.678516,-25.459414,-24.26597,2.856501,0.036401,2.856501,0.036401,-19.999857,-20.0,20.957903,24.326122,10.280154,297.632599,11.963903,-0.017417,0.00226,17.063137,-5.07E-4,0.057013,0.011537,0.0,1.0,2353.702148,
48.532581,-25.459414,-24.26597,2.863601,0.038062,2.863601,0.038062,-19.999857,-20.0,21.009802,25.029905,10.472388,297.626343,11.958687,-0.018662,0.001172,16.772118,-5.2E-4,0.05713,0.011647,0.0,1.0,2359.511963,
49.101578,-25.459414,-24.26597,2.868192,0.039256,2.868192,0.039256,-19.999857,-20.0,21.044937,25.501535,10.601482,297.620789,11.961969,-0.019898,3.28E-4,16.682125,-5.44E-4,0.057272,0.01196,0.0,1.0,2363.421387,
49.954571,-25.459414,-24.26597,2.874811,0.04093,2.874811,0.04093,-19.999857,-20.0,21.098436,26.212534,10.794353,297.612244,11.976328,-0.021995,-8.08E-4,16.666172,-5.61E-4,0.057364,0.012238,0.0,1.0,2369.320801,
50.522919,-25.459414,-24.26597,2.879385,0.041939,2.879385,0.041939,-19.999857,-20.0,21.13464,26.688847,10.923413,297.607178,11.991731,-0.023327,-0.001367,16.718431,-5.85E-4,0.057496,0.012665,0.0,1.0,2373.270508,
51.375095,-25.459414,-24.26597,2.885875,0.042658,2.885875,0.042658,-19.999857,-20.0,21.189844,27.406685,11.213556,297.602203,12.02275,-0.025248,-0.001729,16.868948,-5.99E-4,0.057588,0.012918,0.0,1.0,2379.213867,
51.941986,-25.459414,-24.26597,2.898241,0.024925,2.898241,0.024925,-19.999857,-20.0,21.229374,27.887426,12.223931,297.600586,12.048251,-0.025871,-0.002076,17.210781,-6.09E-4,0.057717,0.013167,0.0,1.0,2383.185791,
52.791424,-25.459414,-24.26597,2.907092,0.024456,2.907092,0.024456,-19.999857,-20.0,21.290985,28.611708,12.410003,297.601929,12.093307,-0.025144,-0.001358,17.935286,-3.56E-4,0.057965,0.013248,0.0,1.0,2389.153564,
53.357712,-25.459414,-24.26597,2.911016,0.024678,2.911016,0.024678,-19.999857,-20.0,21.332573,29.096621,12.538527,297.604553,12.127419,-0.024222,-6.64E-4,18.371277,-3.49E-4,0.058142,0.013181,0.0,1.0,2393.138916,
54.206928,-25.459414,-24.26597,2.91685,0.024997,2.91685,0.024997,-19.999857,-20.0,21.395773,29.826988,12.738097,297.609772,12.183836,-0.022396,4.43E-4,21.228701,-3.53E-4,0.05822,0.013049,0.0,1.0,2399.127441,
54.772854,-25.459414,-24.26597,2.921105,0.02527,2.921105,0.02527,-19.999857,-20.0,21.438471,30.315847,12.874828,297.613342,12.224428,-0.021072,0.001098,21.411039,-3.57E-4,0.058337,0.012788,0.0,1.0,2403.126709,
55.621372,-25.459414,-24.26597,2.927364,0.025888,2.927364,0.025888,-19.999857,-20.0,21.503368,31.051973,13.079556,297.617188,12.288879,-0.01928,0.001721,22.932674,-3.61E-4,0.058422,0.01261,0.0,1.0,2409.135254,
56.186741,-25.459414,-24.26597,2.93166,0.026446,2.93166,0.026446,-19.999857,-20.0,21.547203,31.544561,13.21535,297.618195,12.333671,-0.018384,0.001842,19.233812,-3.7E-4,0.058547,0.012418,0.0,1.0,2413.147461,
57.034275,-25.459414,-24.26597,2.937815,0.027527,2.937815,0.027527,-19.999857,-20.0,21.61381,32.286118,13.421686,297.616791,12.402617,-0.017698,0.001549,18.92437,-3.78E-4,0.058633,0.012367,0.0,1.0,2419.175293,
57.599155,-25.459414,-24.26597,2.933005,0.028507,2.933005,0.028507,-19.999857,-20.0,21.658201,32.782223,12.798726,297.613983,12.449167,-0.017868,0.001097,23.64892,-3.93E-4,0.058756,0.012437,0.0,1.0,2423.199951,
58.453564,-25.459414,-24.26597,2.905221,0.03008,2.905221,0.03008,-19.999857,-20.0,21.704176,33.52898,9.166348,297.608917,12.518756,-0.018313,3.74E-4,18.429987,-4.07E-4,0.05866,0.012578,0.0,1.0,2429.25415,
59.022152,-25.459414,-24.26597,2.910151,0.030894,2.910151,0.030894,-19.999857,-20.0,21.734993,34.028519,9.315941,297.60498,12.564352,-0.018933,-1.4E-4,18.271618,-4.3E-4,0.058104,0.012831,0.0,1.0,2433.302002,
59.873295,-25.459414,-24.26597,2.920383,0.032111,2.920383,0.032111,-19.999857,-20.0,21.782068,34.780273,9.498629,297.599121,12.630657,-0.02003,-8.07E-4,17.135015,-4.41E-4,0.058203,0.013028,0.0,1.0,2439.38623,
60.722363,-25.459414,-24.26597,2.934438,0.024889,2.934438,0.024889,-19.999857,-20.0,21.831926,35.53487,10.588021,297.594269,12.693523,-0.02103,-0.001417,16.549713,-4.59E-4,0.058408,0.013321,0.0,1.0,2445.493896,
61.286991,-25.459414,-24.26597,2.939975,0.025386,2.939975,0.025386,-19.999857,-20.0,21.86738,36.039448,10.677691,297.592468,12.733167,-0.021444,-0.001406,16.536911,-4.2E-4,0.058566,0.013492,0.0,1.0,2449.620361,
62.133297,-25.459414,-24.26597,2.945468,0.026515,2.945468,0.026515,-19.999857,-20.0,21.921135,36.798496,10.820317,297.592041,12.788708,-0.021684,-0.001037,16.589737,-3.63E-4,0.0588,0.013654,0.0,1.0,2455.878906,
62.697014,-25.459414,-24.26597,2.949035,0.027209,2.949035,0.027209,-19.999857,-20.0,21.957378,37.305946,10.922514,297.59314,12.822832,-0.021558,-6.07E-4,16.662638,-3.79E-4,0.058909,0.013675,0.0,1.0,2460.08252,
63.545395,-25.459414,-24.26597,2.917953,0.025067,2.917953,0.025067,-19.999857,-20.0,22.001232,38.069195,6.10069,297.596313,12.869266,-0.020571,1.35E-4,15.863124,-3.89E-4,0.058981,0.01362,0.0,1.0,2466.420654,
Command: fly_strait
64.113747,-25.459414,-24.26597,2.916336,0.0272,2.916336,0.0272,-19.999857,-20.0,22.021822,38.579418,6.248173,297.599487,12.896835,-0.020015,8.03E-4,14.236411,-3.58E-4,0.058359,0.013461,0.0,1.0,2470.668945,
64.963654,-25.459414,-24.26597,2.926404,0.031594,2.926404,0.031594,-19.999857,-20.0,22.053535,39.346771,6.417898,297.590607,12.932807,-0.020185,-8.23E-4,16.106451,-3.89E-4,0.058327,0.0,0.0,1.0,2477.064697,
65.528877,-25.459414,-24.26597,2.931577,0.033335,2.931577,0.033335,-19.999857,-20.0,22.075069,39.859642,6.495877,297.551758,12.952938,-0.022181,-0.007083,13.869847,-4.51E-4,0.058528,4.44E-4,0.0,1.0,2481.338867,
66.374008,-25.459414,-24.26597,2.937075,0.032945,2.937075,0.032945,-19.999857,-20.0,22.107817,40.630795,6.600653,297.454498,12.976424,-0.029244,-0.021334,15.504142,-4.76E-4,0.058632,0.002386,0.0,1.0,2487.759766,
66.935287,-25.459414,-24.26597,2.940966,0.031567,2.940966,0.031567,-19.999857,-20.0,22.129944,41.146061,6.673809,297.376221,12.986873,-0.036327,-0.031683,15.071108,-4.71E-4,0.058741,0.007249,0.0,1.0,2492.04248,
67.774185,-25.459414,-24.26597,2.947189,0.028132,2.947189,0.028132,-19.999857,-20.0,22.163607,41.920593,6.789069,297.270142,12.993511,-0.048111,-0.043325,17.986029,-4.51E-4,0.058819,0.011163,0.0,1.0,2498.465576,
68.331741,-25.459414,-24.26597,2.954516,0.01402,2.954516,0.01402,-19.999857,-20.0,22.18767,42.437965,8.177481,297.219879,12.991432,-0.055417,-0.04716,22.146929,-4.02E-4,0.058944,0.016467,0.0,1.0,2502.74585,
69.167366,-25.459414,-24.26597,2.929646,-0.067775,2.929646,-0.067775,-19.999857,-20.0,22.231348,43.215439,9.331353,297.195618,12.978843,-0.063777,-0.045535,14.305243,-2.0E-4,0.05909,0.01898,0.0,1.0,2509.167236,
69.726654,-25.459414,-24.26597,2.878862,-0.179713,2.878862,-0.179713,-19.999857,-20.0,22.263332,43.734673,9.756385,297.217407,12.965445,-0.065196,-0.039947,17.781679,9.68E-4,0.058593,0.020193,0.0,1.0,2513.457031,
70.568726,-25.459414,-24.26597,2.793021,-0.376376,2.793021,-0.376376,-19.999857,-20.0,22.312286,44.514904,9.742987,297.298615,12.942225,-0.059768,-0.025724,22.606194,0.002567,0.057577,0.019104,0.0,1.0,2519.916016,
71.131958,-25.459414,-24.26597,2.743444,-0.499939,2.743444,-0.499939,-19.999857,-20.0,22.344603,45.036003,9.597446,297.370667,12.927793,-0.051667,-0.014558,14.398276,0.005377,0.05586,0.015044,0.0,1.0,2524.240234,
71.977097,-25.459414,-24.26597,2.69291,-0.653156,2.69291,-0.653156,-19.999857,-20.0,22.392235,45.819126,9.531862,297.464386,12.912795,-0.035822,-0.001713,19.667236,0.007142,0.054869,0.011441,0.0,1.0,2530.75293,
72.538681,-25.459414,-24.26597,2.661669,-0.750836,2.661669,-0.750836,-19.999857,-20.0,22.424341,46.342148,9.693314,297.49704,12.909578,-0.024969,0.001022,16.555515,0.009331,0.053858,0.006755,0.0,1.0,2535.10498,
73.383286,-25.459414,-24.26597,2.569826,-0.933852,2.569826,-0.933852,-19.999857,-20.0,22.46221,47.128025,4.864923,297.474915,12.917816,-0.013002,-0.007612,16.203632,0.010726,0.053233,0.005122,0.0,1.0,2541.643066,
73.950699,-25.459414,-24.26597,2.504037,-1.080938,2.504037,-1.080938,-19.999857,-20.0,22.477928,47.652851,4.574178,297.411865,12.933325,-0.00549,-0.020701,13.189359,0.013341,0.051397,0.006229,0.0,1.0,2546.018066,
74.800285,-25.459414,-24.26597,2.447866,-1.266115,2.447866,-1.266115,-19.999857,-20.0,22.500803,48.441444,4.788151,297.260681,12.973166,-7.29E-4,-0.045875,14.407266,0.015442,0.050081,0.009381,0.0,1.0,2552.602295,
75.365433,-25.459414,-24.26597,2.437119,-1.402758,2.437119,-1.402758,-19.999857,-20.0,22.518812,48.968071,6.12183,297.136871,13.010873,-0.00212,-0.06448,13.504915,0.018087,0.048957,0.01694,0.0,1.0,2557.003418,
76.204826,-25.459414,-24.26597,2.517585,-1.725172,2.517585,-1.725172,-19.999857,-20.0,22.560568,49.7593,12.365697,296.957458,13.084623,-0.008341,-0.090553,14.16295,0.020039,0.048742,0.023131,0.0,1.0,2563.608643,
76.755028,-25.459414,-24.26597,2.606067,-2.000903,2.606067,-2.000903,-19.999857,-20.0,22.621099,50.287521,24.388304,296.860962,13.147046,-0.01097,-0.103356,18.672951,0.024645,0.050352,0.032101,0.0,1.0,2568.002686,
77.556755,-25.459414,-24.26597,2.737237,-2.366877,2.737237,-2.366877,-19.999857,-20.0,22.80481,51.08054,49.260033,296.777161,13.265501,-0.012149,-0.109399,21.800264,0.028584,0.052121,0.036926,0.0,1.0,2574.55835,
78.070641,-25.459414,-24.26597,2.839336,-2.541923,2.839336,-2.541923,-19.999857,-20.0,23.001226,51.609364,68.121094,296.75647,13.363583,-0.010247,-0.105898,23.557426,0.033813,0.054745,0.041116,0.0,1.0,2578.884277,
78.808022,-25.459414,-24.26597,3.002929,-2.653174,3.002929,-2.653174,-19.999857,-20.0,23.419147,52.402203,98.441193,296.752167,13.541778,-0.003742,-0.093837,38.32354,0.036313,0.056787,0.042151,0.0,1.0,2585.267578,
79.275116,-25.459414,-24.26597,3.125332,-2.635524,3.125332,-2.635524,-19.999857,-20.0,23.783487,52.930092,119.478561,296.744537,13.680962,0.002404,-0.085616,50.230736,0.037902,0.060059,0.042366,0.0,1.0,2589.431641,
79.940544,-25.459414,-24.26597,3.290772,-2.503791,3.290772,-2.503791,-19.999857,-20.0,24.462223,53.720161,150.808197,296.695435,13.916655,0.012286,-0.078442,70.622978,0.03765,0.062507,0.042748,0.0,1.0,2595.508057,
80.362358,-25.459414,-24.26597,3.396781,-2.375571,3.396781,-2.375571,-19.999857,-20.0,24.9991,54.24527,170.412903,296.628326,14.087943,0.01782,-0.078771,85.424904,0.035768,0.065815,0.045203,0.0,1.0,2599.311035,
80.9683,-25.459414,-24.26597,3.523557,-2.183435,3.523557,-2.183435,-19.999857,-20.0,25.923304,55.029839,198.284683,296.487885,14.357781,0.02307,-0.085257,108.672623,0.033937,0.067936,0.048558,0.0,1.0,2603.918213,
81.355721,-25.459414,-24.26597,3.607115,-2.070789,3.607115,-2.070789,-19.999857,-20.0,26.615219,55.550488,216.123108,296.38147,14.541099,0.024293,-0.091269,124.569061,0.031192,0.070471,0.05558,0.0,1.0,2606.443115,
81.912796,-25.459414,-24.26597,3.727007,-1.947383,3.727007,-1.947383,-19.999857,-20.0,27.762905,56.327312,242.071136,296.243927,14.812952,0.023761,-0.096418,148.685394,0.029583,0.072142,0.060901,0.0,1.0,2609.679932,
82.268158,-25.459414,-24.26597,3.814715,-1.880036,3.814715,-1.880036,-19.999857,-20.0,28.599281,56.842136,259.118622,296.182587,14.988191,0.023289,-0.094861,164.819626,0.02782,0.07454,0.067778,0.0,1.0,2611.574707,
82.775932,-25.459414,-24.26597,3.937642,-1.778965,3.937642,-1.778965,-19.999857,-20.0,29.959723,57.609253,284.108917,296.154724,15.236859,0.024366,-0.082642,189.017563,0.026858,0.076294,0.070845,0.0,1.0,2614.138672,
83.096611,-25.459414,-24.26597,4.022871,-1.688228,4.022871,-1.688228,-19.999857,-20.0,30.934696,58.116936,300.471344,296.173218,15.390849,0.027477,-0.069188,205.073288,0.025414,0.078753,0.072238,0.0,1.0,2615.705566,
83.553192,-25.459414,-24.26597,4.142574,-1.505839,4.142574,-1.505839,-19.999857,-20.0,32.507221,58.872303,328.269897,296.229462,15.600506,0.035559,-0.046172,229.126678,0.024118,0.080457,0.071313,0.0,1.0,2617.893066,
83.839508,-25.459414,-24.26597,4.237923,-1.352487,4.237923,-1.352487,-19.999857,-20.0,33.63623,59.37146,348.655609,296.264923,15.723804,0.042492,-0.032472,245.407486,0.021512,0.082851,0.068501,0.0,1.0,2619.261963,
84.242027,-25.459414,-24.26597,4.385244,-1.108644,4.385244,-1.108644,-9.999858,-10.0,35.459534,60.113026,378.757233,296.282318,15.87972,0.053205,-0.019893,270.576141,0.019321,0.084758,0.066728,0.0,1.0,2621.203369,
84.495476,-25.459414,-24.26597,4.477097,-0.951026,4.477097,-0.951026,-9.999858,-10.0,36.751499,60.602383,395.391571,296.263245,15.961636,0.059003,-0.017478,287.710815,0.015838,0.087705,0.065858,0.0,1.0,2622.431885,
84.863281,-25.459414,-24.26597,4.554211,-0.767355,4.554211,-0.767355,-9.999858,-10.0,38.781696,61.328613,415.462708,296.199738,16.047009,0.064315,-0.02079,313.138519,0.013586,0.089542,0.066812,0.0,1.0,2624.191895,
85.103394,-25.459414,-24.26597,4.59072,-0.683559,4.59072,-0.683559,-9.999858,-10.0,40.187332,61.807484,427.333893,296.149139,16.076881,0.065322,-0.024753,329.481537,0.010962,0.091084,0.069987,0.0,1.0,2625.319336,
85.454819,-25.459414,-24.26597,4.651585,-0.621771,4.651585,-0.621771,-9.999858,-10.0,42.367416,62.517776,444.153137,296.094513,16.079365,0.064392,-0.027835,352.761505,0.009765,0.091814,0.072517,0.0,1.0,2626.952637,
85.681717,-25.459414,-24.26597,4.70649,-0.60375,4.70649,-0.60375,-9.999858,-10.0,43.867737,62.985905,455.709229,296.084656,16.05311,0.063576,-0.025888,367.448456,0.008882,0.093032,0.075249,0.0,1.0,2628.006104,
86.008713,-25.459414,-24.26597,4.791173,-0.581497,4.791173,-0.581497,-9.999858,-10.0,46.19334,63.679829,474.235962,296.117188,15.974296,0.063904,-0.016002,388.459717,0.008625,0.09413,0.075742,0.0,1.0,2629.5354,
86.21701,-25.459414,-24.26597,4.852103,-0.551148,4.852103,-0.551148,1.42E-4,0.0,47.796619,64.136826,487.335022,296.163025,15.897567,0.06602,-0.006152,401.986908,0.008307,0.095823,0.074115,0.0,1.0,2630.517334,
86.515381,-25.459414,-24.26597,4.93571,-0.469579,4.93571,-0.469579,1.42E-4,0.0,50.284821,64.813698,507.312164,296.239258,15.750027,0.071726,0.008594,421.874542,0.007874,0.097042,0.071823,0.0,1.0,2631.928955,
86.705956,-25.459414,-24.26597,4.99404,-0.394964,4.99404,-0.394964,1.42E-4,0.0,51.99865,65.259125,520.505066,296.279083,15.631984,0.076257,0.015822,434.975739,0.006708,0.098714,0.068011,0.0,1.0,2632.833008,
86.982162,-25.459414,-24.26597,5.07112,-0.280635,5.07112,-0.280635,1.42E-4,0.0,54.652203,65.918427,540.271484,296.299957,15.428045,0.082246,0.019192,454.475952,0.005642,0.099881,0.06602,0.0,1.0,2634.140137,
87.160782,-25.459414,-24.26597,5.12474,-0.218007,5.12474,-0.218007,1.42E-4,0.0,56.475517,66.352051,553.210022,296.287262,15.275452,0.08439,0.016691,467.396912,0.004009,0.101422,0.064976,0.0,1.0,2634.983398,
87.421791,-25.459414,-24.26597,5.197528,-0.172626,5.197528,-0.172626,10.000142,10.0,59.290405,66.993607,572.046692,296.243988,15.023992,0.084347,0.008671,486.650818,0.003114,0.102495,0.065611,0.0,1.0,2636.21167,
87.591103,-25.459414,-24.26597,5.248931,-0.174342,5.248931,-0.174342,10.000142,10.0,61.21859,67.415421,584.423462,296.21405,14.843203,0.082411,0.003221,499.376465,0.002466,0.103951,0.067775,0.0,1.0,2637.009033,
87.837097,-25.459414,-24.26597,5.321917,-0.213303,5.321917,-0.213303,10.000142,10.0,64.18853,68.039337,602.972168,296.195099,14.556751,0.078327,-5.2E-4,518.277588,0.002491,0.104979,0.069272,0.0,1.0,2638.174561,
87.994545,-25.459414,-24.26597,5.376503,-0.246275,5.376503,-0.246275,10.000142,10.0,66.219803,68.449409,615.367065,296.20755,14.35889,0.0762,0.001126,530.75824,0.003047,0.106438,0.070219,0.0,1.0,2638.931641,
88.219635,-25.459414,-24.26597,5.454769,-0.275023,5.454769,-0.275023,10.000142,10.0,69.344978,69.055672,634.142639,296.260559,14.057995,0.075253,0.009069,549.328735,0.003518,0.10753,0.069597,0.0,1.0,2640.0354,
88.361778,-25.459414,-24.26597,5.51114,-0.271174,5.51114,-0.271174,20.000143,20.0,71.480453,69.453918,646.704285,296.30838,13.858183,0.076457,0.016092,561.632935,0.003929,0.109095,0.066946,0.0,1.0,2640.748779,
88.564285,-25.459414,-24.26597,5.586926,-0.22839,5.586926,-0.22839,20.000143,20.0,74.762421,70.04232,665.435974,296.370422,13.564799,0.080132,0.024453,580.009827,0.003874,0.110223,0.064555,0.0,1.0,2641.783936,
88.693108,-25.459414,-24.26597,5.638943,-0.186245,5.638943,-0.186245,20.000143,20.0,77.001663,70.428581,677.647156,296.393799,13.375662,0.082637,0.02674,592.214417,0.003263,0.111739,0.061453,0.0,1.0,2642.451416,
88.87957,-25.459414,-24.26597,5.706615,-0.130915,5.706615,-0.130915,20.000143,20.0,80.436035,70.998978,695.402893,296.391998,13.104299,0.084902,0.02377,610.428284,0.002661,0.112779,0.060284,0.0,1.0,2643.421143,
89.000153,-25.459414,-24.26597,5.752901,-0.111939,5.752901,-0.111939,30.000143,30.0,82.773697,71.373276,706.736694,296.371521,12.932766,0.084548,0.018665,622.479248,0.00187,0.114132,0.060374,0.0,1.0,2644.049072,
89.176201,-25.459414,-24.26597,5.814628,-0.124311,5.814628,-0.124311,30.000143,30.0,86.349861,71.925842,723.082153,296.333862,12.691479,0.081489,0.010113,640.349182,0.001599,0.115058,0.061398,0.0,1.0,2644.965576,
89.289963,-25.459414,-24.26597,5.858412,-0.154229,5.858412,-0.154229,30.000143,30.0,88.77829,72.288361,733.565613,296.317657,12.542727,0.078506,0.006134,652.085327,0.001776,0.116293,0.063281,0.0,1.0,2645.561035,
89.454208,-25.459414,-24.26597,5.919072,-0.210217,5.919072,-0.210217,40.000141,40.0,92.485847,72.823425,748.903381,296.324493,12.340807,0.07433,0.00562,669.370239,0.002203,0.117168,0.064092,0.0,1.0,2646.431396,
89.558578,-25.459414,-24.26597,5.962889,-0.24059,5.962889,-0.24059,40.000141,40.0,94.999489,73.174362,758.916077,296.350769,12.222288,0.072854,0.008876,680.663635,0.003003,0.118381,0.06375,0.0,1.0,2646.995605,
89.706963,-25.459414,-24.26597,6.022881,-0.253307,6.022881,-0.253307,40.000141,40.0,98.832367,73.692101,773.71228,296.408569,12.071694,0.073129,0.016648,697.251648,0.003437,0.119258,0.062436,0.0,1.0,2647.816162,
89.800545,-25.459414,-24.26597,6.064735,-0.239418,6.064735,-0.239418,40.000141,40.0,101.428093,74.031494,783.358459,296.447327,11.990625,0.074682,0.021623,708.0802,0.003619,0.120458,0.059546,0.0,1.0,2648.345215,
89.934586,-25.459414,-24.26597,6.118932,-0.195758,6.118932,-0.195758,50.000141,50.0,105.381386,74.531944,797.405029,296.482666,11.89878,0.077716,0.024966,723.986084,0.00342,0.121295,0.057608,0.0,1.0,2649.112305,
90.020744,-25.459414,-24.26597,6.155253,-0.165012,6.155253,-0.165012,50.000141,50.0,108.054916,74.859863,806.347717,296.485748,11.857065,0.078999,0.023714,734.36499,0.002797,0.122379,0.055841,0.0,1.0,2649.607422,
90.146866,-25.459414,-24.26597,6.201646,-0.141237,6.201646,-0.141237,50.000141,50.0,112.119911,75.343246,819.10553,296.463409,11.822378,0.078842,0.017402,749.578064,0.002357,0.123105,0.055687,0.0,1.0,2650.328369,
90.229195,-25.459414,-24.26597,6.233424,-0.146271,6.233424,-0.146271,60.000141,60.0,114.864204,75.659927,827.138428,296.440247,11.816908,0.077114,0.012035,759.466431,0.002018,0.124033,0.056804,0.0,1.0,2650.796387,
90.349854,-25.459414,-24.26597,6.276251,-0.184007,6.276251,-0.184007,60.000141,60.0,119.029869,76.126701,838.667786,296.415924,11.833911,0.073061,0.006078,773.886169,0.00209,0.124668,0.057962,0.0,1.0,2651.482178,
90.427727,-25.459414,-24.26597,6.307116,-0.219072,6.307116,-0.219072,60.000141,60.0,121.838249,76.432465,846.075867,296.41571,11.861649,0.070415,0.00495,783.21106,0.002629,0.125525,0.059178,0.0,1.0,2651.928711,
90.539543,-25.459414,-24.26597,6.350168,-0.262034,6.350168,-0.262034,70.000145,70.0,126.096802,76.88308,856.960693,296.44397,11.927567,0.067895,0.008157,796.760071,0.00313,0.126142,0.059189,0.0,1.0,2652.581543,
90.610161,-25.459414,-24.26597,6.381148,-0.275072,6.381148,-0.275072,70.000145,70.0,128.965652,77.178169,864.087769,296.476471,11.987497,0.067764,0.012467,805.508057,0.003743,0.127003,0.057776,0.0,1.0,2653.004639,
90.710411,-25.459414,-24.26597,6.422537,-0.262455,6.422537,-0.262455,80.000145,80.0,133.313293,77.612877,874.584595,296.525391,12.100391,0.069531,0.018731,818.228271,0.00393,0.127623,0.056151,0.0,1.0,2653.619873,
90.77401,-25.459414,-24.26597,6.450677,-0.239208,6.450677,-0.239208,80.000145,80.0,136.240311,77.89743,881.360596,296.547852,12.189827,0.071225,0.021049,826.457092,0.003749,0.128451,0.053705,0.0,1.0,2654.016846,
90.866241,-25.459414,-24.26597,6.486075,-0.201353,6.486075,-0.201353,80.000145,80.0,140.672485,78.316452,891.094849,296.553925,12.34231,0.073159,0.019784,838.443665,0.003417,0.129014,0.052582,0.0,1.0,2654.594482,
90.926392,-25.459414,-24.26597,6.509595,-0.185619,6.509595,-0.185619,90.000145,90.0,143.653427,78.590668,897.208923,296.541229,12.454118,0.073162,0.016227,846.201111,0.002876,0.129722,0.052278,0.0,1.0,2654.969238,
91.015327,-25.459414,-24.26597,6.539955,-0.190964,6.539955,-0.190964,90.000145,90.0,148.162079,78.994438,905.878357,296.511322,12.633494,0.071115,0.009316,857.480103,0.002652,0.130192,0.052913,0.0,1.0,2655.518066,
91.073608,-25.459414,-24.26597,6.561325,-0.212142,6.561325,-0.212142,90.000145,90.0,151.191162,79.258667,911.353027,296.494751,12.75908,0.068788,0.005498,864.754456,0.002728,0.130799,0.054408,0.0,1.0,2655.876221,
91.15863,-25.459414,-24.26597,6.591095,-0.256811,6.591095,-0.256811,100.000145,100.0,155.768524,79.647743,919.296997,296.491394,12.954164,0.065169,0.003645,875.289673,0.003031,0.131226,0.055237,0.0,1.0,2656.403076,
91.212975,-25.459414,-24.26597,6.613022,-0.284108,6.613022,-0.284108,100.000145,100.0,158.841797,79.902336,924.478516,296.506012,13.087738,0.063631,0.005273,882.063843,0.003669,0.131822,0.055405,0.0,1.0,2656.746826,
91.290184,-25.459414,-24.26597,6.643569,-0.301974,6.643569,-0.301974,100.000145,100.0,163.48407,80.277122,932.169922,296.545258,13.292005,0.063265,0.010558,891.867432,0.004059,0.13226,0.054674,0.0,1.0,2657.249512,
91.338684,-25.459414,-24.26597,6.665138,-0.296527,6.665138,-0.296527,110.000145,110.0,166.600037,80.522293,937.218872,296.574097,13.429832,0.064247,0.014373,898.180359,0.004314,0.132871,0.052711,0.0,1.0,2657.575439,
91.407867,-25.459414,-24.26597,6.692856,-0.267655,6.692856,-0.267655,110.000145,110.0,171.305298,80.883072,944.596313,296.60257,13.636868,0.066569,0.017422,907.344666,0.004236,0.133303,0.05127,0.0,1.0,2658.049805,
91.452362,-25.459414,-24.26597,6.711154,-0.244775,6.711154,-0.244775,120.000145,120.0,174.462082,81.118996,949.287903,296.606415,13.773445,0.067724,0.016876,913.264465,0.003824,0.133857,0.049846,0.0,1.0,2658.357422,
91.517944,-25.459414,-24.26597,6.733819,-0.224611,6.733819,-0.224611,120.000145,120.0,179.225891,81.466103,955.936401,296.590149,13.97305,0.067955,0.01242,921.870728,0.003497,0.134223,0.049654,0.0,1.0,2658.807129,
91.561241,-25.459414,-24.26597,6.749098,-0.226378,6.749098,-0.226378,120.000145,120.0,182.419556,81.693077,960.081787,296.571411,14.100916,0.06681,0.0083,927.425842,0.003209,0.134676,0.050467,0.0,1.0,2659.101074,
91.625412,-25.459414,-24.26597,6.769659,-0.253054,6.769659,-0.253054,130.000137,130.0,187.235336,82.027039,965.990845,296.549133,14.282651,0.063803,0.003374,935.477417,0.003234,0.134982,0.051404,0.0,1.0,2659.533936,
91.667168,-25.459414,-24.26597,6.784778,-0.279585,6.784778,-0.279585,130.000137,130.0,190.461868,82.245438,969.784241,296.545746,14.396306,0.061727,0.00215,940.654541,0.003615,0.135393,0.052518,0.0,1.0,2659.817871,
91.727234,-25.459414,-24.26597,6.806489,-0.313853,6.806489,-0.313853,140.000137,140.0,195.325287,82.566765,975.395447,296.562927,14.554947,0.059632,0.004167,948.13678,0.003994,0.135696,0.052687,0.0,1.0,2660.236084,
91.765038,-25.459414,-24.26597,6.822506,-0.325393,6.822506,-0.325393,140.000137,140.0,198.583008,82.776863,979.11322,296.585663,14.652705,0.059447,0.007324,952.94397,0.004484,0.13613,0.051828,0.0,1.0,2660.509033,
91.818314,-25.459414,-24.26597,6.844126,-0.317726,6.844126,-0.317726,140.000137,140.0,203.492889,83.085892,984.645935,296.621399,14.787127,0.060777,0.012178,959.905457,0.004648,0.13645,0.050691,0.0,1.0,2660.907959,
91.851906,-25.459414,-24.26597,6.858781,-0.300575,6.858781,-0.300575,150.000137,150.0,206.781281,83.287872,988.24231,296.638123,14.868238,0.06215,0.014103,964.394714,0.004539,0.136883,0.048904,0.0,1.0,2661.166992,
91.900597,-25.459414,-24.26597,6.87676,-0.271244,6.87676,-0.271244,150.000137,150.0,211.735947,83.584877,993.405273,296.642242,14.976127,0.063826,0.013384,970.920776,0.004294,0.137176,0.048068,0.0,1.0,2661.54541,
91.932549,-25.459414,-24.26597,6.888417,-0.258361,6.888417,-0.258361,160.000137,160.0,215.052902,83.778969,996.626343,296.631836,15.038154,0.063964,0.01077,975.138916,0.003875,0.137535,0.047862,0.0,1.0,2661.791992,
91.980301,-25.459414,-24.26597,6.903148,-0.261047,6.903148,-0.261047,160.000137,160.0,220.047867,84.064377,1001.154053,296.6073,15.115354,0.062551,0.005521,981.266663,0.003691,0.137768,0.048383,0.0,1.0,2662.155762,
92.011917,-25.459414,-24.26597,6.913579,-0.276479,6.913579,-0.276479,160.000137,160.0,223.389969,84.250916,1003.994934,296.59314,15.156046,0.060824,0.002566,985.21521,0.003729,0.138063,0.049609,0.0,1.0,2662.394775,
92.058296,-25.459414,-24.26597,6.928523,-0.310005,6.928523,-0.310005,170.000137,170.0,228.420639,84.525238,1008.124939,296.588379,15.201343,0.05809,0.001096,990.927307,0.00395,0.138272,0.050317,0.0,1.0,2662.748535,
92.087929,-25.459414,-24.26597,6.939899,-0.330619,6.939899,-0.330619,170.000137,170.0,231.785751,84.704536,1010.845886,296.598236,15.221696,0.05694,0.002332,994.59552,0.004429,0.13857,0.050555,0.0,1.0,2662.980957,
92.129608,-25.459414,-24.26597,6.956166,-0.343825,6.956166,-0.343825,180.000137,180.0,236.850525,84.96817,1014.938354,296.626648,15.23891,0.056733,0.00642,999.838806,0.004723,0.138798,0.050063,0.0,1.0,2663.322754,
92.155617,-25.459414,-24.26597,6.967767,-0.339186,6.967767,-0.339186,180.000137,180.0,240.238358,85.140434,1017.658752,296.647736,15.242296,0.057568,0.009381,1003.274292,0.004912,0.139123,0.048642,0.0,1.0,2663.545654,
92.192451,-25.459414,-24.26597,6.982484,-0.316245,6.982484,-0.316245,190.000137,190.0,245.337021,85.393646,1021.653992,296.667908,15.236216,0.05949,0.011754,1008.251831,0.004846,0.139355,0.047588,0.0,1.0,2663.871826,
92.216118,-25.459414,-24.26597,6.991971,-0.298203,6.991971,-0.298203,190.000137,190.0,248.746948,85.559044,1024.188843,296.669647,15.225016,0.060459,0.011334,1011.464783,0.004518,0.13965,0.046579,0.0,1.0,2664.084473,
92.251152,-25.459414,-24.26597,7.003358,-0.282347,7.003358,-0.282347,200.000137,200.0,253.877213,85.802147,1027.750977,296.655365,15.197764,0.060722,0.007912,1016.13623,0.00426,0.139839,0.046492,0.0,1.0,2664.396973,
Command_Fault: set /instrumentation/altimeter/serviceable true
Command_Fault: set /instrumentation/altimeter/serviceable true
92.27446,-25.459414,-24.26597,7.010959,-0.28361,7.010959,-0.28361,200.000137,200.0,257.306854,85.960945,1029.950928,296.639923,15.172853,0.059878,0.004769,1019.152405,0.004034,0.140067,0.047206,0.0,1.0,2664.602051,
92.309212,204.276306,205.469742,7.021313,-0.303975,7.021313,-0.303975,200.000137,200.0,262.464752,86.194374,1033.073975,296.621735,15.126185,0.057616,0.0011,1023.524658,0.004052,0.140219,0.047978,0.0,1.0,2664.90625,
92.331848,207.757599,208.95105,7.029164,-0.324017,7.029164,-0.324017,210.000137,210.0,265.911804,86.346878,1035.085693,296.618744,15.089701,0.056077,2.82E-4,1026.335571,0.004343,0.140426,0.048888,0.0,1.0,2665.106689,
92.364166,212.994095,214.187546,7.040857,-0.349192,7.040857,-0.349192,210.000137,210.0,271.094971,86.571045,1038.092773,296.631592,15.028801,0.0546,0.002035,1030.397095,0.004629,0.140583,0.049037,0.0,1.0,2665.40332,
92.384232,216.494461,217.687897,7.049683,-0.356887,7.049683,-0.356887,220.000137,220.0,274.558777,86.717476,1040.114136,296.648621,14.985272,0.054577,0.004559,1033.006104,0.004988,0.140817,0.048395,0.0,1.0,2665.597656,
92.412041,221.758621,222.952057,7.061618,-0.349106,7.061618,-0.349106,220.000137,220.0,279.767181,86.932663,1043.150757,296.674805,14.917408,0.055781,0.008318,1036.786255,0.005098,0.140994,0.047543,0.0,1.0,2665.883057,
92.429344,225.276947,226.470383,7.069592,-0.33489,7.069592,-0.33489,220.000137,220.0,283.247803,87.073174,1045.130127,296.68631,14.871218,0.056928,0.009733,1039.226685,0.004987,0.141232,0.046234,0.0,1.0,2666.068848,
92.454338,230.567429,231.760864,7.079002,-0.311741,7.079002,-0.311741,230.000137,230.0,288.480804,87.27961,1047.952271,296.687134,14.80131,0.058283,0.009025,1042.779663,0.004784,0.141392,0.045659,0.0,1.0,2666.341797,
92.47084,234.102829,235.29628,7.084887,-0.302027,7.084887,-0.302027,230.000137,230.0,291.97702,87.414398,1049.688232,296.677673,14.754554,0.05839,0.006932,1045.079712,0.004453,0.14158,0.045618,0.0,1.0,2666.520508,
92.49575,239.41806,240.611511,7.092148,-0.304928,7.092148,-0.304928,240.000137,240.0,297.23175,87.612427,1052.093262,296.65744,14.684637,0.05728,0.002911,1048.424072,0.004315,0.141698,0.046091,0.0,1.0,2666.784912,
92.51239,242.969269,244.16272,7.09736,-0.317252,7.09736,-0.317252,240.000137,240.0,300.741333,87.741745,1053.587891,296.646362,14.638599,0.055962,7.56E-4,1050.579224,0.004356,0.141843,0.047102,0.0,1.0,2666.959717,
92.536774,248.307022,249.500458,7.105155,-0.342832,7.105155,-0.342832,250.000137,250.0,306.014893,87.93177,1055.765625,296.643127,14.571532,0.053946,-8.1E-5,1053.694214,0.004532,0.141947,0.047656,0.0,1.0,2667.219238,
92.552193,251.872482,253.065933,7.111319,-0.357802,7.111319,-0.357802,250.000137,250.0,309.536621,88.05587,1057.218384,296.651123,14.528983,0.053177,0.001073,1055.691895,0.004898,0.142103,0.047818,0.0,1.0,2667.390625,
92.57354,257.230682,258.424133,7.120324,-0.36578,7.120324,-0.36578,260.000153,260.0,314.8284,88.238205,1059.434204,296.672943,14.469858,0.053233,0.004398,1058.575928,0.005111,0.142226,0.047418,0.0,1.0,2667.643555,
92.586533,260.809326,262.002777,7.126736,-0.360621,7.126736,-0.360621,260.000153,260.0,318.362427,88.357239,1060.921997,296.688446,14.434234,0.054004,0.006671,1060.430298,0.005225,0.142406,0.046327,0.0,1.0,2667.809082,
92.604652,266.186798,267.380219,7.134619,-0.341391,7.134619,-0.341391,270.000153,270.0,323.672699,88.532082,1063.104004,296.701874,14.387109,0.0556,0.008318,1063.12207,0.005152,0.142535,0.045552,0.0,1.0,2668.052246,
92.616272,269.777954,270.971405,7.139484,-0.327241,7.139484,-0.327241,270.000153,270.0,327.218781,88.646202,1064.47229,296.701477,14.359943,0.056356,0.007823,1064.862549,0.004877,0.142692,0.044881,0.0,1.0,2668.211426,
92.63372,275.173706,276.367157,7.144963,-0.31592,7.144963,-0.31592,270.000153,270.0,332.546082,88.813805,1066.358643,296.688324,14.325311,0.056497,0.005011,1067.395508,0.004675,0.14279,0.0449,0.0,1.0,2668.446533,
92.645561,278.776642,279.970093,7.148503,-0.317889,7.148503,-0.317889,280.000153,280.0,336.1026,88.92321,1067.49707,296.67569,14.306126,0.0558,0.002588,1069.030762,0.004513,0.142899,0.045558,0.0,1.0,2668.601807,
92.66346,284.189209,285.38266,7.153445,-0.334682,7.153445,-0.334682,280.000153,280.0,341.444244,89.083923,1069.093994,296.661835,14.283126,0.054041,-3.1E-5,1071.397461,0.004541,0.14297,0.04619,0.0,1.0,2668.833008,
Command: turn_+45
92.675156,287.802734,288.996185,7.157406,-0.35015,7.157406,-0.35015,290.000153,290.0,345.009674,89.188858,1070.126465,296.660217,14.271798,0.052915,-4.33E-4,1072.914673,0.004781,0.143069,0.046883,0.0,1.0,2668.986084,
92.689728,293.230316,294.423767,7.1652,-0.397286,7.1652,-0.397286,290.000153,290.0,350.36438,89.342995,1071.713745,296.731079,14.261208,0.040345,0.01171,1075.099243,0.001667,0.143148,0.1,0.0,1.0,2669.213379,
92.690483,296.853394,298.046844,7.17903,-0.422046,7.17903,-0.422046,300.000153,300.0,353.938843,89.443542,1073.011719,296.927765,14.259631,0.039411,0.042858,1076.498901,0.001892,0.143304,0.1,0.0,1.0,2669.357666,
92.668724,302.295319,303.488739,7.211424,-0.284834,7.211424,-0.284834,300.000153,300.0,359.311462,89.590782,1076.222534,297.351959,14.270394,0.056733,0.107097,1078.547119,0.00201,0.143581,0.1,0.0,1.0,2669.545166,
92.639275,305.928864,307.122314,7.233474,-0.055284,7.233474,-0.055284,310.000153,310.0,362.9039,89.686317,1079.217529,297.64093,14.287721,0.076984,0.148208,1079.927856,0.001356,0.144228,0.1,0.0,1.0,2669.641357,
92.582924,311.389893,312.583313,7.248116,0.441441,7.248116,0.441441,310.000153,310.0,368.312042,89.825317,1083.776489,297.977753,14.325866,0.111312,0.190202,1082.131592,2.63E-4,0.144669,0.1,0.0,1.0,2669.739014,
92.544876,315.038727,316.232147,7.248734,0.820474,7.248734,0.820474,310.000153,310.0,371.928864,89.915024,1086.121948,298.107788,14.354383,0.131398,0.200867,1083.72644,-0.002102,0.144962,0.1,0.0,1.0,2669.778809,
92.496239,320.524628,321.718079,7.240528,1.345411,7.240528,1.345411,320.000153,320.0,377.365509,90.045212,1088.1521,298.167603,14.38959,0.151119,0.193055,1086.282227,-0.003907,0.144975,0.1,0.0,1.0,2669.819336,
92.471382,324.189667,325.383118,7.233318,1.627743,7.233318,1.627743,320.000153,320.0,380.993408,90.129234,1088.448853,298.147339,14.400534,0.155906,0.177775,1088.036011,-0.006407,0.144811,0.1,0.0,1.0,2669.843994,
92.444481,329.696472,330.889923,7.224662,1.904827,7.224662,1.904827,330.000153,330.0,386.434326,90.25145,1087.751343,298.097748,14.387543,0.15234,0.151841,1090.597412,-0.007751,0.144666,0.1,0.0,1.0,2669.889404,
92.431755,333.37204,334.565491,7.21898,2.004087,7.21898,2.004087,330.000153,330.0,390.058594,90.330597,1086.795776,298.091064,14.355547,0.145423,0.139163,1092.174561,-0.009071,0.144493,0.1,0.0,1.0,2669.928467,
92.416733,338.888824,340.082275,7.211682,2.063759,7.211682,2.063759,340.000153,340.0,395.488159,90.446129,1085.065308,298.164459,14.270874,0.13368,0.133674,1094.230835,-0.009543,0.14438,0.1,0.0,1.0,2670.000488,
92.407066,342.567413,343.760864,7.207144,2.080418,7.207144,2.080418,340.000153,340.0,399.103088,90.521141,1083.959717,298.276489,14.191417,0.127694,0.139883,1095.355591,-0.009827,0.144234,0.1,0.0,1.0,2670.05542,
92.389511,348.08429,349.27774,7.202877,2.12293,7.202877,2.12293,350.000153,350.0,404.519348,90.630722,1082.68103,298.523315,14.042773,0.124182,0.160607,1096.655273,-0.009907,0.144143,0.1,0.0,1.0,2670.141357,
92.374588,351.760834,352.954285,7.200879,2.183209,7.200879,2.183209,350.000153,350.0,408.12735,90.701828,1082.170288,298.720154,13.927537,0.125726,0.178385,1097.279785,-0.010109,0.144058,0.1,0.0,1.0,2670.197021,
92.347549,357.273132,358.466583,7.198647,2.329804,7.198647,2.329804,360.000153,360.0,413.537109,90.805496,1081.814087,299.024445,13.735914,0.132374,0.204266,1097.914917,-0.010396,0.144018,0.1,0.0,1.0,2670.273193,
92.327637,360.946381,362.139832,7.196561,2.458388,7.196561,2.458388,360.000153,360.0,417.142975,90.872604,1081.715454,299.214325,13.598043,0.138131,0.217967,1098.180298,-0.011094,0.143973,0.1,0.0,1.0,2670.318115,
92.297775,366.453979,367.64743,7.19225,2.667566,7.19225,2.667566,370.000153,370.0,422.551025,90.970253,1081.474365,299.46225,13.378655,0.146094,0.2306,1098.407349,-0.011707,0.143931,0.1,0.0,1.0,2670.378418,
92.279312,370.124298,371.317749,7.188361,2.802781,7.188361,2.802781,370.000153,370.0,426.155396,91.033386,1081.11499,299.602509,13.224927,0.149732,0.234002,1098.471191,-0.012703,0.143845,0.1,0.0,1.0,2670.416016,
92.255165,375.62738,376.820831,7.182173,2.971339,7.182173,2.971339,380.000153,380.0,431.558777,91.125237,1080.187134,299.788025,12.984418,0.151852,0.233971,1098.454224,-0.013347,0.143767,0.1,0.0,1.0,2670.473145,
92.241562,379.29422,380.487671,7.177372,3.056706,7.177372,3.056706,380.000153,380.0,435.157959,91.184677,1079.32019,299.906586,12.818516,0.151194,0.232649,1098.366211,-0.014149,0.143643,0.1,0.0,1.0,2670.51416,
92.224228,384.790863,385.984314,7.170421,3.142328,7.170421,3.142328,380.000153,380.0,440.550629,91.271286,1077.764893,300.096252,12.564117,0.14826,0.231926,1098.104614,-0.014556,0.143547,0.1,0.0,1.0,2670.581299,
92.214035,388.452362,389.645813,7.165316,3.179618,7.165316,3.179618,390.000153,390.0,444.141266,91.327415,1076.649414,300.238434,12.393155,0.145885,0.233601,1097.834839,-0.014963,0.143408,0.1,0.0,1.0,2670.630127,
92.199455,393.939423,395.132874,7.15847,3.220733,7.15847,3.220733,390.000153,390.0,449.520233,91.409309,1075.012207,300.480438,12.139633,0.143053,0.239979,1097.279419,-0.015141,0.143306,0.1,0.0,1.0,2670.70874,
92.189575,397.593658,398.787109,7.153813,3.248288,7.153813,3.248288,400.000153,400.0,453.101868,91.462425,1074.015625,300.658844,11.975787,0.142152,0.246386,1096.811279,-0.015337,0.143169,0.1,0.0,1.0,2670.763428,
92.173866,403.069031,404.262482,7.148012,3.299949,7.148012,3.299949,400.000153,400.0,458.468475,91.539909,1072.711426,300.94281,11.743285,0.142498,0.257574,1095.979858,-0.015468,0.143076,0.1,0.0,1.0,2670.84668,
92.162804,406.71524,407.908691,7.144149,3.3441,7.144149,3.3441,410.000153,410.0,462.042877,91.590141,1071.967041,301.136383,11.60008,0.14364,0.264974,1095.355225,-0.015714,0.14296,0.1,0.0,1.0,2670.9021,
92.145752,412.17865,413.372101,7.139163,3.421219,7.139163,3.421219,410.000153,410.0,467.400085,91.663361,1070.964355,301.42337,11.407254,0.146026,0.274413,1094.343872,-0.015924,0.142883,0.1,0.0,1.0,2670.984619,
92.134506,415.817108,417.010559,7.135651,3.476609,7.135651,3.476609,420.000153,420.0,470.968872,91.710793,1070.326904,301.609009,11.295372,0.14759,0.279124,1093.636963,-0.016292,0.142783,0.1,0.0,1.0,2671.039307,
92.118492,421.269318,422.462738,7.13081,3.555677,7.13081,3.555677,420.000153,420.0,476.317963,91.779915,1069.335327,301.877808,11.155231,0.149297,0.283767,1092.549683,-0.016555,0.142713,0.1,0.0,1.0,2671.121582,
92.108643,424.900513,426.093964,7.127268,3.602651,7.127268,3.602651,420.000153,420.0,479.881226,91.824684,1068.627075,302.052307,11.081498,0.149816,0.285643,1091.814819,-0.016932,0.142616,0.1,0.0,1.0,2671.177246,
92.095245,430.34198,431.5354,7.122289,3.659087,7.122289,3.659087,430.000153,430.0,485.221436,91.889961,1067.483154,302.312286,11.002216,0.149707,0.287583,1090.702637,-0.017155,0.142545,0.1,0.0,1.0,2671.263428,
92.087158,433.966034,435.159454,7.118649,3.688214,7.118649,3.688214,430.000153,430.0,488.778351,91.932274,1066.682373,302.487701,10.971179,0.149207,0.288886,1089.954346,-0.017424,0.142446,0.1,0.0,1.0,2671.322754,
92.075935,439.396637,440.590088,7.11364,3.721026,7.11364,3.721026,440.000153,440.0,494.108612,91.994011,1065.465454,302.758118,10.95884,0.148238,0.291535,1088.819336,-0.017563,0.142373,0.1,0.0,1.0,2671.415039,
92.068832,443.013336,444.206787,7.110089,3.738942,7.110089,3.738942,440.000153,440.0,497.658783,92.034058,1064.673096,302.944305,10.974228,0.147678,0.293937,1088.053101,-0.017719,0.142273,0.1,0.0,1.0,2671.478271,
92.058395,448.4328,449.626251,7.105416,3.76397,7.105416,3.76397,450.000153,450.0,502.979218,92.092522,1063.547607,303.231812,11.033861,0.147239,0.29835,1086.890869,-0.017804,0.142202,0.1,0.0,1.0,2671.575684,
92.051682,452.042084,453.235504,7.102212,3.781811,7.102212,3.781811,450.000153,450.0,506.523163,92.130455,1062.853638,303.427521,11.09844,0.147265,0.301588,1086.110107,-0.017924,0.142108,0.1,0.0,1.0,2671.641602,
92.05056,457.450531,458.643982,7.098059,3.811748,7.098059,3.811748,460.000153,460.0,511.835083,92.185829,1061.97998,303.723755,11.232849,0.147801,0.306331,1084.938354,-0.018009,0.142044,0.1,0.0,1.0,2671.748535,
92.049866,461.052704,462.246155,7.095354,3.834309,7.095354,3.834309,460.000153,460.0,515.374146,92.221748,1061.502563,303.920868,11.347343,0.148363,0.309104,1084.164673,-0.018151,0.141961,0.1,0.0,1.0,2671.825928,
92.048836,466.45105,467.644501,7.092354,3.869395,7.092354,3.869395,470.000153,470.0,520.680054,92.274155,1060.897095,304.213806,11.555599,0.149212,0.312352,1083.03064,-0.018259,0.141907,0.1,0.0,1.0,2671.947754,
92.048264,470.046936,471.240387,7.090544,3.892289,7.090544,3.892289,470.000153,470.0,524.21582,92.308144,1060.555786,304.40683,11.718006,0.149636,0.313894,1082.300781,-0.018426,0.141847,0.1,0.0,1.0,2672.032227,
92.047722,475.436615,476.630066,7.088366,3.922545,7.088366,3.922545,470.000153,470.0,529.517395,92.357727,1060.09436,304.694,11.995227,0.149939,0.315479,1081.256104,-0.018535,0.141811,0.1,0.0,1.0,2672.162354,
92.047592,479.027161,480.220612,7.086913,3.939544,7.086913,3.939544,480.000153,480.0,533.050537,92.389885,1059.80896,304.884918,12.201263,0.149915,0.31627,1080.597412,-0.018679,0.141767,0.1,0.0,1.0,2672.251221,
92.047684,484.409485,485.602936,7.085072,3.959544,7.085072,3.959544,480.000153,480.0,538.348511,92.436813,1059.402954,305.172668,12.539933,0.149643,0.317415,1079.669067,-0.01876,0.141738,0.1,0.0,1.0,2672.387207,
92.047867,487.995514,489.188934,7.08385,3.970151,7.08385,3.970151,490.000153,490.0,541.879395,92.467262,1059.153076,305.366302,12.784092,0.149392,0.31832,1079.089966,-0.018855,0.141701,0.1,0.0,1.0,2672.479248,
92.048172,493.37146,494.564911,7.082349,3.983299,7.082349,3.983299,490.000153,490.0,547.174316,92.511696,1058.817627,305.660217,13.175475,0.149063,0.320004,1078.279663,-0.018905,0.141677,0.1,0.0,1.0,2672.619141,
92.048325,496.953552,498.146973,7.081382,3.991482,7.081382,3.991482,500.000153,500.0,550.703369,92.540527,1058.626831,305.858398,13.451697,0.148937,0.321327,1077.777344,-0.018968,0.141647,0.1,0.0,1.0,2672.713135,
92.048393,502.324005,503.517456,7.080242,4.004006,7.080242,4.004006,500.000153,500.0,555.99585,92.582611,1058.389282,306.158142,13.886374,0.148929,0.32346,1077.079346,-0.019007,0.141628,0.1,0.0,1.0,2672.85498,
92.048004,507.391357,508.584808,7.079283,4.016984,7.079283,4.016984,510.000153,510.0,560.993347,92.621109,1058.214722,306.442627,14.316386,0.149079,0.325431,1076.375977,-0.019067,0.141605,0.1,0.0,1.0,2672.989746,
92.047989,511.264648,512.458069,7.078646,4.027572,7.078646,4.027572,510.000153,510.0,564.814514,92.64975,1058.10376,306.660278,14.655951,0.149276,0.326787,1075.883057,-0.019128,0.141586,0.1,0.0,1.0,2673.092773,
92.047508,514.841187,516.034668,7.078183,4.037438,7.078183,4.037438,510.000153,510.0,568.34137,92.675583,1058.014526,306.860931,14.976243,0.149451,0.32787,1075.59375,-0.019179,0.141573,0.1,0.0,1.0,2673.188232,
92.047295,520.203918,521.3974,7.07762,4.051625,7.07762,4.051625,520.000122,520.0,573.631104,92.713272,1057.900635,307.161194,15.466384,0.149663,0.32918,1075.17395,-0.019226,0.141564,0.1,0.0,1.0,2673.331543,
92.040749,523.712402,524.905884,7.077271,4.060191,7.077271,4.060191,520.000122,520.0,577.157288,92.737717,1057.820923,307.361023,15.79792,0.149734,0.329876,1071.44043,-0.019293,0.141552,0.1,0.0,1.0,2673.426514,
92.041222,529.088562,530.281982,7.076694,4.07144,7.076694,4.07144,530.000122,530.0,582.446167,92.773376,1057.715942,307.660736,16.299566,0.149768,0.330761,1072.83667,-0.019334,0.141545,0.1,0.0,1.0,2673.570557,
92.042259,532.669006,533.862488,7.076293,4.077973,7.076293,4.077973,530.000122,530.0,585.971741,92.797249,1057.638916,307.86084,16.635317,0.149736,0.331306,1073.388062,-0.019388,0.141534,0.1,0.0,1.0,2673.666748,
92.043495,538.035278,539.22876,7.075828,4.086214,7.075828,4.086214,540.000122,540.0,591.259644,92.833061,1057.525269,308.161865,17.138374,0.149651,0.332135,1073.831665,-0.019419,0.141526,0.1,0.0,1.0,2673.811523,
92.044151,541.610352,542.803772,7.07552,4.09104,7.07552,4.09104,540.000122,540.0,594.784607,92.8563,1057.4552,308.363312,17.471994,0.149593,0.332726,1073.948975,-0.019458,0.141517,0.1,0.0,1.0,2673.908203,
92.044914,546.969788,548.163208,7.075116,4.097624,7.075116,4.097624,550.000122,550.0,600.071655,92.890236,1057.359253,308.666565,17.967632,0.14954,0.333668,1073.951538,-0.019481,0.14151,0.1,0.0,1.0,2674.053467,
92.045288,550.540894,551.734375,7.074847,4.101925,7.074847,4.101925,550.000122,550.0,603.596069,92.912262,1057.30188,308.869385,18.293722,0.149536,0.334317,1073.876709,-0.019512,0.141502,0.1,0.0,1.0,2674.150391,
92.045677,555.895325,557.088745,7.074525,4.108368,7.074525,4.108368,560.000122,560.0,608.882385,92.94442,1057.225342,309.174225,18.774595,0.149576,0.335271,1073.696655,-0.019533,0.141497,0.1,0.0,1.0,2674.295654,
92.045853,559.463562,560.656982,7.074321,4.112769,7.074321,4.112769,560.000122,560.0,612.406372,92.965286,1057.18042,309.377686,19.088762,0.149624,0.335865,1073.550171,-0.019564,0.141491,0.1,0.0,1.0,2674.392822,
92.046021,564.814087,566.007568,7.074075,4.11928,7.074075,4.11928,560.000122,560.0,617.692139,92.995758,1057.118652,309.682922,19.549049,0.149704,0.336659,1073.313477,-0.019585,0.141486,0.1,0.0,1.0,2674.53833,
92.046089,568.380066,569.573486,7.073914,4.123522,7.073914,4.123522,570.000122,570.0,621.215759,93.015533,1057.079834,309.886383,19.847935,0.149751,0.337118,1073.15271,-0.019616,0.141482,0.1,0.0,1.0,2674.635254,
