airspeed_indicator_indicated_speed_kt,altimeter_indicated_altitude_ft,altimeter_pressure_alt_ft,attitude_indicator_indicated_pitch_deg,attitude_indicator_indicated_roll_deg,attitude_indicator_internal_pitch_deg,attitude_indicator_internal_roll_deg,encoder_indicated_altitude_ft,encoder_pressure_alt_ft,gps_indicated_altitude_ft,gps_indicated_ground_speed_kt,gps_indicated_vertical_speed,indicated_heading_deg,magnetic_compass_indicated_heading_deg,slip_skid_ball_indicated_slip_skid,turn_indicator_indicated_turn_rate,vertical_speed_indicator_indicated_speed_fpm,flight_aileron,flight_elevator,flight_rudder,flight_flaps,engine_throttle,engine_rpm,
Command: takeoff
0.397587,-26.745735,-25.55229,3.071391,1.362182,2.716388,0.178842,-29.999857,-30.0,18.855347,4.0E-5,-3.01E-4,297.86554,14.551476,-0.046375,-0.036006,-16.387691,-0.0,0.0,0.0,0.0,0.0,607.021423,
0.342015,-26.747484,-25.554039,3.030132,1.224815,2.716327,0.178799,-29.999857,-30.0,18.855345,3.9E-5,1.0E-4,297.864288,13.946509,-0.046368,-0.030982,-12.714182,-0.01946,0.054328,0.0,0.0,1.0,615.475342,
0.30937,-26.748388,-25.554945,2.885957,0.747385,2.715314,0.178574,-29.999857,-30.0,18.855345,3.8E-5,-0.00211,297.863434,13.550286,-0.046459,-0.028042,-16.825424,-0.017497,0.054327,6.3E-5,0.0,1.0,680.472351,
0.268758,-26.749426,-25.555983,2.725811,0.265751,2.698905,0.176064,-29.999857,-30.0,18.855295,1.04E-4,-0.021437,297.862,12.989382,-0.046662,-0.024336,-9.039592,-0.010677,0.054306,1.05E-4,0.0,1.0,857.655762,
0.250987,-26.750021,-25.556576,2.650904,0.171751,2.650904,0.171751,-29.999857,-30.0,18.855118,4.8E-4,-0.060494,297.860687,12.604954,-0.048773,-0.022107,-12.709227,-0.003796,0.053978,1.77E-4,0.0,1.0,1018.844238,
0.27135,-26.750734,-25.557291,2.585171,0.161415,2.585171,0.161415,-29.999857,-30.0,18.855034,0.003243,0.039224,297.858612,12.080731,-0.049224,-0.019389,-16.039591,-0.002454,0.053018,2.43E-4,0.0,1.0,1266.365356,
0.362945,-26.751083,-25.55764,2.572644,0.152261,2.572644,0.152261,-29.999857,-30.0,18.855318,0.00799,0.13107,297.857208,11.753378,-0.049895,-0.017852,-17.440336,-0.002306,0.051703,3.46E-4,0.0,1.0,1426.097778,
0.656698,-26.751333,-25.557888,2.580345,0.136442,2.580345,0.136442,-29.999857,-30.0,18.856361,0.022208,0.28686,297.854462,11.299947,-0.045595,-0.01598,-18.37319,-0.002175,0.051453,4.17E-4,0.0,1.0,1641.158447,
0.942872,-26.751265,-25.557819,2.592728,0.12533,2.592728,0.12533,-29.999857,-30.0,18.857521,0.038022,0.403293,297.85141,11.024968,-0.038837,-0.015102,-18.121033,-0.001949,0.051607,5.54E-4,0.0,1.0,1763.434204,
1.482529,-26.750719,-25.557276,2.613472,0.109149,2.613472,0.109149,-29.999857,-30.0,18.860064,0.073764,0.607183,297.841705,10.656653,-0.025957,-0.014718,-15.976521,-0.00179,0.051855,7.07E-4,0.0,1.0,1913.455444,
1.903767,-26.750006,-25.556562,2.626712,0.099472,2.626712,0.099472,-29.999857,-30.0,18.862366,0.106858,0.765419,297.831665,10.441974,-0.023432,-0.015064,-12.632908,-0.001559,0.052269,0.001192,0.0,1.0,1992.594971,
2.58848,-26.748373,-25.554928,2.643056,0.087175,2.643056,0.087175,-29.999857,-30.0,18.866697,0.17002,1.015065,297.810547,10.174753,-0.02537,-0.01646,7.727469,-0.001421,0.052534,0.001694,0.0,1.0,2082.227051,
3.118462,-26.746716,-25.55327,2.652826,0.079902,2.652826,0.079902,-29.999857,-30.0,18.870567,0.226726,1.206897,297.791351,10.01774,-0.026224,-0.017942,16.792717,-0.001245,0.052861,0.00275,0.0,1.0,2130.592285,
3.926588,-26.743498,-25.550053,2.663808,0.071563,2.663808,0.071563,-29.999857,-30.0,18.877354,0.326235,1.504108,297.759735,9.841374,-0.027134,-0.020378,19.237823,-0.001141,0.053057,0.003709,0.0,1.0,2182.223633,
4.487967,-26.740755,-25.547312,2.669727,0.06723,2.669727,0.06723,-29.999857,-30.0,18.882723,0.404593,1.709573,297.736389,9.756086,-0.027501,-0.022128,7.210467,-0.001022,0.053276,0.00529,0.0,1.0,2207.321045,
5.354437,-26.735666,-25.542223,2.67661,0.062247,2.67661,0.062247,-29.999857,-30.0,18.89209,0.540421,2.030934,297.701263,9.675396,-0.027983,-0.024398,6.620716,-9.6E-4,0.053395,0.006458,0.0,1.0,2234.452393,
5.943839,-26.731577,-25.538134,2.680416,0.059719,2.680416,0.059719,-29.999857,-30.0,18.899239,0.643194,2.250534,297.678314,9.652066,-0.028132,-0.025633,15.602555,-8.89E-4,0.053532,0.008214,0.0,1.0,2247.138184,
6.839895,-26.724316,-25.53087,2.685041,0.056798,2.685041,0.056798,-29.999857,-30.0,18.911345,0.815578,2.58449,297.648071,9.660515,-0.028276,-0.026561,13.373534,-8.53E-4,0.053608,0.009361,0.0,1.0,2260.201416,
7.442817,-26.718691,-25.525248,2.687758,0.055263,2.687758,0.055263,-29.999857,-30.0,18.920351,0.942517,2.809885,297.631104,9.693549,-0.028158,-0.026588,15.81496,-8.11E-4,0.053701,0.010873,0.0,1.0,2265.883545,
8.35222,-26.70904,-25.515594,2.691297,0.053373,2.691297,0.053373,-29.999857,-30.0,18.935278,1.150634,3.151679,297.612885,9.781203,-0.027767,-0.025466,11.899467,-7.89E-4,0.053755,0.011722,0.0,1.0,2271.095947,
8.934676,-26.702089,-25.508646,2.693426,0.052364,2.693426,0.052364,-29.999857,-30.0,18.945709,1.294521,3.369035,297.605713,9.859364,-0.027262,-0.024131,19.234299,-7.62E-4,0.053826,0.012633,0.0,1.0,2272.846924,
9.873075,-26.689573,-25.49613,2.696602,0.050922,2.696602,0.050922,-29.999857,-30.0,18.963953,1.54343,3.722251,297.601807,10.017781,-0.026236,-0.021026,17.594351,-7.48E-4,0.053869,0.012991,0.0,1.0,2273.787354,
10.481407,-26.680563,-25.487118,2.69947,0.050137,2.69947,0.050137,-29.999857,-30.0,18.976797,1.716121,3.993737,297.603668,10.139935,-0.025382,-0.018576,11.722672,-7.27E-4,0.053932,0.013187,0.0,1.0,2273.462891,
11.391474,-26.665632,-25.472189,2.710709,0.041546,2.710709,0.041546,-29.999857,-30.0,18.998133,1.991253,4.453973,297.611267,10.348012,-0.024735,-0.014778,19.417892,-7.16E-4,0.053989,0.013094,0.0,1.0,2271.982422,
11.996407,-26.654682,-25.461237,2.717121,0.034796,2.717121,0.034796,-29.999857,-30.0,19.013542,2.185124,4.805347,297.618774,10.501175,-0.022941,-0.012178,9.088717,-5.94E-4,0.054214,0.012714,0.0,1.0,2270.49707,
12.900759,-26.636648,-25.443203,2.719511,0.03371,2.719511,0.03371,-29.999857,-30.0,19.038456,2.491115,5.152366,297.630951,10.748911,-0.020464,-0.008417,19.45048,-4.97E-4,0.054342,0.012338,0.0,1.0,2267.731201,
13.501813,-26.623568,-25.430124,2.720667,0.033788,2.720667,0.033788,-29.999857,-30.0,19.056047,2.704952,5.391059,297.638672,10.923747,-0.019503,-0.006264,18.667894,-4.82E-4,0.05439,0.011729,0.0,1.0,2265.618652,
14.400051,-26.602404,-25.408958,2.723061,0.034178,2.723061,0.034178,-29.999857,-30.0,19.083912,3.039993,5.745749,297.647491,11.196518,-0.018605,-0.00386,17.481287,-4.83E-4,0.054413,0.011343,0.0,1.0,2262.637207,
14.996664,-26.587276,-25.393831,2.725013,0.034731,2.725013,0.034731,-29.999857,-30.0,19.103477,3.272603,5.983002,297.651031,11.383057,-0.018366,-0.002812,14.174128,-4.88E-4,0.054461,0.010902,0.0,1.0,2261.819092,
15.889403,-26.563095,-25.369652,2.728275,0.035866,2.728275,0.035866,-29.999857,-30.0,19.134302,3.634952,6.336854,297.652039,11.665971,-0.018559,-0.002094,15.420425,-4.96E-4,0.0545,0.010725,0.0,1.0,2261.904297,
16.483608,-26.545963,-25.352518,2.730716,0.03666,2.730716,0.03666,-29.999857,-30.0,19.155838,3.885239,6.574409,297.649994,11.854408,-0.019004,-0.002092,17.698027,-5.12E-4,0.054566,0.010675,0.0,1.0,2262.526367,
17.373955,-26.51878,-25.325335,2.734617,0.037821,2.734617,0.037821,-29.999857,-30.0,19.189623,4.273373,6.931142,297.643799,12.133108,-0.02,-0.002575,18.397976,-5.24E-4,0.054614,0.010777,0.0,1.0,2263.968506,
17.967146,-26.499687,-25.306242,2.737448,0.038524,2.737448,0.038524,-29.999857,-30.0,19.213135,4.54039,7.16749,297.638214,12.314227,-0.020755,-0.003077,18.618334,-5.4E-4,0.054692,0.011087,0.0,1.0,2265.145264,
18.856081,-26.469572,-25.276127,2.741856,0.039364,2.741856,0.039364,-29.999857,-30.0,19.249884,4.952961,7.522314,297.629578,12.575631,-0.021835,-0.003771,11.736352,-5.5E-4,0.054749,0.011366,0.0,1.0,2267.099121,
19.448429,-26.448498,-25.255053,2.745007,0.039781,2.745007,0.039781,-29.999857,-30.0,19.275372,5.235845,7.75826,297.62439,12.741327,-0.022389,-0.004083,12.538031,-5.62E-4,0.054837,0.011798,0.0,1.0,2268.479004,
20.336464,-26.415424,-25.221979,2.749836,0.040101,2.749836,0.040101,-29.999857,-30.0,19.315086,5.6716,8.115228,297.61911,12.974398,-0.022827,-0.004097,13.726754,-5.68E-4,0.0549,0.012057,0.0,1.0,2270.613281,
20.928143,-26.392401,-25.198956,2.753246,0.040174,2.753246,0.040174,-29.999857,-30.0,19.342548,5.96954,8.35171,297.617645,13.118153,-0.022807,-0.003783,14.508682,-5.73E-4,0.054997,0.012322,0.0,1.0,2272.061035,
21.815222,-26.356419,-25.162973,2.758314,0.04008,2.758314,0.04008,-29.999857,-30.0,19.385178,6.427295,8.428484,297.618896,13.314484,-0.0223,-0.002834,21.645725,-5.74E-4,0.055065,0.012395,0.0,1.0,2274.251709,
22.407558,-26.331537,-25.138094,2.737932,0.04101,2.737932,0.04101,-29.999857,-30.0,19.412886,6.739529,7.704969,297.621979,13.431633,-0.021726,-0.001892,21.060749,-5.73E-4,0.055166,0.012332,0.0,1.0,2275.718994,
23.298836,-26.293848,-25.100405,2.736764,0.040396,2.736764,0.040396,-29.999857,-30.0,19.452299,7.218234,8.052859,297.629211,13.58553,-0.020652,-3.13E-4,15.294701,-5.86E-4,0.054759,0.012178,0.0,1.0,2277.925293,
23.892002,-26.268482,-25.075039,2.742358,0.040106,2.742358,0.040106,-29.999857,-30.0,19.479521,7.544107,8.268373,297.634583,13.673135,-0.019825,6.91E-4,15.510053,-5.77E-4,0.054735,0.011816,0.0,1.0,2279.398193,
24.780483,-26.229845,-25.0364,2.751841,0.040147,2.751841,0.040147,-29.999857,-30.0,19.521765,8.042735,8.677695,297.641449,13.781676,-0.018818,0.001833,17.645954,-5.73E-4,0.054847,0.011548,0.0,1.0,2281.607666,
25.371002,-26.203493,-25.01005,2.766113,0.035768,2.766113,0.035768,-29.999857,-30.0,19.552099,8.381529,9.363192,297.644409,13.838752,-0.018774,0.002137,13.373308,-5.74E-4,0.055037,0.011205,0.0,1.0,2283.080322,
26.255201,-26.162558,-24.969114,2.772689,0.036189,2.772689,0.036189,-19.999857,-20.0,19.599686,8.898991,9.666499,297.645721,13.901746,-0.018375,0.002205,18.979891,-5.11E-4,0.055322,0.011057,0.0,1.0,2285.28833,
26.844143,-26.134329,-24.940884,2.775781,0.036933,2.775781,0.036933,-19.999857,-20.0,19.632278,9.24999,9.880238,297.644409,13.9289,-0.018655,0.001912,20.437721,-5.17E-4,0.055454,0.010991,0.0,1.0,2286.759766,
27.702555,-26.091867,-24.898422,2.770937,0.038296,2.770937,0.038296,-19.999857,-20.0,19.680714,9.770255,9.957513,297.639709,13.947773,-0.019712,0.001119,13.693528,-5.28E-4,0.055516,0.011057,0.0,1.0,2288.905029,
28.317663,-26.061007,-24.867561,2.760346,0.039292,2.760346,0.039292,-19.999857,-20.0,19.712322,10.147838,9.160608,297.635284,13.946657,-0.020559,4.56E-4,14.287749,-5.47E-4,0.055419,0.011292,0.0,1.0,2290.438477,
29.202181,-26.016443,-24.823,2.76692,0.040413,2.76692,0.040413,-19.999857,-20.0,19.758951,10.700053,9.477448,297.628204,13.92466,-0.021927,-4.9E-4,15.237429,-5.61E-4,0.055207,0.011513,0.0,1.0,2292.648193,
29.790831,-25.986437,-24.792992,2.772522,0.041059,2.772522,0.041059,-19.999857,-20.0,19.790892,11.073621,9.67685,297.623535,13.897367,-0.02275,-0.001033,14.559889,-5.77E-4,0.055338,0.011867,0.0,1.0,2294.122559,
30.672293,-25.940853,-24.747408,2.780812,0.041735,2.780812,0.041735,-19.999857,-20.0,19.840103,11.641863,10.090628,297.618164,13.838958,-0.02362,-0.00149,19.057219,-5.87E-4,0.05545,0.0121,0.0,1.0,2296.335205,
31.25778,-25.909859,-24.716415,2.796193,0.034978,2.796193,0.034978,-19.999857,-20.0,19.875515,12.025805,10.921732,297.615936,13.789353,-0.024175,-0.001718,19.470604,-5.96E-4,0.055616,0.012369,0.0,1.0,2297.811035,
32.134087,-25.861824,-24.668379,2.80387,0.034466,2.80387,0.034466,-19.999857,-20.0,19.930847,12.609132,11.205979,297.615662,13.700975,-0.023409,-0.001302,20.244965,-5.0E-4,0.055924,0.01248,0.0,1.0,2300.025146,
32.717575,-25.828791,-24.635347,2.807518,0.034369,2.807518,0.034369,-19.999857,-20.0,19.968548,13.002827,11.407257,297.617493,13.633904,-0.022664,-7.43E-4,20.734367,-4.92E-4,0.056077,0.012494,0.0,1.0,2301.501709,
33.593369,-25.77796,-24.584515,2.791469,0.037531,2.791469,0.037531,-19.999857,-20.0,20.02335,13.600371,10.123655,297.622803,13.523095,-0.021369,4.83E-4,21.20746,-4.91E-4,0.05615,0.012402,0.0,1.0,2303.717529,
34.178516,-25.743998,-24.550552,2.791363,0.037768,2.791363,0.037768,-19.999857,-20.0,20.057468,14.003304,10.33736,297.627686,13.443565,-0.020369,0.001353,21.0993,-5.36E-4,0.055829,0.012137,0.0,1.0,2305.196533,
35.053791,-25.693069,-24.499624,2.800133,0.037943,2.800133,0.037943,-19.999857,-20.0,20.109909,14.614347,10.625326,297.634735,13.31784,-0.018882,0.002443,21.170679,-5.4E-4,0.055827,0.011893,0.0,1.0,2307.41748,
35.63554,-25.658911,-24.465466,2.81499,0.031843,2.81499,0.031843,-19.999857,-20.0,20.146748,15.026011,11.708522,297.638306,13.230972,-0.018563,0.002728,21.353785,-5.42E-4,0.056003,0.01154,0.0,1.0,2308.898926,
36.504795,-25.606495,-24.41305,2.826191,0.030937,2.826191,0.030937,-19.999857,-20.0,20.205784,15.649722,11.934956,297.6409,13.098315,-0.017416,0.002898,22.019115,-4.55E-4,0.0563,0.011362,0.0,1.0,2311.121826,
37.083385,-25.570662,-24.377216,2.829982,0.031741,2.829982,0.031741,-19.999857,-20.0,20.245884,16.069553,12.11761,297.640503,13.009472,-0.017307,0.002689,22.452557,-4.42E-4,0.056524,0.011232,0.0,1.0,2312.604004,
37.949688,-25.51565,-24.322206,2.835571,0.033269,2.835571,0.033269,-19.999857,-20.0,20.307188,16.705137,12.397637,297.636871,12.877346,-0.018001,0.001941,23.083632,-4.53E-4,0.0566,0.011252,0.0,1.0,2314.827637,
38.527008,-25.478197,-24.284752,2.826786,0.035442,2.826786,0.035442,-19.999857,-20.0,20.347046,17.132639,11.400928,297.632813,12.79095,-0.018434,0.001287,23.375847,-4.75E-4,0.056711,0.011433,0.0,1.0,2316.310547,
39.393124,-25.421864,-24.228418,2.82937,0.03647,2.82937,0.03647,-19.999857,-20.0,20.404791,17.779402,11.702025,297.625854,12.665277,-0.020285,2.35E-4,23.399054,-5.06E-4,0.056536,0.011636,0.0,1.0,2318.536377,
39.96899,-25.384172,-24.190729,2.833611,0.039749,2.833611,0.039749,-19.999857,-20.0,20.444174,18.214138,11.861835,297.621094,12.584878,-0.020463,-3.38E-4,23.502459,-5.21E-4,0.056587,0.011984,0.0,1.0,2320.020996,
40.830715,-25.327278,-24.133833,2.842171,0.039195,2.842171,0.039195,-19.999857,-20.0,20.504213,18.871395,12.142934,297.615082,12.470551,-0.022372,-0.001021,23.720951,-5.68E-4,0.056672,0.012222,0.0,1.0,2322.248291,
41.403843,-25.288944,-24.095499,2.847433,0.039212,2.847433,0.039212,-19.999857,-20.0,20.544996,19.312895,12.319258,297.612518,12.399191,-0.023171,-0.001184,15.253204,-5.6E-4,0.056843,0.012523,0.0,1.0,2323.733643,
42.261826,-25.230774,-24.037329,2.846087,0.036702,2.846087,0.036702,-19.999857,-20.0,20.606546,19.979958,11.63366,297.611603,12.300483,-0.023672,-9.92E-4,18.419268,-5.6E-4,0.056949,0.012651,0.0,1.0,2325.961426,
42.834061,-25.191893,-23.998447,2.846039,0.03651,2.846039,0.03651,-19.999857,-20.0,20.645525,20.427788,11.782852,297.613281,12.240777,-0.023292,-4.85E-4,17.830194,-5.24E-4,0.056922,0.012697,0.0,1.0,2327.447266,
43.689796,-25.13372,-23.940277,2.8538,0.036448,2.8538,0.036448,-19.999857,-20.0,20.705124,21.104044,12.043184,297.618134,12.161155,-0.022093,5.45E-4,18.995447,-5.22E-4,0.056921,0.012613,0.0,1.0,2330.100342,
44.258648,-25.094788,-23.901342,2.859053,0.036578,2.859053,0.036578,-19.999857,-20.0,20.74556,21.557789,12.207917,297.622284,12.115084,-0.021032,0.00129,19.038677,-5.21E-4,0.057076,0.01237,0.0,1.0,2332.660645,
45.110725,-25.036032,-23.842588,2.863383,0.035461,2.863383,0.035461,-19.999857,-20.0,20.80715,22.242613,12.165076,297.628235,12.056988,-0.019755,0.002169,18.040571,-5.23E-4,0.057181,0.012163,0.0,1.0,2337.283447,
45.681934,-24.997128,-23.803684,2.83858,0.03444,2.83858,0.03444,-19.999857,-20.0,20.840876,22.701918,9.736647,297.631775,12.025762,-0.018605,0.002642,18.402731,-5.07E-4,0.057268,0.011865,0.0,1.0,2340.700684,
46.538628,-24.941055,-23.74761,2.844033,0.034824,2.844033,0.034824,-19.999857,-20.0,20.890263,23.394924,10.000595,297.634949,11.990223,-0.01752,0.002929,17.858252,-4.92E-4,0.056772,0.011688,0.0,1.0,2346.133057,
47.108849,-24.904722,-23.711279,2.850706,0.035479,2.850706,0.035479,-19.999857,-20.0,20.923857,23.859558,10.14617,297.634766,11.974017,-0.017282,0.002743,17.397142,-4.97E-4,0.056881,0.01153,0.0,1.0,2349.884766,
47.963425,-24.851248,-23.657803,2.858839,0.036916,2.858839,0.036916,-19.999857,-20.0,20.975105,24.560345,10.345538,297.630951,11.960675,-0.0178,0.001954,16.94692,-5.07E-4,0.057014,0.011539,0.0,1.0,2355.630615,
48.5327,-24.816053,-23.62261,2.863677,0.038051,2.863677,0.038051,-19.999857,-20.0,21.009813,25.030029,10.473259,297.626404,11.958827,-0.018679,0.001187,16.783579,-5.27E-4,0.057177,0.011729,0.0,1.0,2359.512939,
49.386169,-24.763525,-23.57008,2.87034,0.039804,2.87034,0.039804,-19.999857,-20.0,21.062674,25.73819,10.66489,297.618103,11.966014,-0.020544,-4.7E-5,16.64036,-5.44E-4,0.057274,0.011957,0.0,1.0,2365.384766,
49.9547,-24.728548,-23.535103,2.8749,0.040934,2.8749,0.040934,-19.999857,-20.0,21.098448,26.21266,10.793314,297.612335,11.977018,-0.021944,-7.94E-4,16.672356,-5.69E-4,0.057407,0.012372,0.0,1.0,2369.321777,
50.807148,-24.675957,-23.482513,2.881539,0.04234,2.881539,0.04234,-19.999857,-20.0,21.152912,26.927807,10.986587,297.605316,12.002042,-0.023851,-0.001527,16.764561,-5.85E-4,0.057498,0.01266,0.0,1.0,2375.250488,
51.375229,-24.640722,-23.447277,2.88596,0.042664,2.88596,0.042664,-19.999857,-20.0,21.189856,27.406811,11.213255,297.602264,12.023913,-0.025299,-0.001727,16.872704,-6.05E-4,0.057631,0.013011,0.0,1.0,2379.214844,
52.225304,-24.587046,-23.393602,2.902383,0.024226,2.902383,0.024226,-19.999857,-20.0,21.249823,28.128563,12.290154,297.600647,12.063799,-0.025743,-0.001905,17.430367,-6.09E-4,0.057719,0.013164,0.0,1.0,2385.174561,
52.791538,-24.550343,-23.356897,2.907439,0.024377,2.907439,0.024377,-19.999857,-20.0,21.290998,28.611834,12.410572,297.601898,12.094847,-0.025204,-0.001375,17.940357,-3.46E-4,0.058048,0.013245,0.0,1.0,2389.154541,
53.640953,-24.493969,-23.300526,2.912851,0.024761,2.912851,0.024761,-19.999857,-20.0,21.35354,29.339808,12.60351,297.606018,12.147285,-0.023746,-3.21E-4,18.581526,-3.48E-4,0.058149,0.013182,0.0,1.0,2395.134766,
54.207058,-24.455593,-23.26215,2.916903,0.02499,2.916903,0.02499,-19.999857,-20.0,21.395786,29.827116,12.7387,297.60965,12.185645,-0.022497,4.22E-4,21.231621,-3.54E-4,0.058257,0.012976,0.0,1.0,2399.128662,
55.055885,-24.396927,-23.203484,2.92313,0.025457,2.92313,0.025457,-19.999857,-20.0,21.460001,30.560976,12.94172,297.614685,12.247396,-0.020537,0.001333,18.120361,-3.57E-4,0.058338,0.012795,0.0,1.0,2405.12915,
55.621502,-24.357119,-23.163675,2.927456,0.025882,2.927456,0.025882,-19.999857,-20.0,21.503382,31.052101,13.08036,297.617065,12.290838,-0.019369,0.00171,22.934326,-3.64E-4,0.058463,0.012543,0.0,1.0,2409.13623,
56.469467,-24.296408,-23.102964,2.93366,0.026785,2.93366,0.026785,-19.999857,-20.0,21.569304,31.791523,13.283983,297.618042,12.358461,-0.018121,0.001801,18.788057,-3.7E-4,0.058549,0.012424,0.0,1.0,2415.156494,
57.034405,-24.255291,-23.061846,2.937905,0.02752,2.937905,0.02752,-19.999857,-20.0,21.613823,32.286247,13.421284,297.61676,12.404613,-0.017727,0.001555,18.945496,-3.83E-4,0.058673,0.012375,0.0,1.0,2419.17627,
57.883617,-24.193001,-22.999557,2.910889,0.029345,2.910889,0.029345,-19.999857,-20.0,21.673912,33.030926,9.000408,297.612457,12.474425,-0.017886,8.86E-4,24.185921,-3.93E-4,0.058758,0.012439,0.0,1.0,2425.21582,
Command_Fault: set /instrumentation/magnetic-compass/serviceable false
Command_Fault: set /instrumentation/altimeter/serviceable false
58.453701,-24.153244,-22.959801,2.905397,0.03008,2.905397,0.03008,-19.999857,-20.0,21.704184,33.52911,9.166615,297.609009,12.520691,-0.018275,3.92E-4,18.430264,-4.19E-4,0.058218,0.012654,0.0,1.0,2429.255127,
59.306103,-24.134064,-22.94062,2.915136,0.031287,2.915136,0.031287,-19.999857,-20.0,21.75061,34.278908,9.384876,297.603088,12.543579,-0.019236,-3.68E-4,17.843819,-4.3E-4,0.058108,0.012827,0.0,1.0,2435.329346,
59.873367,-24.134064,-22.94062,2.92112,0.032119,2.92112,0.032119,-19.999857,-20.0,21.782097,34.780403,9.498227,297.599121,12.543579,-0.019982,-8.1E-4,17.137074,-4.47E-4,0.058303,0.013123,0.0,1.0,2439.386963,
60.722481,-24.134064,-22.94062,2.93434,0.024877,2.93434,0.024877,-19.999857,-20.0,21.831944,35.535,10.585375,297.594269,12.543579,-0.020991,-0.001415,16.550142,-4.59E-4,0.058422,0.013321,0.0,1.0,2445.494629,
61.287098,-24.134064,-22.94062,2.940068,0.025397,2.940068,0.025397,-19.999857,-20.0,21.867395,36.039574,10.678025,297.592407,12.543579,-0.021418,-0.001416,16.536827,-3.55E-4,0.058687,0.013564,0.0,1.0,2449.621094,
62.133434,-24.134064,-22.94062,2.945177,0.02654,2.945177,0.02654,-19.999857,-20.0,21.921143,36.798626,10.819279,297.59198,12.543579,-0.02168,-0.001042,16.589008,-3.63E-4,0.058801,0.013657,0.0,1.0,2455.879639,
62.697144,-24.134064,-22.94062,2.948886,0.027223,2.948886,0.027223,-19.999857,-20.0,21.957384,37.306072,10.922246,297.593109,12.543579,-0.021566,-6.06E-4,16.661858,-3.79E-4,0.058904,0.013678,0.0,1.0,2460.083252,
63.545506,-24.134064,-22.94062,2.91963,0.028358,2.91963,0.028358,-19.999857,-20.0,22.001089,38.069324,6.141421,297.596405,12.543579,-0.020984,2.24E-4,15.825976,-3.89E-4,0.058978,0.013622,0.0,1.0,2466.421387,
64.113823,-24.134064,-22.94062,2.917368,0.028981,2.917368,0.028981,-19.999857,-20.0,22.021769,38.579548,6.265256,297.599518,12.543579,-0.020386,8.38E-4,14.213729,-4.05E-4,0.058393,0.013457,0.0,1.0,2470.669678,
Command: fly_strait
64.963722,-24.134064,-22.94062,2.926518,0.032235,2.926518,0.032235,-19.999857,-20.0,22.053524,39.346897,6.421013,297.590637,12.543579,-0.020424,-8.15E-4,16.109446,-4.14E-4,0.058347,0.0,0.0,1.0,2477.065186,
65.528954,-24.134064,-22.94062,2.931522,0.033652,2.931522,0.033652,-19.999857,-20.0,22.075066,39.859768,6.496983,297.55188,12.543579,-0.022299,-0.007073,13.873906,-4.61E-4,0.05853,4.44E-4,0.0,1.0,2481.3396,
66.374084,-24.134064,-22.94062,2.937045,0.033061,2.937045,0.033061,-19.999857,-20.0,22.107817,40.63092,6.600753,297.454681,12.543579,-0.029169,-0.021315,15.507954,-4.81E-4,0.05863,0.002382,0.0,1.0,2487.760254,
66.935387,-24.134064,-22.94062,2.94096,0.031629,2.94096,0.031629,-19.999857,-20.0,22.129946,41.146187,6.673675,297.376465,12.543579,-0.036164,-0.031659,15.046463,-4.72E-4,0.058741,0.007242,0.0,1.0,2492.043213,
67.774261,-24.134064,-22.94062,2.947192,0.028155,2.947192,0.028155,-19.999857,-20.0,22.16361,41.920715,6.789203,297.270416,12.543579,-0.04791,-0.0433,17.990486,-4.52E-4,0.058819,0.011153,0.0,1.0,2498.466064,
68.33181,-24.134064,-22.94062,2.95452,0.01403,2.95452,0.01403,-19.999857,-20.0,22.187674,42.438084,8.17795,297.220123,12.543579,-0.055646,-0.04714,22.151005,-4.02E-4,0.058944,0.016455,0.0,1.0,2502.746582,
69.167435,-24.134064,-22.94062,2.929641,-0.067785,2.929641,-0.067785,-19.999857,-20.0,22.23135,43.215561,9.33122,297.195831,12.543579,-0.064001,-0.045528,12.808751,-2.0E-4,0.05909,0.01897,0.0,1.0,2509.167969,
69.72673,-24.134064,-22.94062,2.87885,-0.179736,2.87885,-0.179736,-19.999857,-20.0,22.263336,43.734791,9.756553,297.217529,12.543579,-0.065513,-0.039952,17.749653,9.68E-4,0.058593,0.020184,0.0,1.0,2513.457764,
70.568794,-24.134064,-22.94062,2.793002,-0.376422,2.793002,-0.376422,-19.999857,-20.0,22.31229,44.515018,9.743624,297.298645,12.543579,-0.06024,-0.025743,22.60858,0.002568,0.057577,0.019099,0.0,1.0,2519.916504,
71.132027,-24.134064,-22.94062,2.743421,-0.500002,2.743421,-0.500002,-19.999857,-20.0,22.344608,45.036121,9.597446,297.370636,12.543579,-0.052216,-0.014585,14.400291,0.005377,0.05586,0.015044,0.0,1.0,2524.240723,
71.977165,-24.134064,-22.94062,2.692879,-0.65324,2.692879,-0.65324,-19.999857,-20.0,22.392241,45.819241,9.531594,297.464325,12.543579,-0.036369,-0.00174,19.66869,0.007143,0.054868,0.011444,0.0,1.0,2530.753418,
72.538795,-24.134064,-22.94062,2.661634,-0.750926,2.661634,-0.750926,-19.999857,-20.0,22.424345,46.342262,9.692911,297.497009,12.543579,-0.025452,9.99E-4,16.517445,0.009332,0.053858,0.00676,0.0,1.0,2535.105469,
73.383362,-24.134064,-22.94062,2.569799,-0.933936,2.569799,-0.933936,-19.999857,-20.0,22.462212,47.128139,4.864455,297.474945,12.543579,-0.013591,-0.007622,16.209257,0.010728,0.053233,0.005125,0.0,1.0,2541.643555,
73.950783,-24.134064,-22.94062,2.504017,-1.081006,2.504017,-1.081006,-19.999857,-20.0,22.477928,47.652962,4.573274,297.411957,12.543579,-0.005915,-0.020702,13.194471,0.013342,0.051396,0.006229,0.0,1.0,2546.018799,
74.800362,-24.134064,-22.94062,2.447864,-1.266145,2.447864,-1.266145,-19.999857,-20.0,22.500799,48.441555,4.787716,297.260834,12.543579,-8.8E-4,-0.045864,14.411209,0.015443,0.05008,0.009378,0.0,1.0,2552.603027,
75.365509,-24.134064,-22.94062,2.437132,-1.402766,2.437132,-1.402766,-19.999857,-20.0,22.518808,48.968182,6.121696,297.137024,12.543579,-0.002124,-0.064465,13.508166,0.018088,0.048957,0.016934,0.0,1.0,2557.00415,
76.204903,-24.134064,-22.94062,2.517608,-1.72517,2.517608,-1.72517,-19.999857,-20.0,22.560566,49.759407,12.367439,296.957642,12.543579,-0.008355,-0.090539,14.160141,0.02004,0.048743,0.023125,0.0,1.0,2563.609131,
76.755104,-24.134064,-22.94062,2.606083,-2.000887,2.606083,-2.000887,-19.999857,-20.0,22.621105,50.287632,24.390917,296.861115,12.543579,-0.011021,-0.103346,18.678272,0.024645,0.050352,0.032094,0.0,1.0,2568.003418,
77.556831,-24.134064,-22.94062,2.737244,-2.366851,2.737244,-2.366851,-19.999857,-20.0,22.804831,51.08065,49.262646,296.777283,12.543579,-0.012278,-0.109399,21.803904,0.028584,0.052122,0.03692,0.0,1.0,2574.559082,
78.070717,-24.134064,-22.94062,2.839339,-2.541908,2.839339,-2.541908,-19.999857,-20.0,23.001255,51.609474,68.123505,296.756531,12.543579,-0.010435,-0.105906,23.559841,0.033812,0.054745,0.041112,0.0,1.0,2578.88501,
78.80809,-24.134064,-22.94062,3.002931,-2.653206,3.002931,-2.653206,-19.999857,-20.0,23.419188,52.402309,98.443336,296.752167,12.543579,-0.004008,-0.093853,38.325886,0.036313,0.056787,0.042149,0.0,1.0,2585.268311,
79.275192,-24.134064,-22.94062,3.125335,-2.6356,3.125335,-2.6356,-19.999857,-20.0,23.783535,52.930199,119.480675,296.744537,12.543579,0.002107,-0.085634,50.233025,0.037903,0.060059,0.042368,0.0,1.0,2589.432129,
79.940628,-24.134064,-22.94062,3.290777,-2.503925,3.290777,-2.503925,-19.999857,-20.0,24.46228,53.720268,150.81015,296.695435,12.543579,0.011995,-0.078457,70.625168,0.037651,0.062507,0.042749,0.0,1.0,2595.508545,
80.362434,-24.134064,-22.94062,3.396789,-2.375727,3.396789,-2.375727,-19.999857,-20.0,24.999165,54.245373,170.414886,296.628357,12.543579,0.01756,-0.078781,85.427032,0.03577,0.065816,0.045204,0.0,1.0,2599.311523,
80.968399,-24.134064,-22.94062,3.523571,-2.183587,3.523571,-2.183587,-19.999857,-20.0,25.923378,55.029942,198.287064,296.487946,12.543579,0.022875,-0.085258,108.609589,0.033939,0.067936,0.048558,0.0,1.0,2603.918701,
81.355774,-24.134064,-22.94062,3.607132,-2.070915,3.607132,-2.070915,-19.999857,-20.0,26.615301,55.550591,216.125732,296.381561,12.543579,0.024132,-0.091265,124.572098,0.031194,0.070471,0.055579,0.0,1.0,2606.443604,
81.912849,-24.134064,-22.94062,3.727026,-1.94745,3.727026,-1.94745,-19.999857,-20.0,27.763002,56.327415,242.074249,296.244049,12.543579,0.023603,-0.09641,148.695068,0.029584,0.072143,0.060898,0.0,1.0,2609.68042,
82.268211,-24.134064,-22.94062,3.814734,-1.880062,3.814734,-1.880062,-19.999857,-20.0,28.59939,56.842239,259.121887,296.182709,12.543579,0.023102,-0.094854,164.828583,0.027821,0.074541,0.067773,0.0,1.0,2611.574951,
82.776962,-24.134064,-22.94062,3.937656,-1.77895,3.937656,-1.77895,-19.999857,-20.0,29.959846,57.609356,284.11203,296.154785,12.543579,0.024088,-0.082641,188.845154,0.026858,0.076295,0.07084,0.0,1.0,2614.138916,
83.096558,-24.134064,-22.94062,4.022881,-1.688207,4.022881,-1.688207,-19.999857,-20.0,30.93483,58.117035,300.474518,296.173279,12.543579,0.027135,-0.069193,205.015137,0.025414,0.078753,0.072237,0.0,1.0,2615.706055,
83.553162,-24.134064,-22.94062,4.142583,-1.505842,4.142583,-1.505842,-19.999857,-20.0,32.507374,58.872402,328.273041,296.229462,12.543579,0.035147,-0.046183,229.15033,0.024117,0.080458,0.071312,0.0,1.0,2617.893311,
83.8395,-24.134064,-22.94062,4.237933,-1.35252,4.237933,-1.35252,-19.999857,-20.0,33.636395,59.371559,348.658905,296.264893,12.543579,0.042069,-0.032485,245.438339,0.021512,0.082852,0.068503,0.0,1.0,2619.262207,
84.242035,-24.134064,-22.94062,4.385257,-1.108721,4.385257,-1.108721,-9.999858,-10.0,35.459709,60.113125,378.759918,296.282318,12.543579,0.052822,-0.019904,270.604492,0.019322,0.084759,0.066731,0.0,1.0,2621.203613,
84.495491,-24.134064,-22.94062,4.477108,-0.951121,4.477108,-0.951121,-9.999858,-10.0,36.751682,60.602482,395.39389,296.263245,12.543579,0.05868,-0.017484,287.735687,0.015839,0.087705,0.06586,0.0,1.0,2622.432129,
84.863304,-24.134064,-22.94062,4.554222,-0.767444,4.554222,-0.767444,-9.999858,-10.0,38.781895,61.328712,415.465057,296.199799,12.543579,0.0641,-0.020788,313.158417,0.013587,0.089542,0.066814,0.0,1.0,2624.192139,
85.103424,-24.134064,-22.94062,4.590733,-0.683624,4.590733,-0.683624,-9.999858,-10.0,40.187534,61.807579,427.336456,296.149231,12.543579,0.065169,-0.024747,329.498566,0.010963,0.091084,0.069986,0.0,1.0,2625.31958,
85.454803,-24.134064,-22.94062,4.6516,-0.621784,4.6516,-0.621784,-9.999858,-10.0,42.367634,62.517872,444.155975,296.094604,12.543579,0.064279,-0.027826,352.748993,0.009766,0.091815,0.072514,0.0,1.0,2626.952881,
85.681648,-24.134064,-22.94062,4.706505,-0.603731,4.706505,-0.603731,-9.999858,-10.0,43.867962,62.985996,455.71225,296.084747,12.543579,0.063456,-0.025881,367.409729,0.008883,0.093032,0.075246,0.0,1.0,2628.006348,
86.008667,-24.134064,-22.94062,4.791185,-0.581454,4.791185,-0.581454,-9.999858,-10.0,46.193584,63.67992,474.239166,296.117249,12.543579,0.063735,-0.016001,388.471313,0.008625,0.09413,0.075739,0.0,1.0,2629.535645,
86.216988,-24.134064,-22.94062,4.852113,-0.551109,4.852113,-0.551109,1.42E-4,0.0,47.796871,64.136917,487.338013,296.163055,12.543579,0.065815,-0.006156,402.009308,0.008306,0.095824,0.074113,0.0,1.0,2630.517578,
86.515373,-24.134064,-22.94062,4.935719,-0.469572,4.935719,-0.469572,1.42E-4,0.0,50.285088,64.813789,507.314789,296.239258,12.543579,0.071496,0.008585,421.900391,0.007873,0.097042,0.071823,0.0,1.0,2631.929199,
86.70607,-24.134064,-22.94062,4.993439,-0.395158,4.993439,-0.395158,1.42E-4,0.0,51.998932,65.259216,520.500671,296.278931,12.543579,0.076042,0.015777,434.925385,0.006708,0.098714,0.068013,0.0,1.0,2632.833008,
86.982285,-24.134064,-22.94062,5.070306,-0.281241,5.070306,-0.281241,1.42E-4,0.0,54.652245,65.918518,540.191162,296.299438,12.543579,0.082089,0.019089,454.474945,0.005645,0.099869,0.066029,0.0,1.0,2634.140381,
87.16098,-24.134064,-22.94062,5.124329,-0.218835,5.124329,-0.218835,1.42E-4,0.0,56.475273,66.352142,553.126587,296.286621,12.543579,0.084281,0.01658,467.403046,0.004018,0.101406,0.065004,0.0,1.0,2634.983643,
87.422134,-24.134064,-22.94062,5.197455,-0.173674,5.197455,-0.173674,10.000142,10.0,59.289825,66.993706,571.996277,296.2435,12.543579,0.08431,0.008594,486.578979,0.003126,0.102487,0.065645,0.0,1.0,2636.212158,
87.59317,-24.134064,-22.94062,5.248881,-0.175396,5.248881,-0.175396,10.000142,10.0,61.217876,67.415527,584.391785,296.213776,12.543579,0.082414,0.003189,499.251892,0.002481,0.103949,0.067801,0.0,1.0,2637.009521,
87.83728,-24.134064,-22.94062,5.321821,-0.214076,5.321821,-0.214076,10.000142,10.0,64.187698,68.039444,602.95282,296.195221,12.543579,0.078353,-4.8E-4,518.234314,0.002506,0.104978,0.069287,0.0,1.0,2638.175293,
87.994728,-24.134064,-22.94062,5.376422,-0.246712,5.376422,-0.246712,10.000142,10.0,66.21891,68.449516,615.351196,296.207886,12.543579,0.07622,0.0012,530.740112,0.003058,0.106436,0.070215,0.0,1.0,2638.932373,
88.221809,-24.134064,-22.94062,5.45475,-0.274911,5.45475,-0.274911,10.000142,10.0,69.344025,69.055786,634.134094,296.260925,12.543579,0.075242,0.009149,549.242371,0.003524,0.107528,0.069582,0.0,1.0,2640.036133,
88.361877,-24.134064,-22.94062,5.511146,-0.270771,5.511146,-0.270771,20.000143,20.0,71.479485,69.454033,646.701355,296.308594,12.543579,0.076423,0.016147,561.592712,0.003927,0.109095,0.06693,0.0,1.0,2640.749512,
88.564339,-24.134064,-22.94062,5.586921,-0.22784,5.586921,-0.22784,20.000143,20.0,74.761444,70.042435,665.438171,296.37027,12.543579,0.080085,0.024448,579.968506,0.003868,0.110223,0.064546,0.0,1.0,2641.784668,
88.693199,-24.134064,-22.94062,5.638926,-0.185782,5.638926,-0.185782,20.000143,20.0,77.000702,70.428703,677.650208,296.393433,12.543579,0.082599,0.026697,592.206055,0.003255,0.111738,0.061462,0.0,1.0,2642.452148,
88.8797,-24.134064,-22.94062,5.7066,-0.130778,5.7066,-0.130778,20.000143,20.0,80.435089,70.9991,695.405945,296.391449,12.543579,0.084906,0.023702,610.444336,0.002654,0.112779,0.060304,0.0,1.0,2643.421875,
89.000313,-24.134064,-22.94062,5.752898,-0.11204,5.752898,-0.11204,30.000143,30.0,82.772758,71.373398,706.740234,296.371033,12.543579,0.084589,0.018607,622.502075,0.001868,0.114132,0.060403,0.0,1.0,2644.049561,
89.176292,-24.134064,-22.94062,5.814653,-0.124607,5.814653,-0.124607,30.000143,30.0,86.348946,71.925964,723.087708,296.333649,12.543579,0.081573,0.010102,640.329468,0.001601,0.115058,0.061424,0.0,1.0,2644.966309,
89.290062,-24.134064,-22.94062,5.858459,-0.154501,5.858459,-0.154501,30.000143,30.0,88.777397,72.28849,733.573364,296.317688,12.543579,0.078605,0.006163,652.089233,0.00178,0.116293,0.063293,0.0,1.0,2645.561768,
89.454308,-24.134064,-22.94062,5.919141,-0.210226,5.919141,-0.210226,40.000141,40.0,92.485001,72.823563,748.914612,296.324799,12.543579,0.074416,0.005694,669.392029,0.002207,0.117169,0.064092,0.0,1.0,2646.432129,
89.602287,-24.134064,-22.94062,5.981921,-0.248744,5.981921,-0.248744,40.000141,40.0,96.161987,73.333794,763.503845,296.367432,12.543579,0.072621,0.011135,685.847412,0.003003,0.118383,0.063736,0.0,1.0,2647.250244,
89.706665,-24.134064,-22.94062,6.027318,-0.254249,6.027318,-0.254249,40.000141,40.0,98.831711,73.69223,773.882751,296.409698,12.543579,0.073134,0.016812,697.22583,0.003553,0.119638,0.061604,0.0,1.0,2647.81665,
89.84552,-24.134064,-22.94062,6.083223,-0.226808,6.083223,-0.226808,50.000141,50.0,102.738754,74.199577,788.358093,296.463104,12.543579,0.075772,0.023416,713.451172,0.003632,0.120546,0.059491,0.0,1.0,2648.604492,
89.93425,-24.134064,-22.94062,6.117295,-0.195566,6.117295,-0.195566,50.000141,50.0,105.382523,74.532059,797.432312,296.481873,12.543579,0.077794,0.024823,724.039795,0.003425,0.121315,0.057579,0.0,1.0,2649.112305,
90.056602,-24.134064,-22.94062,6.16962,-0.154376,6.16962,-0.154376,50.000141,50.0,109.291077,75.008743,810.262024,296.480011,12.543579,0.079305,0.021953,739.173889,0.002794,0.122346,0.055882,0.0,1.0,2649.830322,
90.146469,-24.134064,-22.94062,6.20543,-0.141028,6.20543,-0.141028,50.000141,50.0,112.120583,75.343353,819.177185,296.461578,12.543579,0.078789,0.017154,749.530212,0.002205,0.123392,0.055975,0.0,1.0,2650.328369,
90.269363,-24.134064,-22.94062,6.247902,-0.156681,6.247902,-0.156681,60.000141,60.0,116.248009,75.816704,831.248779,296.42923,12.543579,0.075856,0.009572,764.354858,0.002015,0.124109,0.056897,0.0,1.0,2651.0271,
90.349304,-24.134064,-22.94062,6.277859,-0.185096,6.277859,-0.185096,60.000141,60.0,119.031952,76.126785,838.803894,296.415802,12.543579,0.07312,0.006105,773.946045,0.002238,0.124958,0.058514,0.0,1.0,2651.481934,
90.465065,-24.134064,-22.94062,6.320632,-0.235434,6.320632,-0.235434,70.000145,70.0,123.25444,76.583809,849.799805,296.422699,12.543579,0.069345,0.005682,787.815857,0.002644,0.125557,0.059186,0.0,1.0,2652.148193,
90.538589,-24.134064,-22.94062,6.35197,-0.262013,6.35197,-0.262013,70.000145,70.0,126.099556,76.883148,857.008789,296.445648,12.543579,0.068021,0.008459,796.7099,0.003363,0.126413,0.058841,0.0,1.0,2652.580811,
90.64341,-24.134064,-22.94062,6.394623,-0.272655,6.394623,-0.272655,70.000145,70.0,130.412216,77.324181,867.680054,296.494507,12.543579,0.06825,0.014911,809.849731,0.003743,0.127039,0.057694,0.0,1.0,2653.211426,
90.709518,-24.134064,-22.94062,6.424194,-0.260656,6.424194,-0.260656,80.000145,80.0,133.316513,77.612915,874.626831,296.526154,12.543579,0.069583,0.018872,818.314087,0.003895,0.127892,0.055251,0.0,1.0,2653.618896,
90.804352,-24.134064,-22.94062,6.462068,-0.224414,6.462068,-0.224414,80.000145,80.0,137.715851,78.038162,884.707397,296.552765,12.543579,0.072133,0.021109,830.612,0.003724,0.128484,0.053668,0.0,1.0,2654.210693,
90.865562,-24.134064,-22.94062,6.487262,-0.200079,6.487262,-0.200079,80.000145,80.0,140.675964,78.316467,891.096252,296.552704,12.543579,0.073129,0.019604,838.561768,0.003206,0.129241,0.052338,0.0,1.0,2654.593506,
90.955673,-24.134064,-22.94062,6.519129,-0.18421,6.519129,-0.18421,90.000145,90.0,145.155121,78.726257,900.169678,296.53067,12.543579,0.07276,0.013789,850.123535,0.002858,0.129745,0.052341,0.0,1.0,2655.152588,
91.014847,-24.134064,-22.94062,6.540945,-0.191771,6.540945,-0.191771,90.000145,90.0,148.165573,78.994431,905.861633,296.510254,12.543579,0.071128,0.00916,857.587769,0.002632,0.130383,0.053442,0.0,1.0,2655.516846,
91.102013,-24.134064,-22.94062,6.570531,-0.227429,6.570531,-0.227429,90.000145,90.0,152.716095,79.389313,914.025146,296.490723,12.543579,0.067516,0.004394,868.340149,0.00274,0.130819,0.054463,0.0,1.0,2656.052246,
91.158066,-24.134064,-22.94062,6.592131,-0.258057,6.592131,-0.258057,100.000145,100.0,155.771957,79.64772,919.284729,296.492279,12.543579,0.065273,0.003793,875.330688,0.003249,0.131411,0.05544,0.0,1.0,2656.4021,
91.238663,-24.134064,-22.94062,6.622598,-0.292864,6.622598,-0.292864,100.000145,100.0,160.388458,80.028175,927.050354,296.518646,12.543579,0.063298,0.006998,885.388428,0.003687,0.131843,0.055362,0.0,1.0,2656.915039,
91.28952,-24.134064,-22.94062,6.644649,-0.301544,6.644649,-0.301544,100.000145,100.0,163.487442,80.277092,932.161926,296.546692,12.543579,0.063357,0.010783,891.898071,0.004184,0.132452,0.054044,0.0,1.0,2657.248291,
91.361572,-24.134064,-22.94062,6.673966,-0.28728,6.673966,-0.28728,110.000145,110.0,168.167816,80.643433,939.70813,296.586212,12.543579,0.065082,0.01584,901.319946,0.004308,0.132893,0.052641,0.0,1.0,2657.734131,
91.407318,-24.134064,-22.94062,6.693738,-0.266308,6.693738,-0.266308,110.000145,110.0,171.308609,80.883018,944.57605,296.602325,12.543579,0.066565,0.017382,907.393311,0.004104,0.133479,0.050665,0.0,1.0,2658.048584,
91.473801,-24.134064,-22.94062,6.718262,-0.235395,6.718262,-0.235395,120.000145,120.0,176.049667,81.235527,951.544678,296.602386,12.543579,0.06809,0.015583,916.174194,0.003804,0.133875,0.04986,0.0,1.0,2658.507324,
91.517502,-24.134064,-22.94062,6.734447,-0.224589,6.734447,-0.224589,120.000145,120.0,179.22905,81.466034,955.90155,296.588867,12.543579,0.067923,0.012212,921.890564,0.003363,0.134365,0.049857,0.0,1.0,2658.805908,
91.582428,-24.134064,-22.94062,6.755362,-0.233896,6.755362,-0.233896,130.000137,130.0,184.024628,81.805183,962.063965,296.562073,12.543579,0.065913,0.006299,930.176941,0.003208,0.134689,0.050533,0.0,1.0,2659.245117,
91.625084,-24.134064,-22.94062,6.770272,-0.254385,6.770272,-0.254385,130.000137,130.0,187.238266,82.026962,965.959839,296.549011,12.543579,0.063849,0.003353,935.507935,0.003341,0.135107,0.051872,0.0,1.0,2659.532959,
91.687164,-24.134064,-22.94062,6.791427,-0.292982,6.791427,-0.292982,130.000137,130.0,192.082779,82.353294,971.642273,296.54953,12.543579,0.060847,0.002511,943.165466,0.003634,0.135405,0.052525,0.0,1.0,2659.95752,
91.726784,-24.134064,-22.94062,6.807227,-0.314432,6.807227,-0.314432,140.000137,140.0,195.328033,82.566681,975.377686,296.564209,12.543579,0.059725,0.004366,948.133179,0.004185,0.135829,0.052499,0.0,1.0,2660.235107,
91.782814,-24.134064,-22.94062,6.829318,-0.324781,6.829318,-0.324781,140.000137,140.0,200.21933,82.880592,980.95636,296.598785,12.543579,0.05978,0.00917,955.306702,0.004492,0.136145,0.051765,0.0,1.0,2660.642334,
91.817764,-24.134064,-22.94062,6.84484,-0.316786,6.84484,-0.316786,140.000137,140.0,203.495529,83.085793,984.6297,296.62204,12.543579,0.060809,0.012275,959.865723,0.00464,0.136586,0.050037,0.0,1.0,2660.906982,
91.867859,-24.134064,-22.94062,6.864476,-0.289572,6.864476,-0.289572,150.000137,150.0,208.432602,83.387558,989.987549,296.641785,12.543579,0.062891,0.014229,966.589417,0.004526,0.136897,0.048874,0.0,1.0,2661.293213,
91.900223,-24.134064,-22.94062,6.877259,-0.270495,6.877259,-0.270495,150.000137,150.0,211.738449,83.58477,993.377075,296.641357,12.543579,0.063788,0.013238,970.925293,0.004137,0.13729,0.047887,0.0,1.0,2661.544189,
91.948212,-24.134064,-22.94062,6.892927,-0.256994,6.892927,-0.256994,160.000137,160.0,216.717819,83.874756,998.154114,296.623352,12.543579,0.063704,0.008923,977.221619,0.003864,0.137545,0.047908,0.0,1.0,2661.913086,
91.980202,-24.134064,-22.94062,6.903532,-0.261787,6.903532,-0.261787,160.000137,160.0,220.050171,84.06427,1001.12262,296.606476,12.543579,0.062547,0.005389,981.213684,0.003671,0.137859,0.048808,0.0,1.0,2662.154785,
92.027161,-24.134064,-22.94062,6.918075,-0.288041,6.918075,-0.288041,170.000137,170.0,225.066803,84.342964,1005.362793,296.589325,12.543579,0.059852,0.001691,987.080383,0.00374,0.138071,0.049652,0.0,1.0,2662.512451,
92.057907,-24.134064,-22.94062,6.929001,-0.311061,6.929001,-0.311061,170.000137,170.0,228.422745,84.525124,1008.104614,296.58902,12.543579,0.058159,0.001195,990.893188,0.004115,0.138361,0.05051,0.0,1.0,2662.747803,
92.101875,-24.134064,-22.94062,6.944938,-0.337284,6.944938,-0.337284,170.000137,170.0,233.473816,84.792999,1012.195801,296.60733,12.543579,0.056689,0.003652,996.384827,0.004444,0.13858,0.050525,0.0,1.0,2663.094971,
92.129349,-24.134064,-22.94062,6.956729,-0.343582,6.956729,-0.343582,180.000137,180.0,236.852524,84.968056,1014.927185,296.627716,12.543579,0.056793,0.006583,999.90564,0.004818,0.138899,0.049609,0.0,1.0,2663.322021,
92.16803,-24.134064,-22.94062,6.972452,-0.331918,6.972452,-0.331918,180.000137,180.0,241.937698,85.225403,1018.999207,296.656464,12.543579,0.058242,0.010515,1004.932129,0.004908,0.139135,0.04859,0.0,1.0,2663.654785,
92.192116,-24.134064,-22.94062,6.982931,-0.315271,6.982931,-0.315271,190.000137,190.0,245.338928,85.393517,1021.636902,296.667725,12.543579,0.059474,0.011718,1008.242065,0.004742,0.139449,0.047153,0.0,1.0,2663.871094,
92.227577,-24.134064,-22.94062,6.995516,-0.290905,6.995516,-0.290905,190.000137,190.0,250.456924,85.64061,1025.396973,296.665955,12.543579,0.060764,0.010341,1013.043518,0.004504,0.139659,0.04659,0.0,1.0,2664.188477,
92.250954,-24.134064,-22.94062,7.003641,-0.282351,7.003641,-0.282351,200.000137,200.0,253.878967,85.802017,1027.725586,296.654358,12.543579,0.060689,0.007752,1016.142273,0.004156,0.13991,0.046678,0.0,1.0,2664.39624,
92.286079,-24.134064,-22.94062,7.014058,-0.289374,7.014058,-0.289374,200.000137,200.0,259.026123,86.039261,1030.993774,296.632355,12.543579,0.059196,0.003265,1020.570679,0.004034,0.140073,0.047258,0.0,1.0,2664.703369,
92.30896,-24.134064,-22.94062,7.021611,-0.304972,7.021611,-0.304972,200.000137,200.0,262.466339,86.194244,1033.053589,296.621674,12.543579,0.057648,0.001087,1023.489258,0.004134,0.140281,0.048358,0.0,1.0,2664.905518,
92.342651,-24.134064,-22.94062,7.032709,-0.333963,7.032709,-0.333963,210.000137,210.0,267.639435,86.422081,1036.073486,296.621552,12.543579,0.055432,6.32E-4,1027.697144,0.004357,0.140432,0.048892,0.0,1.0,2665.205566,
92.363922,-24.134064,-22.94062,7.041267,-0.349573,7.041267,-0.349573,210.000137,210.0,271.096466,86.570915,1038.083252,296.632568,12.543579,0.054667,0.002187,1030.393311,0.004771,0.140654,0.048898,0.0,1.0,2665.402832,
92.396652,-24.134064,-22.94062,7.053455,-0.355741,7.053455,-0.355741,220.000137,220.0,276.294708,86.789665,1041.122559,296.658356,12.543579,0.05489,0.005998,1034.212402,0.004994,0.140825,0.048347,0.0,1.0,2665.693115,
92.411674,-24.134064,-22.94062,7.062022,-0.348343,7.062022,-0.348343,220.000137,220.0,279.768616,86.932533,1043.142212,296.675262,12.543579,0.055797,0.008383,1036.744629,0.005082,0.141069,0.047058,0.0,1.0,2665.882324,
92.437469,-24.134064,-22.94062,7.072591,-0.326147,7.072591,-0.326147,230.000137,230.0,284.991974,87.142433,1046.087646,296.688324,12.543579,0.057523,0.009775,1040.411377,0.004976,0.14124,0.046213,0.0,1.0,2666.159912,
92.454102,-24.134064,-22.94062,7.07925,-0.311187,7.07925,-0.311187,230.000137,230.0,288.482147,87.27948,1047.934692,296.686401,12.543579,0.058247,0.008906,1042.777588,0.004659,0.141452,0.04556,0.0,1.0,2666.341064,
92.478844,-24.134064,-22.94062,7.087085,-0.301277,7.087085,-0.301277,240.000137,240.0,293.728577,87.48082,1050.502075,296.670593,12.543579,0.058175,0.005501,1046.17334,0.004446,0.141585,0.045656,0.0,1.0,2666.608398,
92.495537,-24.134064,-22.94062,7.092322,-0.305525,7.092322,-0.305525,240.000137,240.0,297.232971,87.612297,1052.073853,296.65686,12.543579,0.057275,0.002815,1048.408936,0.004304,0.141742,0.046446,0.0,1.0,2666.784424,
92.520454,-24.134064,-22.94062,7.09967,-0.326185,7.09967,-0.326185,240.000137,240.0,302.499146,87.805481,1054.305298,296.643555,12.543579,0.055228,1.82E-4,1051.636597,0.004365,0.141846,0.047133,0.0,1.0,2667.046143,
92.536598,-24.134064,-22.94062,7.105415,-0.343594,7.105415,-0.343594,250.000137,250.0,306.015991,87.931641,1055.755249,296.643677,12.543579,0.053999,4.0E-6,1053.703979,0.00466,0.141993,0.047798,0.0,1.0,2667.218994,
92.562416,-24.134064,-22.94062,7.114114,-0.3622,7.114114,-0.3622,250.000137,250.0,311.300415,88.117027,1057.946167,296.658234,12.543579,0.053051,0.00217,1056.565186,0.004908,0.142108,0.047792,0.0,1.0,2667.475098,
92.572891,-24.134064,-22.94062,7.120652,-0.365504,7.120652,-0.365504,260.000153,260.0,314.829437,88.238075,1059.430176,296.673767,12.543579,0.053273,0.004519,1058.402832,0.005174,0.142282,0.047064,0.0,1.0,2667.643066,
92.592186,-24.134064,-22.94062,7.129274,-0.354361,7.129274,-0.354361,260.000153,260.0,320.132355,88.415886,1061.65686,296.694519,12.543579,0.05457,0.007493,1061.269287,0.005221,0.142413,0.046288,0.0,1.0,2667.890381,
92.604202,-24.134064,-22.94062,7.134857,-0.340624,7.134857,-0.340624,270.000153,270.0,323.673706,88.531952,1063.094604,296.70166,12.543579,0.055581,0.008278,1063.096558,0.005062,0.142585,0.04525,0.0,1.0,2668.051758,
Command_Fault: set /instrumentation/magnetic-compass/serviceable true
Command_Fault: set /instrumentation/altimeter/serviceable true
92.621605,-24.134064,-22.94062,7.141195,-0.321859,7.141195,-0.321859,270.000153,270.0,328.994476,88.702415,1065.116943,296.697815,12.543579,0.05657,0.006979,1065.678589,0.004866,0.142697,0.044893,0.0,1.0,2668.289795,
92.633408,275.169983,276.363434,7.14503,-0.316046,7.14503,-0.316046,270.000153,270.0,332.547028,88.813683,1066.342163,296.687561,12.596708,0.056471,0.004887,1067.264771,0.004598,0.142824,0.045085,0.0,1.0,2668.446045,
92.651077,280.577271,281.770721,7.14989,-0.322931,7.14989,-0.322931,280.000153,280.0,337.883118,88.977104,1068.022827,296.669861,12.701737,0.05526,0.001489,1069.797119,0.004515,0.142901,0.045598,0.0,1.0,2668.678711,
92.663086,284.187317,285.380768,7.153564,-0.335545,7.153564,-0.335545,280.000153,280.0,341.445038,89.083801,1069.07605,296.661926,12.787053,0.054075,-2.3E-5,1071.402466,0.004613,0.142998,0.046483,0.0,1.0,2668.832764,
Command: turn_+45
92.680656,289.608582,290.802032,7.159286,-0.357487,7.159286,-0.357487,290.000153,290.0,346.794434,89.240555,1070.634644,296.662872,12.93546,0.052475,-3.5E-5,1073.627441,0.004794,0.143071,0.04688,0.0,1.0,2669.062012,
92.694069,293.227234,294.420685,7.164063,-0.376943,7.164063,-0.376943,290.000153,290.0,350.365021,89.342888,1071.702393,296.684479,13.046587,0.044659,0.003919,1075.033447,0.001702,0.143186,0.1,0.0,1.0,2669.213623,
92.694641,298.664215,299.857635,7.18118,-0.421646,7.18118,-0.421646,300.000153,300.0,355.727997,89.493111,1073.552856,296.936066,13.23,0.039003,0.04411,1077.184082,0.001795,0.143281,0.1,0.0,1.0,2669.431396,
92.682938,302.293396,303.486847,7.202771,-0.355286,7.202771,-0.355286,300.000153,300.0,359.309692,89.590935,1075.526978,297.210632,13.364524,0.04829,0.086056,1078.55957,0.002008,0.143624,0.1,0.0,1.0,2669.560547,
92.642593,307.745239,308.93869,7.233761,-0.049464,7.233761,-0.049464,310.000153,310.0,364.697662,89.733795,1079.714111,297.646332,13.584904,0.076363,0.148826,1080.619995,0.001692,0.144055,0.1,0.0,1.0,2669.712158,
92.605774,311.385193,312.578613,7.247879,0.270544,7.247879,0.270544,310.000153,310.0,368.302032,89.826241,1082.799927,297.886078,13.741438,0.099254,0.17978,1081.990601,2.36E-4,0.144675,0.1,0.0,1.0,2669.781982,
92.547997,316.85907,318.052521,7.249875,0.825145,7.249875,0.825145,320.000153,320.0,373.726563,89.960503,1086.61438,298.107635,13.98035,0.130735,0.200495,1084.356201,-0.001288,0.144958,0.1,0.0,1.0,2669.847168,
92.514214,320.516663,321.710083,7.24472,1.188604,7.24472,1.188604,320.000153,320.0,377.35141,90.047081,1088.096802,298.161469,14.134086,0.145569,0.197793,1086.042603,-0.003929,0.144998,0.1,0.0,1.0,2669.875,
92.474686,326.014648,327.208099,7.234975,1.628209,7.234975,1.628209,330.000153,330.0,382.794464,90.172783,1088.824219,298.145447,14.34115,0.155525,0.177159,1088.64978,-0.00566,0.144894,0.1,0.0,1.0,2669.911377,
92.455544,329.686432,330.879883,7.22839,1.83303,7.22839,1.83303,330.000153,330.0,386.423431,90.254005,1088.46521,298.110809,14.45577,0.154458,0.159651,1090.360718,-0.007753,0.144699,0.1,0.0,1.0,2669.939453,
92.434967,335.200867,336.394287,7.220427,2.002393,7.220427,2.002393,330.000153,330.0,391.862579,90.372322,1087.129639,298.091675,14.583382,0.145356,0.139018,1092.74353,-0.008729,0.144568,0.1,0.0,1.0,2669.994873,
92.424568,338.879822,340.073273,7.215021,2.050637,7.215021,2.050637,340.000153,340.0,395.484406,90.449043,1085.9823,298.129395,14.636477,0.13745,0.1336,1094.140137,-0.009535,0.144409,0.1,0.0,1.0,2670.041016,
92.409927,344.399506,345.592926,7.208565,2.07995,7.208565,2.07995,340.000153,340.0,400.909821,90.561119,1084.28479,298.280121,14.668447,0.127734,0.140235,1095.87146,-0.009765,0.1443,0.1,0.0,1.0,2670.120605,
92.398628,348.078827,349.272278,7.205049,2.10415,7.205049,2.10415,350.000153,350.0,404.522491,90.633881,1083.370239,298.436829,14.660014,0.12457,0.152991,1096.7677,-0.009905,0.144171,0.1,0.0,1.0,2670.17749,
92.377014,353.595795,354.789246,7.202106,2.184973,7.202106,2.184973,350.000153,350.0,409.936798,90.74012,1082.484985,298.724457,14.607661,0.125685,0.178784,1097.746094,-0.01002,0.144101,0.1,0.0,1.0,2670.260986,
92.359352,357.272095,358.465515,7.200472,2.276963,7.200472,2.276963,360.000153,360.0,413.544525,90.808975,1082.206543,298.92807,14.549134,0.129641,0.196458,1098.187012,-0.010405,0.144042,0.1,0.0,1.0,2670.312256,
92.329765,362.783966,363.977386,7.1976,2.460905,7.1976,2.460905,360.000153,360.0,418.955017,90.909279,1082.013794,299.217255,14.42975,0.137996,0.218084,1098.60437,-0.010843,0.144009,0.1,0.0,1.0,2670.380615,
92.309494,366.455872,367.649323,7.194705,2.601221,7.194705,2.601221,370.000153,370.0,422.561493,90.974144,1081.867432,299.387207,14.330612,0.143523,0.227506,1098.706665,-0.011719,0.143952,0.1,0.0,1.0,2670.420898,
92.281235,371.96344,373.156891,7.189389,2.804377,7.189389,2.804377,370.000153,370.0,427.969757,91.068497,1081.379639,299.604248,14.154242,0.149602,0.233897,1098.833252,-0.012387,0.143894,0.1,0.0,1.0,2670.477295,
92.26461,375.633545,376.826996,7.184985,2.92288,7.184985,2.92288,380.000153,380.0,431.573395,91.129501,1080.797607,299.729858,14.019077,0.151484,0.234339,1098.835327,-0.013354,0.143788,0.1,0.0,1.0,2670.514893,
92.243423,381.135834,382.329254,7.178363,3.057158,7.178363,3.057158,380.000153,380.0,436.974365,91.2183,1079.55188,299.908478,13.791974,0.151142,0.23257,1098.718506,-0.013918,0.1437,0.1,0.0,1.0,2670.574707,
92.231483,384.801636,385.995087,7.173344,3.119549,7.173344,3.119549,380.000153,380.0,440.571136,91.275795,1078.529663,300.032623,13.626185,0.149378,0.231817,1098.554077,-0.014558,0.143567,0.1,0.0,1.0,2670.618408,
92.215752,390.29599,391.489441,7.166259,3.179834,7.166259,3.179834,390.000153,390.0,445.959503,91.359619,1076.861328,300.241333,13.360419,0.145894,0.233682,1098.163818,-0.014855,0.143467,0.1,0.0,1.0,2670.690186,
92.205948,393.955505,395.148956,7.161213,3.208428,7.161213,3.208428,390.000153,390.0,449.547119,91.413963,1075.751953,300.399261,13.175186,0.143845,0.237499,1097.802612,-0.015142,0.143325,0.1,0.0,1.0,2670.741699,
92.191086,399.439087,400.632538,7.1547,3.249038,7.1547,3.249038,400.000153,400.0,454.921814,91.493263,1074.215088,300.662415,12.89171,0.14216,0.246559,1097.112549,-0.015278,0.143224,0.1,0.0,1.0,2670.82251,
92.180687,403.08844,404.281891,7.150359,3.282156,7.150359,3.282156,400.000153,400.0,458.500977,91.544685,1073.318115,300.850342,12.702879,0.142163,0.253936,1096.438354,-0.015472,0.143094,0.1,0.0,1.0,2670.877686,
92.163918,408.560486,409.753937,7.144938,3.345332,7.144938,3.345332,410.000153,410.0,463.864471,91.619675,1072.154419,301.139923,12.42625,0.143616,0.265106,1095.567139,-0.015629,0.143007,0.1,0.0,1.0,2670.960449,
92.152542,412.204407,413.397858,7.141257,3.396162,7.141257,3.396162,410.000153,410.0,467.437134,91.668266,1071.472778,301.332001,12.2496,0.145154,0.271663,1094.918335,-0.01593,0.142899,0.1,0.0,1.0,2671.015137,
92.135574,417.664398,418.857849,7.136356,3.477795,7.136356,3.477795,420.000153,420.0,472.791962,91.739075,1070.498901,301.612122,12.001241,0.147548,0.279166,1093.879272,-0.016172,0.142825,0.1,0.0,1.0,2671.09668,
92.12767,421.29715,422.490601,7.132833,3.531886,7.132833,3.531886,420.000153,420.0,476.359192,91.784935,1069.84021,301.792358,11.849208,0.148797,0.282536,1092.973999,-0.016561,0.142727,0.1,0.0,1.0,2671.151123,
92.109344,426.746857,427.940308,7.127913,3.603456,7.127913,3.603456,430.000153,430.0,481.705688,91.851768,1068.781616,302.055298,11.645103,0.149786,0.285647,1091.963745,-0.016819,0.142657,0.1,0.0,1.0,2671.234131,
92.100273,430.376251,431.569672,7.124301,3.643217,7.124301,3.643217,430.000153,430.0,485.266998,91.895065,1068.022949,302.228516,11.526898,0.149824,0.286999,1091.259888,-0.017159,0.142558,0.1,0.0,1.0,2671.291016,
92.087791,435.813629,437.00708,7.119247,3.688744,7.119247,3.688744,440.000153,440.0,490.604034,91.958214,1066.822144,302.490906,11.379424,0.1492,0.288916,1090.11731,-0.017349,0.142486,0.1,0.0,1.0,2671.37915,
92.083405,439.434448,440.627899,7.11559,3.711921,7.11559,3.711921,440.000153,440.0,494.158691,91.999153,1066.005493,302.670166,11.302689,0.148561,0.290582,1089.319092,-0.017565,0.142385,0.1,0.0,1.0,2671.439941,
92.069382,444.862122,446.055573,7.110646,3.739483,7.110646,3.739483,440.000153,440.0,499.485596,92.058907,1064.801636,302.947815,11.222677,0.147681,0.294007,1088.230103,-0.017676,0.142312,0.1,0.0,1.0,2671.53418,
92.062424,448.476685,449.670105,7.107196,3.756316,7.107196,3.756316,450.000153,450.0,503.03363,92.097672,1064.038818,303.138611,11.194164,0.147323,0.296874,1087.477783,-0.017807,0.142213,0.1,0.0,1.0,2671.598633,
92.055305,453.892731,455.086182,7.102713,3.782516,7.102713,3.782516,450.000153,450.0,508.351013,92.154259,1062.987427,303.431183,11.19068,0.147277,0.301665,1086.322754,-0.017887,0.142144,0.1,0.0,1.0,2671.697998,
92.0578,457.498444,458.691895,7.099634,3.802382,7.099634,3.802382,460.000153,460.0,511.893311,92.190964,1062.409912,303.628418,11.215425,0.147603,0.304859,1085.471191,-0.018012,0.142054,0.1,0.0,1.0,2671.770264,
92.053459,462.90387,464.097321,7.09597,3.835634,7.09597,3.835634,460.000153,460.0,517.20343,92.244537,1061.688965,303.923981,11.294013,0.148412,0.30909,1084.341309,-0.018107,0.141993,0.1,0.0,1.0,2671.886963,
92.052704,466.504089,467.69754,7.093791,3.859305,7.093791,3.859305,470.000153,470.0,520.741699,92.279274,1061.290527,304.119354,11.37416,0.148983,0.311335,1083.59436,-0.018265,0.141919,0.1,0.0,1.0,2671.96875,
92.051727,471.89978,473.093201,7.091341,3.893466,7.091341,3.893466,470.000153,470.0,526.046753,92.329956,1060.77771,304.40918,11.535563,0.14965,0.313767,1082.504028,-0.018378,0.141876,0.1,0.0,1.0,2672.095459,
92.051262,475.494049,476.687469,7.089759,3.914224,7.089759,3.914224,480.000153,480.0,529.582214,92.362816,1060.475098,304.600677,11.67005,0.149881,0.314885,1081.80603,-0.01854,0.141827,0.1,0.0,1.0,2672.182129,
92.050636,480.879517,482.072937,7.087767,3.939999,7.087767,3.939999,480.000153,480.0,534.883423,92.410759,1060.046875,304.887146,11.910697,0.149895,0.316141,1080.714111,-0.018639,0.141795,0.1,0.0,1.0,2672.315186,
92.050629,484.469147,485.662598,7.086416,3.953893,7.086416,3.953893,480.000153,480.0,538.416443,92.441856,1059.776855,305.078796,12.096072,0.149732,0.316923,1080.12793,-0.018762,0.141755,0.1,0.0,1.0,2672.405518,
92.050781,489.850189,491.04361,7.084716,3.970215,7.084716,3.970215,490.000153,490.0,543.714355,92.487236,1059.397217,305.368988,12.40958,0.149377,0.318284,1079.28894,-0.018828,0.141728,0.1,0.0,1.0,2672.542969,
92.054276,493.434143,494.627594,7.083601,3.979311,7.083601,3.979311,490.000153,490.0,547.2453,92.51667,1059.169556,305.564697,12.640948,0.149152,0.319402,1078.685913,-0.018906,0.141694,0.1,0.0,1.0,2672.635986,
92.050812,498.80838,500.001831,7.08225,3.991739,7.08225,3.991739,500.000153,500.0,552.540344,92.559631,1058.873657,305.861572,13.019163,0.14895,0.32137,1077.932251,-0.018949,0.141672,0.1,0.0,1.0,2672.776611,
92.050835,502.390137,503.583588,7.081389,4.000218,7.081389,4.000218,500.000153,500.0,556.069641,92.587502,1058.709839,306.061188,13.290575,0.148931,0.322797,1077.499878,-0.019008,0.141645,0.1,0.0,1.0,2672.87085,
92.050674,507.760162,508.953613,7.080385,4.013721,7.080385,4.013721,510.000153,510.0,561.362671,92.628174,1058.507568,306.362122,13.723801,0.149063,0.324919,1076.884521,-0.019049,0.141628,0.1,0.0,1.0,2673.012939,
92.050468,511.338593,512.532043,7.079761,4.023414,7.079761,4.023414,510.000153,510.0,564.890808,92.654549,1058.398193,306.562988,14.028274,0.149221,0.326219,1076.499878,-0.019113,0.141608,0.1,0.0,1.0,2673.107666,
92.0494,516.702881,517.896301,7.079029,4.038168,7.079029,4.038168,520.000122,520.0,570.182434,92.693039,1058.258057,306.863953,14.505296,0.149482,0.327881,1075.89917,-0.019159,0.141595,0.1,0.0,1.0,2673.250244,
92.04969,520.278748,521.472168,7.078558,4.047853,7.078558,4.047853,520.000122,520.0,573.709839,92.717987,1058.173706,307.064148,14.834931,0.149628,0.328783,1075.594116,-0.019229,0.141581,0.1,0.0,1.0,2673.345459,
92.035744,525.526733,526.720154,7.07802,4.060802,7.07802,4.060802,530.000122,530.0,579.000305,92.754387,1058.04248,307.363953,15.343462,0.149749,0.32987,1069.645142,-0.019275,0.141571,0.1,0.0,1.0,2673.487305,
92.037971,529.120911,530.314331,7.077559,4.068592,7.077559,4.068592,530.000122,530.0,582.526978,92.777985,1057.967896,307.563751,15.689917,0.149781,0.33048,1071.502563,-0.019337,0.14156,0.1,0.0,1.0,2673.583252,
92.043808,534.502502,535.695923,7.076983,4.078555,7.076983,4.078555,530.000122,530.0,587.816528,92.813171,1057.844849,307.863861,16.217461,0.149748,0.331315,1073.187988,-0.019374,0.141551,0.1,0.0,1.0,2673.727295,
92.04203,538.084412,539.277832,7.076626,4.084254,7.076626,4.084254,540.000122,540.0,591.342529,92.836876,1057.764282,308.064484,16.572544,0.149694,0.331872,1073.779175,-0.019422,0.14154,0.1,0.0,1.0,2673.823486,
92.043541,543.455505,544.648926,7.076176,4.091594,7.076176,4.091594,540.000122,540.0,596.631042,92.871498,1057.651611,308.366486,17.107216,0.149609,0.332756,1074.403076,-0.019449,0.141533,0.1,0.0,1.0,2673.968262,
92.044449,547.032959,548.22644,7.075862,4.096087,7.075862,4.096087,550.000122,550.0,600.156433,92.893959,1057.582642,308.568604,17.463354,0.14957,0.333384,1074.574219,-0.019484,0.141524,0.1,0.0,1.0,2674.064697,
92.045464,552.395264,553.588684,7.075461,4.102527,7.075461,4.102527,550.000122,550.0,605.444153,92.926758,1057.488159,308.872711,17.994419,0.149558,0.334357,1074.595459,-0.019505,0.141517,0.1,0.0,1.0,2674.209717,
92.045708,555.965637,557.159119,7.075202,4.10687,7.075202,4.10687,560.000122,560.0,608.968994,92.948044,1057.431641,309.075897,18.344913,0.149579,0.335,1074.394653,-0.019536,0.141509,0.1,0.0,1.0,2674.306396,
92.046265,561.322266,562.515686,7.074893,4.113409,7.074893,4.113409,560.000122,560.0,614.25592,92.979118,1057.355957,309.381012,18.86305,0.149646,0.335902,1074.228516,-0.019557,0.141504,0.1,0.0,1.0,2674.45166,
92.046524,564.891602,566.085022,7.074693,4.11781,7.074693,4.11781,560.000122,560.0,617.780396,92.999283,1057.310059,309.584503,19.2022,0.1497,0.336443,1074.070679,-0.019588,0.141498,0.1,0.0,1.0,2674.54834,
92.046684,570.24231,571.43573,7.074444,4.124144,7.074444,4.124144,570.000122,570.0,623.066772,93.028717,1057.244263,309.88974,19.699665,0.149772,0.337148,1073.73999,-0.019609,0.141494,0.1,0.0,1.0,2674.693604,
