airspeed_indicator_indicated_speed_kt,altimeter_indicated_altitude_ft,altimeter_pressure_alt_ft,attitude_indicator_indicated_pitch_deg,attitude_indicator_indicated_roll_deg,attitude_indicator_internal_pitch_deg,attitude_indicator_internal_roll_deg,encoder_indicated_altitude_ft,encoder_pressure_alt_ft,gps_indicated_altitude_ft,gps_indicated_ground_speed_kt,gps_indicated_vertical_speed,indicated_heading_deg,magnetic_compass_indicated_heading_deg,slip_skid_ball_indicated_slip_skid,turn_indicator_indicated_turn_rate,vertical_speed_indicator_indicated_speed_fpm,flight_aileron,flight_elevator,flight_rudder,flight_flaps,engine_throttle,engine_rpm,
Command: takeoff
0.402402,-26.745571,-25.552126,3.070751,1.360034,2.716394,0.178845,-29.999857,-30.0,18.855347,4.1E-5,-2.68E-4,297.865601,14.602195,-0.046373,-0.036249,-13.682645,-0.0,0.0,0.0,0.0,0.0,607.021973,
0.363976,-26.746824,-25.553379,3.068744,1.353452,2.716353,0.178815,-29.999857,-30.0,18.855347,4.0E-5,-1.0E-4,297.864777,14.197472,-0.046365,-0.032794,-18.850281,-0.0,0.0,0.0,0.0,0.0,607.018066,
0.313118,-26.748289,-25.554846,2.885508,0.745882,2.715316,0.178576,-29.999857,-30.0,18.855345,3.9E-5,-0.002077,297.863495,13.599376,-0.046452,-0.028232,-14.504546,-0.019335,0.054327,4.1E-5,0.0,1.0,680.472656,
0.283851,-26.74905,-25.555605,2.768287,0.380196,2.707408,0.177268,-29.999857,-30.0,18.855322,6.0E-5,-0.012662,297.862549,13.2109,-0.046598,-0.0256,-17.673859,-0.010655,0.054306,1.05E-4,0.0,1.0,794.078003,
0.252996,-26.749958,-25.556515,2.654853,0.171738,2.654853,0.171738,-29.999857,-30.0,18.855137,4.77E-4,-0.060058,297.860779,12.650245,-0.050004,-0.022252,-9.673758,-0.005431,0.054148,1.53E-4,0.0,1.0,1018.844971,
0.255534,-26.750463,-25.557018,2.603147,0.165394,2.603147,0.165394,-29.999857,-30.0,18.855019,0.001865,-0.004187,297.859406,12.294542,-0.049186,-0.02037,-12.699465,-0.002453,0.053097,2.41E-4,0.0,1.0,1183.804199,
0.363902,-26.751041,-25.557596,2.574068,0.152289,2.574068,0.152289,-29.999857,-30.0,18.855328,0.007979,0.128223,297.857269,11.793131,-0.04512,-0.017972,-15.450818,-0.002363,0.052063,3.1E-4,0.0,1.0,1426.098511,
0.539809,-26.751255,-25.557812,2.576174,0.141857,2.576174,0.141857,-29.999857,-30.0,18.85593,0.016322,0.229381,297.855652,11.482948,-0.044116,-0.016625,-16.358101,-0.002176,0.051481,4.17E-4,0.0,1.0,1573.435791,
0.943033,-26.751236,-25.557793,2.592782,0.125316,2.592782,0.125316,-29.999857,-30.0,18.857521,0.038002,0.407513,297.852051,11.057848,-0.037119,-0.015095,-16.278173,-0.002027,0.051523,4.97E-4,0.0,1.0,1763.434937,
1.289384,-26.750944,-25.557499,2.606701,0.114377,2.606701,0.114377,-29.999857,-30.0,18.8591,0.060073,0.540995,297.846008,10.803216,-0.028308,-0.014774,-15.023746,-0.00179,0.051856,6.77E-4,0.0,1.0,1867.800293,
1.903705,-26.74999,-25.556545,2.626581,0.099466,2.626581,0.099466,-29.999857,-30.0,18.862362,0.106831,0.766256,297.832336,10.467097,-0.022141,-0.015059,-9.888685,-0.001634,0.052134,9.8E-4,0.0,1.0,1992.595825,
2.365228,-26.748955,-25.55551,2.638377,0.090769,2.638377,0.090769,-29.999857,-30.0,18.865204,0.148149,0.934775,297.818359,10.274681,-0.023726,-0.015961,6.415437,-0.001421,0.052532,0.001663,0.0,1.0,2057.046143,
3.118239,-26.746702,-25.553257,2.652699,0.079901,2.652699,0.079901,-29.999857,-30.0,18.870564,0.226692,1.208672,297.792053,10.034678,-0.025549,-0.017929,18.531702,-0.001297,0.052768,0.002362,0.0,1.0,2130.593262,
3.651981,-26.744675,-25.551231,2.66053,0.074079,2.66053,0.074079,-29.999857,-30.0,18.874924,0.290645,1.403452,297.771088,9.907303,-0.026377,-0.019585,16.512735,-0.001141,0.053054,0.003677,0.0,1.0,2167.074707,
4.48782,-26.740749,-25.547306,2.669628,0.067241,2.669628,0.067241,-29.999857,-30.0,18.882719,0.404552,1.709372,297.737061,9.764832,-0.027266,-0.02211,10.802731,-0.001058,0.053211,0.004726,0.0,1.0,2207.321777,
5.062684,-26.737492,-25.544048,2.674553,0.063733,2.674553,0.063733,-29.999857,-30.0,18.888784,0.492656,1.920832,297.713104,9.701657,-0.027715,-0.023762,14.546513,-9.61E-4,0.053393,0.006427,0.0,1.0,2226.614258,
5.943591,-26.731565,-25.53812,2.680351,0.059733,2.680351,0.059733,-29.999857,-30.0,18.899235,0.643147,2.249663,297.678802,9.653003,-0.028181,-0.025634,17.65712,-9.1E-4,0.053491,0.007625,0.0,1.0,2247.138916,
6.539744,-26.726881,-25.533436,2.683623,0.057688,2.683623,0.057688,-29.999857,-30.0,18.90712,0.75565,2.472446,297.657562,9.650069,-0.028368,-0.026456,15.770627,-8.53E-4,0.053607,0.00934,0.0,1.0,2256.525635,
7.44266,-26.718689,-25.525244,2.687707,0.055273,2.687707,0.055273,-29.999857,-30.0,18.920347,0.942463,2.809986,297.631378,9.68738,-0.028363,-0.026613,17.772686,-8.24E-4,0.053672,0.010402,0.0,1.0,2265.884277,
8.048382,-26.712418,-25.518974,2.690181,0.053969,2.690181,0.053969,-29.999857,-30.0,18.930109,1.078869,3.037658,297.617981,9.738365,-0.028172,-0.026062,10.295242,-7.9E-4,0.053754,0.011711,0.0,1.0,2269.734131,
8.959992,-26.701765,-25.50832,2.693492,0.052311,2.693492,0.052311,-29.999857,-30.0,18.946173,1.300908,3.379352,297.60553,9.850824,-0.02751,-0.024107,12.180077,-7.71E-4,0.053804,0.012381,0.0,1.0,2272.901123,
9.568701,-26.693813,-25.500368,2.695611,0.051367,2.695611,0.051367,-29.999857,-30.0,18.957832,1.460316,3.606489,297.602081,9.947793,-0.02686,-0.022202,13.116858,-7.47E-4,0.05387,0.013004,0.0,1.0,2273.698242,
10.481241,-26.680569,-25.487123,2.699437,0.050122,2.699437,0.050122,-29.999857,-30.0,18.976789,1.716057,3.993302,297.603668,10.122659,-0.025586,-0.018622,13.845019,-7.34E-4,0.053912,0.013176,0.0,1.0,2273.463623,
11.088171,-26.670809,-25.477365,2.70713,0.045497,2.70713,0.045497,-29.999857,-30.0,18.990793,1.897363,4.338378,297.608246,10.256678,-0.025351,-0.016077,9.287984,-7.16E-4,0.053989,0.013097,0.0,1.0,2272.588623,
11.996215,-26.654665,-25.461222,2.716981,0.034797,2.716981,0.034797,-29.999857,-30.0,19.013535,2.185055,4.805246,297.618805,10.480218,-0.023185,-0.012212,12.054317,-6.5E-4,0.054143,0.012868,0.0,1.0,2270.497803,
12.599499,-26.642853,-25.449409,2.719055,0.033768,2.719055,0.033768,-29.999857,-30.0,19.029951,2.387055,5.036939,297.627106,10.642143,-0.02126,-0.009615,17.47994,-4.97E-4,0.05434,0.01234,0.0,1.0,2268.714355,
13.501664,-26.623558,-25.430115,2.72067,0.03379,2.72067,0.03379,-29.999857,-30.0,19.05604,2.704878,5.389719,297.638763,10.900455,-0.019573,-0.00629,20.529715,-4.82E-4,0.054381,0.011925,0.0,1.0,2265.619629,
14.100978,-26.609657,-25.416212,2.72219,0.03398,2.72219,0.03398,-29.999857,-30.0,19.074419,2.926364,5.626872,297.645172,11.080608,-0.018862,-0.004552,11.378609,-4.83E-4,0.054413,0.011342,0.0,1.0,2263.423096,
14.996511,-26.587275,-25.393829,2.724989,0.034742,2.724989,0.034742,-29.999857,-30.0,19.10347,3.272525,5.983069,297.651093,11.358762,-0.018353,-0.002833,16.907183,-4.85E-4,0.054444,0.011021,0.0,1.0,2261.819336,
15.592013,-26.57135,-25.377905,2.727154,0.035464,2.727154,0.035464,-29.999857,-30.0,19.123821,3.512326,6.218814,297.652344,11.54717,-0.018387,-0.002244,17.636791,-4.96E-4,0.0545,0.010725,0.0,1.0,2261.741211,
16.483446,-26.545973,-25.352528,2.730693,0.036667,2.730693,0.036667,-29.999857,-30.0,19.15583,3.885157,6.574677,297.650085,11.830358,-0.018966,-0.002109,20.239872,-5.07E-4,0.054543,0.010663,0.0,1.0,2262.526367,
17.077118,-26.528048,-25.334602,2.733303,0.037451,2.733303,0.037451,-29.999857,-30.0,19.178156,4.142242,6.811695,297.64621,12.017343,-0.0196,-0.002393,16.237627,-5.24E-4,0.054614,0.010776,0.0,1.0,2263.435791,
17.966879,-26.49968,-25.306236,2.737415,0.038523,2.737415,0.038523,-29.999857,-30.0,19.213125,4.540304,7.167021,297.638275,12.291536,-0.020736,-0.003089,21.347095,-5.35E-4,0.054666,0.01097,0.0,1.0,2265.14502,
18.55965,-26.479786,-25.286343,2.740378,0.039129,2.740378,0.039129,-29.999857,-30.0,19.237429,4.813766,7.404039,297.632355,12.468199,-0.021499,-0.003591,15.695954,-5.5E-4,0.054748,0.011366,0.0,1.0,2266.428711,
19.448282,-26.448486,-25.255041,2.744973,0.039763,2.744973,0.039763,-29.999857,-30.0,19.275364,5.235755,7.761442,297.62442,12.720941,-0.02241,-0.004091,16.621346,-5.59E-4,0.054808,0.011662,0.0,1.0,2268.478516,
20.040369,-26.426636,-25.233191,2.748233,0.040037,2.748233,0.040037,-29.999857,-30.0,19.301641,5.524755,7.996585,297.620453,12.879683,-0.022788,-0.004175,17.355625,-5.68E-4,0.054899,0.012059,0.0,1.0,2269.895264,
20.92799,-26.392397,-25.198954,2.753201,0.040164,2.753201,0.040164,-29.999857,-30.0,19.342539,5.969447,8.352112,297.617706,13.100813,-0.022857,-0.003787,18.450981,-5.72E-4,0.054965,0.012257,0.0,1.0,2272.060791,
21.519377,-26.368599,-25.175154,2.756694,0.040134,2.756694,0.040134,-29.999857,-30.0,19.370789,6.27319,8.585848,297.618103,13.23576,-0.02259,-0.003208,21.822592,-5.74E-4,0.055064,0.012395,0.0,1.0,2273.519531,
22.407364,-26.33153,-25.138084,2.73747,0.040098,2.73747,0.040098,-29.999857,-30.0,19.412931,6.739433,7.695489,297.62204,13.417871,-0.021699,-0.001917,14.326877,-5.73E-4,0.055134,0.012375,0.0,1.0,2275.718506,
23.001797,-26.306433,-25.112989,2.733974,0.039937,2.733974,0.039937,-29.999857,-30.0,19.43898,7.057206,7.933312,297.626831,13.524979,-0.020902,-8.35E-4,14.408473,-5.73E-4,0.054749,0.012178,0.0,1.0,2277.188965,
23.891825,-26.268473,-25.075027,2.742312,0.039835,2.742312,0.039835,-29.999857,-30.0,19.479519,7.544007,8.266095,297.634735,13.6633,-0.019652,6.98E-4,19.569338,-5.71E-4,0.054679,0.011939,0.0,1.0,2279.397705,
24.484346,-26.242807,-25.049364,2.747772,0.039937,2.747772,0.039937,-29.999857,-30.0,19.507441,7.875134,8.475647,297.639648,13.74034,-0.018937,0.001535,12.766348,-5.69E-4,0.054846,0.011543,0.0,1.0,2280.870605,
25.37093,-26.203508,-25.010065,2.766101,0.035744,2.766101,0.035744,-29.999857,-30.0,19.552092,8.381425,9.360613,297.644562,13.832967,-0.018656,0.002141,18.068325,-5.71E-4,0.054955,0.011298,0.0,1.0,2283.079834,
26.255011,-26.162573,-24.969128,2.772831,0.036184,2.772831,0.036184,-19.999857,-20.0,19.599676,8.898884,9.66737,297.645844,13.898354,-0.01826,0.002206,13.190348,-5.11E-4,0.055322,0.011052,0.0,1.0,2285.287842,
26.843956,-26.134342,-24.940897,2.775867,0.036937,2.775867,0.036937,-19.999857,-20.0,19.632267,9.249882,9.880204,297.644501,13.927061,-0.018548,0.001912,14.477258,-5.17E-4,0.055457,0.010988,0.0,1.0,2286.759277,
27.432404,-26.105371,-24.911926,2.778836,0.037824,2.778836,0.037824,-19.999857,-20.0,19.665527,9.605576,10.037401,297.641571,13.944117,-0.019171,0.001398,19.021702,-5.28E-4,0.055517,0.011055,0.0,1.0,2288.230469,
28.317497,-26.060982,-24.867538,2.760184,0.039287,2.760184,0.039287,-19.999857,-20.0,19.712311,10.147726,9.159101,297.635468,13.948479,-0.020465,4.7E-4,19.241259,-5.4E-4,0.055577,0.011201,0.0,1.0,2290.437988,
28.907444,-26.031281,-24.837837,2.76361,0.04007,2.76361,0.04007,-19.999857,-20.0,19.743219,10.514771,9.375084,297.630768,13.937757,-0.02141,-1.79E-4,16.577551,-5.61E-4,0.055204,0.011507,0.0,1.0,2291.910889,
29.790665,-25.986435,-24.792992,2.772206,0.041035,2.772206,0.041035,-19.999857,-20.0,19.790876,11.073505,9.676248,297.62384,13.902414,-0.022684,-0.001005,20.117931,-5.72E-4,0.055272,0.011742,0.0,1.0,2294.12207,
30.672119,-25.940855,-24.74741,2.78083,0.041737,2.78083,0.041737,-19.999857,-20.0,19.840092,11.641747,10.090192,297.618408,13.845685,-0.023594,-0.001478,13.830387,-5.86E-4,0.055444,0.012088,0.0,1.0,2296.334717,
31.257605,-25.909863,-24.716419,2.796227,0.034987,2.796227,0.034987,-19.999857,-20.0,19.875502,12.025686,10.921531,297.616058,13.797084,-0.0242,-0.001724,14.264602,-5.96E-4,0.055617,0.01236,0.0,1.0,2297.810547,
32.133911,-25.86183,-24.668386,2.80388,0.034489,2.80388,0.034489,-19.999857,-20.0,19.930834,12.609012,11.206114,297.615631,13.710021,-0.023476,-0.001333,15.074979,-5.0E-4,0.055925,0.012477,0.0,1.0,2300.024658,
32.7174,-25.828798,-24.635355,2.80752,0.034399,2.80752,0.034399,-19.999857,-20.0,19.968534,13.002705,11.407726,297.61734,13.643694,-0.022756,-7.86E-4,15.585274,-4.93E-4,0.056078,0.012498,0.0,1.0,2301.501221,
33.593189,-25.777967,-24.584524,2.791468,0.03756,2.791468,0.03756,-19.999857,-20.0,20.023336,13.600248,10.12399,297.622559,13.533798,-0.02148,4.31E-4,16.077444,-4.91E-4,0.05615,0.012413,0.0,1.0,2303.717041,
34.178337,-25.744007,-24.550562,2.791366,0.037793,2.791366,0.037793,-19.999857,-20.0,20.057455,14.003181,10.336155,297.627411,13.45474,-0.020474,0.001303,15.968684,-5.37E-4,0.055829,0.012152,0.0,1.0,2305.196045,
35.053612,-25.693079,-24.499636,2.800137,0.037955,2.800137,0.037955,-19.999857,-20.0,20.109898,14.614222,10.627169,297.634521,13.329517,-0.018963,0.002408,16.039562,-5.4E-4,0.055827,0.011909,0.0,1.0,2307.416992,
Command_Fault: set /instrumentation/altimeter/serviceable false
Command_Fault: set /instrumentation/magnetic-compass/serviceable false
35.635361,-25.658922,-24.465477,2.814983,0.031847,2.814983,0.031847,-19.999857,-20.0,20.146734,15.025884,11.708053,297.638153,13.242852,-0.01864,0.002708,16.229738,-5.42E-4,0.056003,0.011554,0.0,1.0,2308.898438,
36.504616,-25.641632,-24.448189,2.82619,0.030919,2.82619,0.030919,-19.999857,-20.0,20.205772,15.649593,11.93529,297.6409,13.198901,-0.017414,0.002905,16.919277,-4.55E-4,0.0563,0.011372,0.0,1.0,2311.121338,
37.083206,-25.641632,-24.448189,2.829982,0.031712,2.829982,0.031712,-19.999857,-20.0,20.245872,16.069424,12.117174,297.640625,13.198901,-0.017256,0.002713,17.367495,-4.42E-4,0.056524,0.011235,0.0,1.0,2312.603516,
37.949516,-25.641632,-24.448189,2.83557,0.033231,2.83557,0.033231,-19.999857,-20.0,20.307175,16.705006,12.398207,297.637115,13.198901,-0.017897,0.001984,18.017879,-4.53E-4,0.0566,0.011249,0.0,1.0,2314.827148,
38.526836,-25.641632,-24.448189,2.826784,0.035397,2.826784,0.035397,-19.999857,-20.0,20.347033,17.132507,11.400091,297.633179,13.198901,-0.018874,0.001337,18.31735,-4.75E-4,0.056711,0.011424,0.0,1.0,2316.310059,
39.392952,-25.641632,-24.448189,2.829361,0.036439,2.829361,0.036439,-19.999857,-20.0,20.404778,17.77927,11.701656,297.626251,13.198901,-0.020572,2.84E-4,18.341896,-5.06E-4,0.056536,0.011621,0.0,1.0,2318.535889,
39.968822,-25.641632,-24.448189,2.83357,0.039672,2.83357,0.039672,-19.999857,-20.0,20.444162,18.214005,11.862036,297.62146,13.198901,-0.021976,-2.99E-4,18.448956,-5.21E-4,0.056587,0.011967,0.0,1.0,2320.020508,
40.830551,-25.641632,-24.448189,2.842154,0.039164,2.842154,0.039164,-19.999857,-20.0,20.5042,18.871262,12.141627,297.615356,13.198901,-0.023501,-0.001002,18.680361,-5.67E-4,0.056671,0.012207,0.0,1.0,2322.248047,
41.403683,-25.641632,-24.448189,2.847429,0.039198,2.847429,0.039198,-19.999857,-20.0,20.544981,19.312759,12.319458,297.612671,13.198901,-0.024126,-0.001184,18.885139,-5.59E-4,0.056843,0.012512,0.0,1.0,2323.733154,
42.261665,-25.641632,-24.448189,2.846083,0.036722,2.846083,0.036722,-19.999857,-20.0,20.606533,19.979822,11.635403,297.611603,13.198901,-0.024517,-0.001018,23.214815,-5.6E-4,0.056949,0.012647,0.0,1.0,2325.960938,
42.833893,-25.641632,-24.448189,2.846036,0.036542,2.846036,0.036542,-19.999857,-20.0,20.645512,20.42765,11.782852,297.613159,13.198901,-0.024031,-5.25E-4,23.140009,-5.25E-4,0.056922,0.0127,0.0,1.0,2327.446777,
43.689552,-25.641632,-24.448189,2.853801,0.036488,2.853801,0.036488,-19.999857,-20.0,20.705109,21.103907,12.04516,297.617889,13.198901,-0.022702,4.95E-4,16.958801,-5.22E-4,0.056921,0.012622,0.0,1.0,2330.099609,
44.258492,-25.641632,-24.448189,2.859053,0.036616,2.859053,0.036616,-19.999857,-20.0,20.745544,21.55765,12.20919,297.622009,13.198901,-0.021556,0.00124,16.992575,-5.21E-4,0.057076,0.012386,0.0,1.0,2332.659668,
45.110561,-25.641632,-24.448189,2.863382,0.035477,2.863382,0.035477,-19.999857,-20.0,20.807137,22.242474,12.164876,297.627991,13.198901,-0.020207,0.002132,23.386902,-5.23E-4,0.057181,0.01218,0.0,1.0,2337.282471,
45.681767,-25.641632,-24.448189,2.838582,0.034448,2.838582,0.034448,-19.999857,-20.0,20.840864,22.701777,9.736579,297.631622,13.198901,-0.019138,0.002621,23.542599,-5.07E-4,0.057268,0.011881,0.0,1.0,2340.699463,
46.538517,-25.641632,-24.448189,2.844032,0.034814,2.844032,0.034814,-19.999857,-20.0,20.890251,23.394781,10.000595,297.634949,13.198901,-0.017881,0.002934,22.895844,-4.92E-4,0.056772,0.011699,0.0,1.0,2346.131836,
47.108673,-25.641632,-24.448189,2.850708,0.035465,2.850708,0.035465,-19.999857,-20.0,20.923845,23.859415,10.146974,297.634888,13.198901,-0.017533,0.002766,22.479185,-4.97E-4,0.056881,0.011533,0.0,1.0,2349.883545,
47.963253,-25.641632,-24.448189,2.858846,0.036889,2.858846,0.036889,-19.999857,-20.0,20.975094,24.560202,10.344534,297.631195,13.198901,-0.017915,0.001995,22.044277,-5.07E-4,0.057014,0.011536,0.0,1.0,2355.629395,
48.532547,-25.641632,-24.448189,2.863684,0.038018,2.863684,0.038018,-19.999857,-20.0,21.009802,25.029886,10.474632,297.62674,13.198901,-0.018727,0.001235,21.879265,-5.27E-4,0.057177,0.01172,0.0,1.0,2359.511719,
49.385948,-25.641632,-24.448189,2.870339,0.039773,2.870339,0.039773,-19.999857,-20.0,21.062662,25.738045,10.665694,297.618439,13.198901,-0.020525,-1.0E-6,21.772781,-5.43E-4,0.057274,0.011943,0.0,1.0,2365.383545,
49.954536,-25.641632,-24.448189,2.874897,0.040908,2.874897,0.040908,-19.999857,-20.0,21.098436,26.212513,10.792946,297.612671,13.198901,-0.021915,-7.58E-4,21.777054,-5.68E-4,0.057407,0.012358,0.0,1.0,2369.320557,
50.806984,-25.641632,-24.448189,2.881535,0.042327,2.881535,0.042327,-19.999857,-20.0,21.152901,26.927662,10.98642,297.60553,13.198901,-0.023827,-0.001511,21.867022,-5.84E-4,0.057498,0.012647,0.0,1.0,2375.249268,
51.375065,-25.641632,-24.448189,2.885955,0.042662,2.885955,0.042662,-19.999857,-20.0,21.189844,27.406664,11.213054,297.602417,13.198901,-0.024803,-0.001728,21.971884,-6.05E-4,0.057631,0.013004,0.0,1.0,2379.213623,
52.225071,-25.641632,-24.448189,2.902379,0.024242,2.902379,0.024242,-19.999857,-20.0,21.249809,28.128414,12.289986,297.600647,13.198901,-0.025406,-0.001928,22.542257,-6.09E-4,0.057719,0.013159,0.0,1.0,2385.17334,
52.791374,-25.641632,-24.448189,2.907434,0.0244,2.907434,0.0244,-19.999857,-20.0,21.290985,28.611687,12.410237,297.601776,13.198901,-0.024979,-0.00141,23.003454,-3.46E-4,0.058048,0.013248,0.0,1.0,2389.15332,
53.640785,-25.641632,-24.448189,2.91285,0.024788,2.91285,0.024788,-19.999857,-20.0,21.353527,29.339659,12.602739,297.605835,13.198901,-0.023641,-3.64E-4,23.626574,-3.49E-4,0.058149,0.013191,0.0,1.0,2395.133545,
54.206886,-25.641632,-24.448189,2.916908,0.025018,2.916908,0.025018,-19.999857,-20.0,21.395773,29.826965,12.73803,297.609436,13.198901,-0.022443,3.82E-4,17.721165,-3.54E-4,0.058257,0.012988,0.0,1.0,2399.127441,
55.05571,-25.641632,-24.448189,2.923131,0.025478,2.923131,0.025478,-19.999857,-20.0,21.459988,30.560827,12.942156,297.614532,13.198901,-0.020527,0.001307,23.468744,-3.57E-4,0.058338,0.012808,0.0,1.0,2405.12793,
55.621326,-25.641632,-24.448189,2.927452,0.025898,2.927452,0.025898,-19.999857,-20.0,21.503366,31.05195,13.079288,297.616974,13.198901,-0.01936,0.001698,18.358303,-3.64E-4,0.058463,0.012553,0.0,1.0,2409.13501,
56.469288,-25.641632,-24.448189,2.933654,0.026785,2.933654,0.026785,-19.999857,-20.0,21.56929,31.791372,13.28405,297.618103,13.198901,-0.018094,0.001811,24.115496,-3.7E-4,0.058549,0.012431,0.0,1.0,2415.155273,
57.034229,-25.641632,-24.448189,2.937905,0.027517,2.937905,0.027517,-19.999857,-20.0,21.61381,32.286095,13.420982,297.616913,13.198901,-0.017675,0.001578,23.590317,-3.83E-4,0.058673,0.012375,0.0,1.0,2419.175049,
57.883446,-25.641632,-24.448189,2.910894,0.029336,2.910894,0.029336,-19.999857,-20.0,21.673901,33.030773,9.000274,297.612732,13.198901,-0.017559,9.22E-4,18.819294,-3.93E-4,0.058758,0.012434,0.0,1.0,2425.2146,
58.453529,-25.641632,-24.448189,2.905403,0.030066,2.905403,0.030066,-19.999857,-20.0,21.704172,33.528957,9.166113,297.609283,13.198901,-0.017977,4.29E-4,23.213232,-4.19E-4,0.058218,0.012643,0.0,1.0,2429.253906,
59.305935,-25.641632,-24.448189,2.91514,0.03127,2.91514,0.03127,-19.999857,-20.0,21.750599,34.278755,9.385077,297.603363,13.198901,-0.01898,-3.38E-4,22.913532,-4.3E-4,0.058108,0.012816,0.0,1.0,2435.328125,
59.873199,-25.641632,-24.448189,2.921121,0.032105,2.921121,0.032105,-19.999857,-20.0,21.782085,34.780251,9.499231,297.599335,13.198901,-0.01976,-7.91E-4,22.229244,-4.47E-4,0.058303,0.013112,0.0,1.0,2439.385742,
60.722313,-25.641632,-24.448189,2.934334,0.024866,2.934334,0.024866,-19.999857,-20.0,21.831934,35.534843,10.584873,297.594391,13.198901,-0.02129,-0.001415,21.66223,-4.59E-4,0.058422,0.013313,0.0,1.0,2445.493408,
61.286934,-25.641632,-24.448189,2.940063,0.025391,2.940063,0.025391,-19.999857,-20.0,21.867384,36.039421,10.678897,297.592468,13.198901,-0.021669,-0.001429,21.649334,-3.55E-4,0.058687,0.01356,0.0,1.0,2449.619873,
62.133263,-25.641632,-24.448189,2.945175,0.026538,2.945175,0.026538,-19.999857,-20.0,21.921131,36.79847,10.819915,297.591919,13.198901,-0.021893,-0.00107,21.699677,-3.63E-4,0.058801,0.013657,0.0,1.0,2455.878418,
62.696972,-25.641632,-24.448189,2.948893,0.027225,2.948893,0.027225,-19.999857,-20.0,21.957373,37.30592,10.920738,297.592987,13.198901,-0.021762,-6.39E-4,21.769951,-3.79E-4,0.058904,0.013684,0.0,1.0,2460.082031,
63.545345,-25.641632,-24.448189,2.917942,0.025071,2.917942,0.025071,-19.999857,-20.0,22.00123,38.069168,6.101192,297.596222,13.198901,-0.020232,1.12E-4,21.000071,-3.89E-4,0.058978,0.013631,0.0,1.0,2466.420166,
Command: fly_strait
64.113686,-25.641632,-24.448189,2.916345,0.027199,2.916345,0.027199,-19.999857,-20.0,22.021822,38.579391,6.247872,297.599426,13.198901,-0.019752,7.91E-4,19.442169,-3.58E-4,0.058359,0.013469,0.0,1.0,2470.668701,
64.963593,-25.641632,-24.448189,2.926415,0.031593,2.926415,0.031593,-19.999857,-20.0,22.053535,39.346745,6.41763,297.590637,13.198901,-0.019843,-8.19E-4,22.363867,-3.89E-4,0.058327,0.0,0.0,1.0,2477.064209,
65.528824,-25.641632,-24.448189,2.931583,0.033331,2.931583,0.033331,-19.999857,-20.0,22.075069,39.859612,6.495777,297.55188,13.198901,-0.021724,-0.00707,20.001659,-4.51E-4,0.058528,4.39E-4,0.0,1.0,2481.338623,
66.373955,-25.641632,-24.448189,2.937077,0.03295,2.937077,0.03295,-19.999857,-20.0,22.107817,40.630764,6.599414,297.454651,13.198901,-0.028563,-0.021317,22.309517,-4.76E-4,0.058632,0.002377,0.0,1.0,2487.759277,
66.935234,-25.641632,-24.448189,2.940968,0.031576,2.940968,0.031576,-19.999857,-20.0,22.129944,41.14603,6.674847,297.376373,13.198901,-0.035554,-0.031668,21.962503,-4.71E-4,0.058742,0.007239,0.0,1.0,2492.042236,
67.774132,-25.641632,-24.448189,2.947187,0.028139,2.947187,0.028139,-19.999857,-20.0,22.163607,41.920559,6.788835,297.270233,13.198901,-0.047367,-0.043322,13.721427,-4.51E-4,0.058819,0.011153,0.0,1.0,2498.465088,
68.331688,-25.641632,-24.448189,2.954518,0.014022,2.954518,0.014022,-19.999857,-20.0,22.18767,42.437931,8.177381,297.219879,13.198901,-0.055229,-0.047168,18.886522,-4.02E-4,0.058944,0.01646,0.0,1.0,2502.745605,
69.167313,-25.641632,-24.448189,2.929643,-0.067783,2.929643,-0.067783,-19.999857,-20.0,22.231348,43.215408,9.331688,297.195526,13.198901,-0.063727,-0.045558,21.045019,-2.0E-4,0.05909,0.018977,0.0,1.0,2509.166748,
69.726601,-25.641632,-24.448189,2.878854,-0.179732,2.878854,-0.179732,-19.999857,-20.0,22.263332,43.734638,9.757222,297.217255,13.198901,-0.06545,-0.039978,13.037526,9.68E-4,0.058593,0.020195,0.0,1.0,2513.456543,
70.568665,-25.641632,-24.448189,2.793005,-0.376412,2.793005,-0.376412,-19.999857,-20.0,22.312288,44.51487,9.743288,297.298431,13.198901,-0.06048,-0.025757,18.90167,0.002568,0.057577,0.019109,0.0,1.0,2519.915527,
71.131897,-25.641632,-24.448189,2.743426,-0.499978,2.743426,-0.499978,-19.999857,-20.0,22.344604,45.035969,9.597178,297.370483,13.198901,-0.052707,-0.014587,20.360762,0.005377,0.05586,0.01505,0.0,1.0,2524.239746,
71.977036,-25.641632,-24.448189,2.692899,-0.653185,2.692899,-0.653185,-19.999857,-20.0,22.392237,45.819092,9.531962,297.464233,13.198901,-0.036963,-0.001728,14.960093,0.007143,0.054869,0.011447,0.0,1.0,2530.752441,
72.53862,-25.641632,-24.448189,2.661665,-0.750851,2.661665,-0.750851,-19.999857,-20.0,22.424341,46.342113,9.693314,297.496948,13.198901,-0.026133,0.001018,22.74897,0.009331,0.053858,0.00676,0.0,1.0,2535.104492,
73.383224,-25.641632,-24.448189,2.569838,-0.933836,2.569838,-0.933836,-19.999857,-20.0,22.46221,47.127987,4.864622,297.474945,13.198901,-0.013361,-0.0076,22.4979,0.010726,0.053233,0.005124,0.0,1.0,2541.642578,
73.950638,-25.641632,-24.448189,2.504056,-1.080899,2.504056,-1.080899,-19.999857,-20.0,22.477928,47.652813,4.573508,297.411957,13.198901,-0.00573,-0.020682,19.362598,0.013341,0.051397,0.006224,0.0,1.0,2546.017578,
74.800217,-25.641632,-24.448189,2.447892,-1.266052,2.447892,-1.266052,-19.999857,-20.0,22.500801,48.441406,4.787917,297.260803,13.198901,-5.69E-4,-0.045853,21.527557,0.015441,0.050081,0.009373,0.0,1.0,2552.601807,
Command_Fault: set /instrumentation/altimeter/serviceable true
Command_Fault: set /instrumentation/magnetic-compass/serviceable true
75.365364,-25.641632,-24.448189,2.437137,-1.402686,2.437137,-1.402686,-19.999857,-20.0,22.51881,48.968029,6.121596,297.136963,13.198901,-0.00163,-0.064463,20.766682,0.018086,0.048958,0.016931,0.0,1.0,2557.00293,
76.204758,-23.237419,-22.043976,2.517578,-1.725099,2.517578,-1.725099,-19.999857,-20.0,22.560564,49.759258,12.364961,296.957489,13.118029,-0.007965,-0.090549,21.35091,0.020038,0.048743,0.023123,0.0,1.0,2563.608154,
76.754967,-23.211376,-22.017931,2.606046,-2.000844,2.606046,-2.000844,-19.999857,-20.0,22.621092,50.287479,24.386597,296.860931,13.052969,-0.010654,-0.103362,13.762606,0.024644,0.050352,0.032097,0.0,1.0,2568.002197,
77.556694,-23.151329,-21.957884,2.737208,-2.366872,2.737208,-2.366872,-19.999857,-20.0,22.80479,51.080502,49.25692,296.777069,12.991192,-0.012102,-0.109417,21.798914,0.028583,0.052121,0.036925,0.0,1.0,2574.557861,
78.070587,-23.086195,-21.892752,2.839306,-2.541972,2.839306,-2.541972,-19.999857,-20.0,23.001196,51.609322,68.117477,296.756317,12.977482,-0.010442,-0.105921,23.556128,0.033812,0.054744,0.041118,0.0,1.0,2578.883789,
78.807983,-22.93273,-21.739285,3.002902,-2.653305,3.002902,-2.653305,-19.999857,-20.0,23.419098,52.402161,98.437447,296.752014,13.002061,-0.004193,-0.093859,38.304955,0.036314,0.056786,0.042155,0.0,1.0,2585.26709,
79.275063,-22.783651,-21.590206,3.12531,-2.635695,3.12531,-2.635695,-19.999857,-20.0,23.783426,52.93005,119.475044,296.744446,13.048954,0.001828,-0.085632,50.233418,0.037904,0.060058,0.042371,0.0,1.0,2589.431152,
79.940498,-22.476313,-21.282867,3.290761,-2.503971,3.290761,-2.503971,-19.999857,-20.0,24.462145,53.720123,150.805389,296.695404,13.162399,0.011743,-0.078444,70.624245,0.037653,0.062506,0.042749,0.0,1.0,2595.507568,
80.362312,-22.209503,-21.016058,3.396777,-2.375724,3.396777,-2.375724,-19.999857,-20.0,24.999014,54.245228,170.410767,296.628326,13.26342,0.017485,-0.078766,85.425507,0.035771,0.065815,0.045201,0.0,1.0,2599.310791,
80.968254,-21.709993,-20.516548,3.523558,-2.183515,3.523558,-2.183515,-19.999857,-20.0,25.923208,55.029797,198.283203,296.487915,13.445194,0.02298,-0.085246,108.672623,0.033939,0.067936,0.048555,0.0,1.0,2603.917969,
81.355682,-21.308743,-20.115299,3.607115,-2.070815,3.607115,-2.070815,-19.999857,-20.0,26.61512,55.550446,216.121979,296.3815,13.581502,0.024552,-0.091258,124.568832,0.031193,0.070471,0.055576,0.0,1.0,2606.442871,
81.912758,-20.602842,-19.409397,3.727002,-1.94735,3.727002,-1.94735,-19.999857,-20.0,27.7628,56.327271,242.070129,296.243927,13.800393,0.024085,-0.096414,148.684967,0.029583,0.072142,0.060896,0.0,1.0,2609.679688,
82.26812,-20.062601,-18.869156,3.814706,-1.879989,3.814706,-1.879989,-19.999857,-20.0,28.599174,56.842094,259.117523,296.182526,13.951891,0.023735,-0.094864,164.819122,0.027819,0.07454,0.067775,0.0,1.0,2611.574463,
82.775894,-19.14781,-17.954367,3.937629,-1.778941,3.937629,-1.778941,-19.999857,-20.0,29.959608,57.609215,284.107483,296.154602,14.181859,0.024539,-0.082654,189.016907,0.026857,0.076294,0.070845,0.0,1.0,2614.138428,
83.096581,-18.468676,-17.275232,4.022856,-1.688241,4.022856,-1.688241,-19.999857,-20.0,30.934578,58.116894,300.469543,296.173096,14.334285,0.027494,-0.069203,205.072525,0.025413,0.078753,0.072241,0.0,1.0,2615.705566,
83.553169,-17.346399,-16.152956,4.142561,-1.505909,4.142561,-1.505909,-19.999857,-20.0,32.507092,58.872261,328.267548,296.229309,14.557126,0.035274,-0.046185,229.125687,0.024118,0.080457,0.071317,0.0,1.0,2617.892822,
83.839485,-16.527813,-15.334369,4.237911,-1.352582,4.237911,-1.352582,-19.999857,-20.0,33.636093,59.371418,348.653168,296.264801,14.698998,0.042103,-0.032481,245.406326,0.021513,0.082851,0.068506,0.0,1.0,2619.261963,
84.242004,-15.190013,-13.996569,4.385237,-1.108741,4.385237,-1.108741,-9.999858,-10.0,35.459385,60.112984,378.75531,296.282257,14.896328,0.052809,-0.019891,270.574707,0.019323,0.084758,0.066731,0.0,1.0,2621.203125,
84.495407,-14.223644,-13.0302,4.477095,-0.951099,4.477095,-0.951099,-9.999858,-10.0,36.751343,60.602345,395.39032,296.263214,15.014161,0.058785,-0.01747,287.651184,0.015839,0.087705,0.065858,0.0,1.0,2622.431885,
84.86322,-12.663636,-11.470192,4.554215,-0.767366,4.554215,-0.767366,-9.999858,-10.0,38.78154,61.328575,415.462158,296.199768,15.164526,0.064324,-0.020777,313.132416,0.013587,0.089542,0.066811,0.0,1.0,2624.191895,
85.10334,-11.554245,-10.3608,4.590724,-0.683525,4.590724,-0.683525,-9.999858,-10.0,40.187172,61.807446,427.333679,296.14917,15.244306,0.065607,-0.024741,329.485779,0.010962,0.091084,0.069983,0.0,1.0,2625.319336,
85.454773,-9.793379,-8.599935,4.651583,-0.621695,4.651583,-0.621695,-9.999858,-10.0,42.367256,62.517738,444.152924,296.094482,15.330027,0.064731,-0.027831,352.769867,0.009765,0.091814,0.072513,0.0,1.0,2626.952637,
85.681732,-8.559304,-7.36586,4.706484,-0.603672,4.706484,-0.603672,-9.999858,-10.0,43.867577,62.985867,455.708649,296.084595,15.363965,0.063937,-0.025891,367.383423,0.008881,0.093032,0.075247,0.0,1.0,2628.006104,
86.008621,-6.621088,-5.427643,4.791163,-0.581457,4.791163,-0.581457,-9.999858,-10.0,46.193176,63.67979,474.234955,296.117065,15.380947,0.064032,-0.016013,388.452087,0.008624,0.09413,0.075742,0.0,1.0,2629.535156,
86.216942,-5.272955,-4.079511,4.852093,-0.55115,4.852093,-0.55115,1.42E-4,0.0,47.796448,64.136787,487.333618,296.162872,15.37086,0.065944,-0.006166,401.993134,0.008307,0.095823,0.074118,0.0,1.0,2630.517334,
86.515327,-3.167766,-1.974321,4.935701,-0.469641,4.935701,-0.469641,1.42E-4,0.0,50.284641,64.81366,507.310455,296.239136,15.325936,0.071455,0.008584,421.887451,0.007874,0.097042,0.071828,0.0,1.0,2631.928711,
86.70591,-1.709217,-0.515773,4.994033,-0.395048,4.994033,-0.395048,1.42E-4,0.0,51.99847,65.259087,520.503418,296.278992,15.277213,0.075893,0.015817,434.988983,0.006709,0.098714,0.068015,0.0,1.0,2632.832764,
86.982124,0.647058,1.840503,5.071118,-0.280707,5.071118,-0.280707,1.42E-4,0.0,54.652012,65.918396,540.270142,296.299927,15.177198,0.081992,0.019197,454.48761,0.005644,0.099881,0.066022,0.0,1.0,2634.140137,
87.160751,2.292049,3.485493,5.124741,-0.218047,5.124741,-0.218047,1.42E-4,0.0,56.475323,66.352013,553.208984,296.287262,15.093064,0.084303,0.016701,467.407043,0.00401,0.101422,0.064975,0.0,1.0,2634.983154,
87.421753,4.844669,6.038114,5.197528,-0.172604,5.197528,-0.172604,10.000142,10.0,59.290207,66.993576,572.045898,296.243988,14.941786,0.084487,0.008683,486.658722,0.003115,0.102495,0.065608,0.0,1.0,2636.21167,
87.591072,6.602536,7.795981,5.24893,-0.174285,5.24893,-0.174285,10.000142,10.0,61.218391,67.41539,584.422974,296.21402,14.825429,0.082725,0.003229,499.383057,0.002466,0.103951,0.067772,0.0,1.0,2637.008789,
87.836998,9.321815,10.515259,5.321912,-0.213228,5.321912,-0.213228,10.000142,10.0,64.188332,68.039299,602.971436,296.195038,14.631019,0.07864,-5.2E-4,518.240295,0.00249,0.104979,0.06927,0.0,1.0,2638.174561,
87.994461,11.18998,12.383425,5.376496,-0.246213,5.376496,-0.246213,10.000142,10.0,66.219597,68.449371,615.366089,296.207489,14.490888,0.076432,0.001121,530.7453,0.003046,0.106438,0.070219,0.0,1.0,2638.931641,
88.219574,14.073781,15.267225,5.45476,-0.275007,5.45476,-0.275007,10.000142,10.0,69.344772,69.055634,634.141357,296.260437,14.270299,0.075272,0.009059,549.333191,0.003517,0.10753,0.069597,0.0,1.0,2640.0354,
88.361725,16.050482,17.243927,5.511131,-0.271193,5.511131,-0.271193,20.000143,20.0,71.48024,69.45388,646.702759,296.308258,14.119415,0.076269,0.016082,561.64209,0.003929,0.109095,0.066949,0.0,1.0,2640.748779,
88.564247,19.096567,20.290012,5.586919,-0.228449,5.586919,-0.228449,20.000143,20.0,74.762192,70.042282,665.434326,296.3703,13.891917,0.079855,0.024447,580.021179,0.003874,0.110223,0.064558,0.0,1.0,2641.783936,
88.693077,21.181145,22.37459,5.638938,-0.186311,5.638938,-0.186311,20.000143,20.0,77.001434,70.428551,677.645569,296.393738,13.741426,0.082336,0.02674,592.225525,0.003264,0.111738,0.061456,0.0,1.0,2642.451416,
88.879539,24.388149,25.581594,5.706614,-0.130957,5.706614,-0.130957,20.000143,20.0,80.435799,70.998947,695.401733,296.391968,13.519778,0.084775,0.023777,610.437988,0.002662,0.112779,0.060284,0.0,1.0,2643.421143,
89.000122,26.578953,27.772398,5.7529,-0.111949,5.7529,-0.111949,30.000143,30.0,82.773453,71.373238,706.73584,296.371521,13.37576,0.084595,0.018675,622.487793,0.001871,0.114132,0.060373,0.0,1.0,2644.048828,
89.176178,29.94278,31.136225,5.814626,-0.124272,5.814626,-0.124272,30.000143,30.0,86.349617,71.925812,723.081482,296.333862,13.167202,0.081705,0.010121,640.356018,0.001599,0.115058,0.061395,0.0,1.0,2644.965576,
89.28994,32.235966,33.429409,5.858409,-0.154168,5.858409,-0.154168,30.000143,30.0,88.778038,72.28833,733.565002,296.317627,13.034585,0.078805,0.006138,652.091064,0.001775,0.116293,0.063278,0.0,1.0,2645.561035,
89.454193,35.749603,36.94305,5.919067,-0.210159,5.919067,-0.210159,40.000141,40.0,92.485596,72.823395,748.902466,296.324432,12.84847,0.074546,0.005616,669.374634,0.002202,0.117168,0.06409,0.0,1.0,2646.431396,
89.558556,38.140076,39.333523,5.962882,-0.240556,5.962882,-0.240556,40.000141,40.0,94.999237,73.174332,758.915161,296.350677,12.735023,0.072923,0.008868,680.667236,0.003002,0.118381,0.06375,0.0,1.0,2646.995605,
89.706947,41.795944,42.989388,6.022872,-0.253323,6.022872,-0.253323,40.000141,40.0,98.832108,73.69207,773.711121,296.408447,12.584169,0.073016,0.016637,697.254333,0.003437,0.119258,0.062437,0.0,1.0,2647.815918,
89.800537,44.27895,45.472393,6.064727,-0.239465,6.064727,-0.239465,40.000141,40.0,101.427826,74.031464,783.357117,296.447205,12.497923,0.074416,0.021615,708.082275,0.003619,0.120457,0.059549,0.0,1.0,2648.345215,
89.934578,48.070408,49.263851,6.118927,-0.195827,6.118927,-0.195827,50.000141,50.0,105.381111,74.531921,797.403809,296.482574,12.391298,0.07747,0.024964,723.987488,0.003421,0.121295,0.057611,0.0,1.0,2649.112305,
90.020737,50.641663,51.835106,6.155252,-0.165073,6.155252,-0.165073,50.000141,50.0,108.054642,74.859833,806.34668,296.485687,12.335381,0.078817,0.023717,734.365967,0.002798,0.122379,0.055843,0.0,1.0,2649.607422,
90.146851,54.56197,55.755417,6.201647,-0.141257,6.201647,-0.141257,50.000141,50.0,112.119629,75.343224,819.104797,296.463409,12.273482,0.078855,0.017411,749.578552,0.002358,0.123105,0.055687,0.0,1.0,2650.328369,
90.229187,57.216499,58.409946,6.233426,-0.146254,6.233426,-0.146254,60.000141,60.0,114.86393,75.659897,827.138062,296.440247,12.24632,0.077283,0.012046,759.466675,0.002018,0.124033,0.056801,0.0,1.0,2650.796387,
90.349846,61.257355,62.450798,6.276251,-0.183946,6.276251,-0.183946,60.000141,60.0,119.029587,76.126671,838.667542,296.415894,12.226152,0.073301,0.006084,773.886169,0.002089,0.124669,0.057959,0.0,1.0,2651.482178,
90.427719,63.989212,65.182655,6.307113,-0.219002,6.307113,-0.219002,60.000141,60.0,121.837967,76.432442,846.075439,296.415649,12.226445,0.070641,0.004951,783.210999,0.002628,0.125525,0.059177,0.0,1.0,2651.928467,
90.539528,68.141632,69.335075,6.350163,-0.261985,6.350163,-0.261985,70.000145,70.0,126.096519,76.883057,856.960083,296.443878,12.247941,0.067976,0.00815,796.759888,0.003129,0.126142,0.059189,0.0,1.0,2652.581299,
90.610153,70.945137,72.138588,6.381142,-0.275054,6.381142,-0.275054,70.000145,70.0,128.965363,77.178146,864.086975,296.476349,12.276522,0.067677,0.012458,805.507813,0.003743,0.127003,0.057777,0.0,1.0,2653.004395,
90.710403,75.201454,76.394897,6.422531,-0.262486,6.422531,-0.262486,80.000145,80.0,133.313004,77.612854,874.583557,296.525269,12.340539,0.069336,0.018724,818.227905,0.003929,0.127623,0.056154,0.0,1.0,2653.619629,
90.768784,77.831886,79.02533,6.448485,-0.241432,6.448485,-0.241432,80.000145,80.0,135.995239,77.873848,880.795654,296.546387,12.391526,0.070967,0.020944,825.778442,0.00375,0.128451,0.053708,0.0,1.0,2653.984131,
90.865936,82.423805,83.617249,6.486421,-0.201282,6.486421,-0.201282,80.000145,80.0,140.67218,78.316429,891.100098,296.553955,12.498476,0.073003,0.019803,838.332642,0.003449,0.12897,0.052652,0.0,1.0,2654.594482,
90.926071,85.357986,86.55143,6.510458,-0.185257,6.510458,-0.185257,90.000145,90.0,143.653214,78.590645,897.260071,296.541443,12.576627,0.073126,0.016284,846.144409,0.002875,0.129728,0.052274,0.0,1.0,2654.968994,
91.014961,89.803917,90.997368,6.540415,-0.190324,6.540415,-0.190324,90.000145,90.0,148.162247,78.994408,905.964417,296.511688,12.706268,0.071255,0.009394,857.476746,0.002647,0.130209,0.052899,0.0,1.0,2655.517822,
91.073227,92.796539,93.989983,6.561451,-0.211379,6.561451,-0.211379,90.000145,90.0,151.191589,79.258636,911.418335,296.495117,12.799548,0.069031,0.005568,864.775024,0.002719,0.130808,0.054387,0.0,1.0,2655.875977,
91.158264,97.326477,98.51992,6.591163,-0.256011,6.591163,-0.256011,100.000145,100.0,155.76918,79.647697,919.329224,296.491547,12.948008,0.065385,0.003675,875.333008,0.00302,0.131229,0.055215,0.0,1.0,2656.402832,
91.212624,100.372704,101.566147,6.613133,-0.283415,6.613133,-0.283415,100.000145,100.0,158.842545,79.90229,924.502563,296.506012,13.052016,0.063745,0.005267,882.115295,0.003657,0.131823,0.055394,0.0,1.0,2656.746338,
91.289871,104.979843,106.173286,6.643663,-0.301618,6.643663,-0.301618,100.000145,100.0,163.48494,80.277077,932.188965,296.545044,13.214667,0.063212,0.010512,891.923767,0.004049,0.132263,0.054671,0.0,1.0,2657.249023,
91.338394,108.075699,109.269142,6.665189,-0.296447,6.665189,-0.296447,110.000145,110.0,166.600952,80.52224,937.233154,296.573822,13.32681,0.064048,0.014319,898.236755,0.004309,0.132873,0.052719,0.0,1.0,2657.574951,
91.407616,112.754974,113.948418,6.692873,-0.267903,6.692873,-0.267903,110.000145,110.0,171.306259,80.883018,944.602783,296.602386,13.498755,0.066351,0.017386,907.398071,0.004235,0.133304,0.05128,0.0,1.0,2658.049316,
91.452126,115.897507,117.09095,6.711167,-0.245133,6.711167,-0.245133,120.000145,120.0,174.463074,81.118935,949.29071,296.606415,13.614397,0.067539,0.016866,913.314575,0.003827,0.133857,0.049852,0.0,1.0,2658.356934,
91.517723,120.64463,121.838074,6.733841,-0.224912,6.733841,-0.224912,120.000145,120.0,179.226883,81.466042,955.936646,296.590393,13.786507,0.06793,0.012451,921.914795,0.003502,0.134223,0.049651,0.0,1.0,2658.806641,
91.56102,123.830818,125.024269,6.74912,-0.226539,6.74912,-0.226539,120.000145,120.0,182.420532,81.693016,960.081421,296.571747,13.898742,0.066923,0.008345,927.465576,0.003213,0.134677,0.050452,0.0,1.0,2659.100342,
91.625191,128.640823,129.834274,6.769666,-0.252978,6.769666,-0.252978,130.000137,130.0,187.236313,82.026978,965.989502,296.549438,14.061169,0.064,0.003411,935.510742,0.003236,0.134982,0.051384,0.0,1.0,2659.533447,
91.666954,131.867126,133.060577,6.78477,-0.279407,6.78477,-0.279407,130.000137,130.0,190.462845,82.245369,969.781616,296.545898,14.164727,0.061929,0.002165,940.683777,0.003614,0.135393,0.052499,0.0,1.0,2659.817383,
91.727043,136.734695,137.928146,6.806458,-0.313702,6.806458,-0.313702,140.000137,140.0,195.326233,82.566696,975.389954,296.562866,14.31236,0.059718,0.00414,948.1604,0.003992,0.135695,0.052676,0.0,1.0,2660.235596,
91.76487,139.997818,141.191254,6.822462,-0.325366,6.822462,-0.325366,140.000137,140.0,198.583954,82.776787,979.105835,296.585449,14.405494,0.059393,0.007276,952.964111,0.004481,0.136129,0.051828,0.0,1.0,2660.508545,
91.818176,144.918671,146.112122,6.844074,-0.317953,6.844074,-0.317953,140.000137,140.0,203.49379,83.085815,984.636047,296.621124,14.536931,0.060613,0.012122,959.920715,0.004648,0.136449,0.050699,0.0,1.0,2660.907471,
91.851784,148.216263,149.409698,6.858732,-0.300947,6.858732,-0.300947,150.000137,150.0,206.782135,83.287796,988.231506,296.637878,14.61859,0.061924,0.014061,964.406982,0.004542,0.136881,0.048915,0.0,1.0,2661.16626,
91.90049,153.187393,154.380844,6.876725,-0.271681,6.876725,-0.271681,150.000137,150.0,211.736755,83.584801,993.394592,296.642212,14.73091,0.06368,0.013378,970.929016,0.004299,0.137175,0.048077,0.0,1.0,2661.544922,
91.932442,156.517517,157.710968,6.888392,-0.258731,6.888392,-0.258731,160.000137,160.0,215.053665,83.778893,996.616577,296.631989,14.798156,0.063921,0.01079,975.144714,0.003881,0.137534,0.047861,0.0,1.0,2661.791748,
91.980186,161.535812,162.729263,6.903132,-0.261189,6.903132,-0.261189,160.000137,160.0,220.048584,84.064301,1001.146057,296.607544,14.886302,0.062648,0.005561,981.269348,0.003696,0.137768,0.048372,0.0,1.0,2662.155273,
92.011803,164.896133,166.089584,6.913562,-0.276451,6.913562,-0.276451,160.000137,160.0,223.390671,84.250839,1003.987793,296.593384,14.936192,0.061008,0.002602,985.216187,0.003731,0.138063,0.049594,0.0,1.0,2662.394287,
92.058182,169.957703,171.151154,6.928496,-0.309828,6.928496,-0.309828,170.000137,170.0,228.42131,84.525162,1008.117981,296.58844,14.997799,0.058251,0.001104,990.92627,0.003949,0.138271,0.050302,0.0,1.0,2662.748047,
92.087822,173.345581,174.539032,6.939862,-0.330444,6.939862,-0.330444,170.000137,170.0,231.786392,84.704453,1010.838501,296.598175,15.030499,0.057025,0.002315,994.593445,0.004426,0.13857,0.050549,0.0,1.0,2662.980469,
92.129639,178.446838,179.640274,6.956118,-0.343806,6.956118,-0.343806,180.000137,180.0,236.851135,84.968094,1014.929565,296.626404,15.068083,0.056686,0.006375,999.895081,0.004721,0.138797,0.050063,0.0,1.0,2663.32251,
Command_Fault: set /systems/static/serviceable false
Command_Fault: set /instrumentation/vertical-speed-indicator/serviceable false
92.155647,181.860245,183.053696,6.967716,-0.339319,6.967716,-0.339319,180.000137,180.0,240.238922,85.14035,1017.649231,296.64743,15.086071,0.057408,0.009331,1003.307007,0.004912,0.139122,0.048651,0.0,1.0,2663.54541,
91.818375,183.570648,184.764099,6.98244,-0.316561,6.98244,-0.316561,180.000137,180.0,245.33754,85.393562,1021.644104,296.667694,15.103071,0.059313,0.011722,1004.979187,0.004847,0.139354,0.0476,0.0,1.0,2663.871582,
91.432533,183.570648,184.764099,6.991938,-0.298561,6.991938,-0.298561,180.000137,180.0,248.747421,85.558968,1024.179443,296.669556,15.107834,0.060312,0.011325,1004.979187,0.004522,0.139649,0.046587,0.0,1.0,2664.084229,
90.848061,183.570648,184.764099,7.00334,-0.282606,7.00334,-0.282606,180.000137,180.0,253.877655,85.802063,1027.743408,296.655457,15.10504,0.060701,0.007937,1004.979187,0.004265,0.139839,0.046494,0.0,1.0,2664.396729,
90.45488,183.570648,184.764099,7.010948,-0.283728,7.010948,-0.283728,180.000137,180.0,257.307281,85.960869,1029.94458,296.640106,15.096573,0.059969,0.004807,1004.979187,0.004037,0.140067,0.047198,0.0,1.0,2664.601807,
89.859673,183.570648,184.764099,7.021303,-0.303871,7.021303,-0.303871,180.000137,180.0,262.465149,86.194298,1033.069092,296.621918,15.07445,0.057771,0.001133,1004.979187,0.004053,0.140219,0.047966,0.0,1.0,2664.906006,
89.458839,183.570648,184.764099,7.029149,-0.323816,7.029149,-0.323816,180.000137,180.0,265.912201,86.346794,1035.081055,296.618835,15.054061,0.056235,2.98E-4,1004.979187,0.004341,0.140426,0.048875,0.0,1.0,2665.106445,
88.85067,183.570648,184.764099,7.040829,-0.348996,7.040829,-0.348996,180.000137,180.0,271.095337,86.570969,1038.087769,296.63147,15.016602,0.054665,0.002017,1004.979187,0.004626,0.140583,0.04903,0.0,1.0,2665.403076,
88.440163,183.570648,184.764099,7.049646,-0.356785,7.049646,-0.356785,180.000137,180.0,274.559113,86.7174,1040.108276,296.648376,14.988074,0.054533,0.004524,1004.979187,0.004986,0.140817,0.048398,0.0,1.0,2665.597412,
87.816635,183.570648,184.764099,7.06158,-0.349212,7.06158,-0.349212,180.000137,180.0,279.767487,86.932587,1043.143921,296.6745,14.941532,0.055651,0.008276,1004.979187,0.005097,0.140993,0.047552,0.0,1.0,2665.882813,
87.396019,183.570648,184.764099,7.069559,-0.335117,7.069559,-0.335117,180.000137,180.0,283.248077,87.073097,1045.123047,296.686066,14.908646,0.056754,0.009702,1004.979187,0.004989,0.141232,0.046246,0.0,1.0,2666.068604,
86.75853,183.570648,184.764099,7.078982,-0.312022,7.078982,-0.312022,180.000137,180.0,288.481049,87.279533,1047.946045,296.687073,14.857144,0.058176,0.009025,1004.979187,0.004787,0.141391,0.045668,0.0,1.0,2666.341553,
86.329636,183.570648,184.764099,7.084877,-0.30225,7.084877,-0.30225,180.000137,180.0,291.977234,87.414322,1049.682983,296.677765,14.821538,0.058369,0.006954,1004.979187,0.004457,0.14158,0.045618,0.0,1.0,2666.520264,
85.680832,183.570648,184.764099,7.092147,-0.304961,7.092147,-0.304961,180.000137,180.0,297.231964,87.61235,1052.089844,296.657623,14.766532,0.057367,0.002949,1004.979187,0.004318,0.141698,0.046083,0.0,1.0,2666.784912,
85.244537,183.570648,184.764099,7.097359,-0.317147,7.097359,-0.317147,180.000137,180.0,300.741516,87.741669,1053.585083,296.646515,14.729166,0.056113,7.89E-4,1004.979187,0.004357,0.141843,0.04709,0.0,1.0,2666.959473,
84.583786,183.570648,184.764099,7.105145,-0.342613,7.105145,-0.342613,180.000137,180.0,306.015076,87.931702,1055.763184,296.643127,14.673127,0.054073,-7.3E-5,1004.979187,0.004531,0.141947,0.047646,0.0,1.0,2667.219238,
84.138535,183.570648,184.764099,7.1113,-0.357596,7.1113,-0.357596,180.000137,180.0,309.536804,88.055801,1057.215576,296.651001,14.636586,0.053239,0.001059,1004.979187,0.004894,0.142103,0.047815,0.0,1.0,2667.390381,
83.462852,183.570648,184.764099,7.120296,-0.365718,7.120296,-0.365718,180.000137,180.0,314.828552,88.238129,1059.430176,296.672699,14.58444,0.053189,0.004363,1004.979187,0.005109,0.142226,0.047421,0.0,1.0,2667.643311,
83.00705,183.570648,184.764099,7.126707,-0.36069,7.126707,-0.36069,180.000137,180.0,318.362549,88.35717,1060.917236,296.688171,14.552122,0.053875,0.006634,1004.979187,0.005225,0.142406,0.046336,0.0,1.0,2667.808838,
82.315727,183.570648,184.764099,7.134597,-0.341605,7.134597,-0.341605,180.000137,180.0,323.672821,88.532013,1063.099121,296.701691,14.507986,0.055465,0.008298,1004.979187,0.005153,0.142534,0.045563,0.0,1.0,2668.052246,
81.850197,183.570648,184.764099,7.139471,-0.327481,7.139471,-0.327481,180.000137,180.0,327.218872,88.646133,1064.467896,296.701416,14.481537,0.056251,0.007822,1004.979187,0.00488,0.142692,0.044887,0.0,1.0,2668.211182,
81.145622,183.570648,184.764099,7.144962,-0.316067,7.144962,-0.316067,180.000137,180.0,332.546173,88.813736,1066.355591,296.688416,14.446155,0.056494,0.005036,1004.979187,0.004678,0.142789,0.0449,0.0,1.0,2668.446533,
80.67189,183.570648,184.764099,7.148506,-0.317919,7.148506,-0.317919,180.000137,180.0,336.102661,88.923149,1067.495117,296.675812,14.425317,0.055886,0.002621,1004.979187,0.004515,0.142899,0.04555,0.0,1.0,2668.601563,
79.954994,183.570648,184.764099,7.153447,-0.334545,7.153447,-0.334545,180.000137,180.0,341.444305,89.083862,1069.092896,296.661957,14.398223,0.054168,-6.0E-6,1004.979187,0.004542,0.14297,0.046181,0.0,1.0,2668.832764,
79.472435,183.570648,184.764099,7.157402,-0.349952,7.157402,-0.349952,180.000137,180.0,345.009735,89.188797,1070.125488,296.660248,14.383168,0.053036,-4.23E-4,1004.979187,0.004779,0.143069,0.046873,0.0,1.0,2668.986084,
Command: turn_+45
78.738457,183.570648,184.764099,7.165185,-0.397112,7.165185,-0.397112,180.000137,180.0,350.36441,89.342934,1071.712036,296.730927,14.365638,0.042114,0.011694,1004.979187,0.001666,0.143148,0.1,0.0,1.0,2669.213135,
78.233963,183.570648,184.764099,7.179009,-0.421941,7.179009,-0.421941,180.000137,180.0,353.938904,89.443481,1073.009155,296.927551,14.358625,0.040034,0.042831,1004.979187,0.001891,0.143304,0.1,0.0,1.0,2669.357422,
77.442482,183.570648,184.764099,7.211402,-0.284862,7.211402,-0.284862,180.000137,180.0,359.311523,89.590721,1076.219238,297.351715,14.360195,0.05598,0.107067,1004.979187,0.002009,0.14358,0.1,0.0,1.0,2669.545166,
76.891388,183.570648,184.764099,7.233456,-0.055392,7.233456,-0.055392,180.000137,180.0,362.903931,89.686256,1079.213867,297.640717,14.370801,0.075716,0.148184,1004.979187,0.001356,0.144228,0.1,0.0,1.0,2669.641357,
76.040794,183.570648,184.764099,7.248106,0.441262,7.248106,0.441262,180.000137,180.0,368.312042,89.825256,1083.773071,297.977631,14.398158,0.1099,0.190192,1004.979187,2.64E-4,0.144669,0.1,0.0,1.0,2669.73877,
75.466583,183.570648,184.764099,7.248729,0.820287,7.248729,0.820287,180.000137,180.0,371.928864,89.91497,1086.119141,298.107697,14.419119,0.130337,0.200867,1004.979187,-0.002101,0.144962,0.1,0.0,1.0,2669.778809,
74.605545,183.570648,184.764099,7.240526,1.345263,7.240526,1.345263,180.000137,180.0,377.365509,90.045158,1088.150146,298.167603,14.442618,0.150761,0.193067,1004.979187,-0.003906,0.144975,0.1,0.0,1.0,2669.819336,
74.03421,183.570648,184.764099,7.233316,1.627643,7.233316,1.627643,180.000137,180.0,380.993408,90.129181,1088.447632,298.147339,14.445611,0.15613,0.17779,1004.979187,-0.006406,0.144811,0.1,0.0,1.0,2669.843994,
73.180542,183.570648,184.764099,7.22466,1.904802,7.22466,1.904802,180.000137,180.0,386.434296,90.251396,1087.750488,298.097748,14.420636,0.153095,0.151855,1004.979187,-0.007751,0.144666,0.1,0.0,1.0,2669.889404,
72.611755,183.570648,184.764099,7.218978,2.004101,7.218978,2.004101,180.000137,180.0,390.058563,90.330544,1086.795166,298.091064,14.380707,0.146366,0.139172,1004.979187,-0.00907,0.144493,0.1,0.0,1.0,2669.928467,
71.754738,183.570648,184.764099,7.211679,2.063802,7.211679,2.063802,180.000137,180.0,395.488129,90.446075,1085.064697,298.164398,14.284362,0.134501,0.133675,1004.979187,-0.009543,0.14438,0.1,0.0,1.0,2670.000488,
71.177925,183.570648,184.764099,7.20714,2.080459,7.20714,2.080459,180.000137,180.0,399.103058,90.521088,1083.959106,298.276398,14.197357,0.128287,0.139879,1004.979187,-0.009828,0.144234,0.1,0.0,1.0,2670.05542,
70.299843,183.570648,184.764099,7.202872,2.122945,7.202872,2.122945,180.000137,180.0,404.519318,90.630676,1082.680176,298.523193,14.037872,0.124327,0.160598,1004.979187,-0.009907,0.144143,0.1,0.0,1.0,2670.141113,
69.70417,183.570648,184.764099,7.200874,2.183199,7.200874,2.183199,180.000137,180.0,408.127319,90.701775,1082.169067,298.720032,13.915795,0.125609,0.178374,1004.979187,-0.010109,0.144057,0.1,0.0,1.0,2670.197021,
68.795006,183.570648,184.764099,7.198643,2.32976,7.198643,2.32976,180.000137,180.0,413.537079,90.80545,1081.812744,299.024323,13.714597,0.132005,0.204258,1004.979187,-0.010396,0.144017,0.1,0.0,1.0,2670.273193,
68.179787,183.570648,184.764099,7.196557,2.45833,7.196557,2.45833,180.000137,180.0,417.142944,90.872559,1081.714233,299.214203,13.570851,0.137739,0.217962,1004.979187,-0.011094,0.143973,0.1,0.0,1.0,2670.318115,
67.246689,183.570648,184.764099,7.192247,2.667502,7.192247,2.667502,180.000137,180.0,422.550995,90.970207,1081.473267,299.462158,13.34349,0.145793,0.230599,1004.979187,-0.011706,0.143931,0.1,0.0,1.0,2670.378418,
66.619545,183.570648,184.764099,7.188358,2.802724,7.188358,2.802724,180.000137,180.0,426.155334,91.03334,1081.114014,299.602417,13.18504,0.149592,0.234003,1004.979187,-0.012702,0.143845,0.1,0.0,1.0,2670.416016,
65.672882,183.570648,184.764099,7.18217,2.971302,7.18217,2.971302,180.000137,180.0,431.558716,91.125198,1080.186279,299.787964,12.938388,0.15192,0.233974,1004.979187,-0.013346,0.143767,0.1,0.0,1.0,2670.473145,
65.037918,183.570648,184.764099,7.17737,3.056684,7.17737,3.056684,180.000137,180.0,435.157867,91.184631,1079.31958,299.906525,12.769033,0.151396,0.232652,1004.979187,-0.014149,0.143643,0.1,0.0,1.0,2670.513916,
64.078621,183.570648,184.764099,7.170419,3.142324,7.170419,3.142324,180.000137,180.0,440.550568,91.271248,1077.764404,300.096161,12.510437,0.148531,0.231927,1004.979187,-0.014556,0.143547,0.1,0.0,1.0,2670.581299,
63.433453,183.570648,184.764099,7.165314,3.179621,7.165314,3.179621,180.000137,180.0,444.141205,91.327377,1076.649048,300.238373,12.337332,0.146155,0.233601,1004.979187,-0.014963,0.143408,0.1,0.0,1.0,2670.630127,
62.455048,183.570648,184.764099,7.158468,3.220737,7.158468,3.220737,180.000137,180.0,449.520172,91.409271,1075.011963,300.480347,12.081569,0.143227,0.239977,1004.979187,-0.015141,0.143306,0.1,0.0,1.0,2670.70874,
61.794518,183.570648,184.764099,7.153811,3.248288,7.153811,3.248288,180.000137,180.0,453.101807,91.462387,1074.015259,300.658722,11.916866,0.142246,0.246383,1004.979187,-0.015337,0.143169,0.1,0.0,1.0,2670.763428,
60.789898,183.570648,184.764099,7.14801,3.29994,7.14801,3.29994,180.000137,180.0,458.468414,91.539871,1072.710815,300.942719,11.684,0.142471,0.25757,1004.979187,-0.015468,0.143076,0.1,0.0,1.0,2670.84668,
60.110558,183.570648,184.764099,7.144147,3.344084,7.144147,3.344084,180.000137,180.0,462.042786,91.590103,1071.966431,301.136292,11.541141,0.143566,0.26497,1004.979187,-0.015714,0.14296,0.1,0.0,1.0,2670.9021,
59.07719,183.570648,184.764099,7.139161,3.421197,7.139161,3.421197,180.000137,180.0,467.399994,91.66333,1070.963745,301.423279,11.349668,0.14592,0.274411,1004.979187,-0.015924,0.142883,0.1,0.0,1.0,2670.984619,
58.378944,183.570648,184.764099,7.135649,3.476586,7.135649,3.476586,180.000137,180.0,470.968781,91.710754,1070.326416,301.608887,11.239204,0.147507,0.279123,1004.979187,-0.016291,0.142783,0.1,0.0,1.0,2671.039063,
57.317936,183.570648,184.764099,7.130808,3.555655,7.130808,3.555655,180.000137,180.0,476.317871,91.779877,1069.334839,301.877716,11.101903,0.149262,0.283767,1004.979187,-0.016555,0.142713,0.1,0.0,1.0,2671.121338,
56.601528,183.570648,184.764099,7.127267,3.602633,7.127267,3.602633,180.000137,180.0,479.881134,91.824646,1068.626587,302.052216,11.030495,0.149832,0.285644,1004.979187,-0.016932,0.142616,0.1,0.0,1.0,2671.177246,
55.51281,183.570648,184.764099,7.122288,3.659076,7.122288,3.659076,180.000137,180.0,485.221344,91.889923,1067.482788,302.312195,10.955266,0.149768,0.287584,1004.979187,-0.017155,0.142545,0.1,0.0,1.0,2671.263428,
Command_Fault: set /systems/static/serviceable true
Command_Fault: set /instrumentation/vertical-speed-indicator/serviceable true
54.782562,183.570648,184.764099,7.118648,3.688208,7.118648,3.688208,180.000137,180.0,488.778259,91.932236,1066.682007,302.48761,10.927259,0.149293,0.288886,1004.979187,-0.017424,0.142446,0.1,0.0,1.0,2671.322754,
62.328373,233.080521,234.273956,7.113638,3.721024,7.113638,3.721024,210.000137,210.0,494.108521,91.99398,1065.464966,302.758026,10.919878,0.148319,0.291535,2554.815674,-0.017563,0.142373,0.1,0.0,1.0,2671.415039,
71.274864,292.1698,293.363251,7.108453,3.747308,7.108453,3.747308,280.000153,280.0,499.4328,92.053726,1064.285645,303.039032,10.955567,0.147526,0.295315,3480.756348,-0.017719,0.142273,0.1,0.0,1.0,2671.510498,
75.483536,323.557587,324.751038,7.105057,3.764217,7.105057,3.764217,310.000153,310.0,502.979095,92.092491,1063.533691,303.231689,11.003965,0.147271,0.298351,3816.665039,-0.017844,0.142169,0.1,0.0,1.0,2671.575684,
80.122688,361.451965,362.645386,7.100849,3.791371,7.100849,3.791371,350.000153,350.0,508.294067,92.149086,1062.518799,303.526001,11.114068,0.147375,0.303214,4106.744629,-0.017925,0.142101,0.1,0.0,1.0,2671.675781,
82.423294,381.868317,383.061768,7.097917,3.812008,7.097917,3.812008,370.000153,370.0,511.834839,92.185806,1061.971069,303.723633,11.212548,0.147774,0.306333,4207.112793,-0.018054,0.142017,0.1,0.0,1.0,2671.748535,
85.033165,406.930389,408.12381,7.094336,3.845977,7.094336,3.845977,400.000153,400.0,517.142883,92.239388,1061.281738,304.01886,11.397447,0.148622,0.310315,4264.764648,-0.018152,0.141958,0.1,0.0,1.0,2671.865723,
86.352333,420.703979,421.8974,7.092199,3.869634,7.092199,3.869634,420.000153,420.0,520.67981,92.274132,1060.894287,304.213684,11.544918,0.149182,0.312356,4257.976074,-0.018314,0.141887,0.1,0.0,1.0,2671.947754,
87.869446,437.996246,439.189697,7.089818,3.902962,7.089818,3.902962,430.000153,430.0,525.98291,92.324829,1060.390259,304.502716,11.800939,0.149775,0.314506,4199.198242,-0.018427,0.141844,0.1,0.0,1.0,2672.075195,
88.644386,447.747559,448.940979,7.088281,3.922751,7.088281,3.922751,440.000153,440.0,529.517029,92.357704,1060.091431,304.693939,11.993736,0.149947,0.315489,4135.488281,-0.018586,0.141796,0.1,0.0,1.0,2672.162354,
89.542191,460.334839,461.52829,7.086316,3.946877,7.086316,3.946877,460.000153,460.0,534.816406,92.405678,1059.668213,304.98053,12.313972,0.149875,0.316646,4013.011475,-0.01868,0.141766,0.1,0.0,1.0,2672.296387,
90.003448,467.650238,468.843658,7.084998,3.95971,7.084998,3.95971,470.000153,470.0,538.348145,92.436798,1059.402344,305.172607,12.546814,0.149678,0.317425,3917.732178,-0.018795,0.141726,0.1,0.0,1.0,2672.387207,
90.540009,477.387817,478.581268,7.08336,3.974825,7.08336,3.974825,480.000153,480.0,543.644226,92.482216,1059.034302,305.463776,12.9227,0.149302,0.318843,3760.058105,-0.018856,0.1417,0.1,0.0,1.0,2672.525635,
90.816498,483.2276,484.421021,7.082292,3.983436,7.082292,3.983436,480.000153,480.0,547.17395,92.511681,1058.817871,305.660187,13.189591,0.149091,0.320011,3647.698242,-0.018928,0.141667,0.1,0.0,1.0,2672.619141,
91.138718,491.238617,492.432068,7.081008,3.995609,7.081008,3.995609,490.000153,490.0,552.467285,92.554695,1058.541016,305.958008,13.61182,0.148924,0.322032,3471.843994,-0.018969,0.141646,0.1,0.0,1.0,2672.760498,
91.304947,496.184174,497.377625,7.0802,4.004128,7.0802,4.004128,500.000153,500.0,555.995483,92.582596,1058.390259,306.158081,13.906354,0.148934,0.323465,3351.412842,-0.019027,0.14162,0.1,0.0,1.0,2672.855225,
91.498795,503.148712,504.342163,7.079269,4.017799,7.079269,4.017799,500.000153,500.0,561.286987,92.623322,1058.206787,306.45932,14.364973,0.149099,0.325544,3168.363281,-0.019067,0.141604,0.1,0.0,1.0,2672.997803,
91.598854,507.552185,508.745605,7.078694,4.02756,7.078694,4.02756,510.000153,510.0,564.814148,92.649734,1058.108154,306.660248,14.680274,0.149269,0.326789,3045.905029,-0.019132,0.141585,0.1,0.0,1.0,2673.093018,
91.715233,513.880981,515.074463,7.078021,4.042224,7.078021,4.042224,510.000153,510.0,570.10437,92.688271,1057.980835,306.96106,15.164652,0.149527,0.328349,2863.296631,-0.019179,0.141574,0.1,0.0,1.0,2673.236084,
91.775757,517.954712,519.148193,7.077586,4.0517,7.077586,4.0517,520.000122,520.0,573.630798,92.713264,1057.903809,307.161163,15.493481,0.149663,0.329184,2743.183838,-0.019249,0.14156,0.1,0.0,1.0,2673.331543,
91.836113,523.815979,525.009399,7.077085,4.064191,7.077085,4.064191,520.000122,520.0,578.919983,92.749725,1057.785156,307.460876,15.992704,0.149758,0.330192,2564.96167,-0.019294,0.141552,0.1,0.0,1.0,2673.474121,
91.874458,527.706543,528.900024,7.076668,4.0716,7.076668,4.0716,530.000122,530.0,582.445862,92.773361,1057.714111,307.660706,16.327879,0.149773,0.330768,2451.160156,-0.019353,0.141542,0.1,0.0,1.0,2673.570313,
91.919357,533.43573,534.629211,7.076138,4.080989,7.076138,4.080989,530.000122,530.0,587.734131,92.809311,1057.599731,307.961029,16.831526,0.149719,0.331583,2286.408203,-0.019389,0.141533,0.1,0.0,1.0,2673.715088,
91.942734,537.197571,538.390991,7.075804,4.086365,7.075804,4.086365,540.000122,540.0,591.259338,92.833054,1057.525024,308.161835,17.166431,0.14966,0.332141,2181.147461,-0.019433,0.141523,0.1,0.0,1.0,2673.811523,
91.969704,542.777283,543.970764,7.075386,4.093375,7.075386,4.093375,540.000122,540.0,596.546692,92.867729,1057.421631,308.464233,17.665203,0.149577,0.333037,2031.238281,-0.019459,0.141516,0.1,0.0,1.0,2673.956543,
91.983788,546.462585,547.656006,7.0751,4.09775,7.0751,4.09775,550.000122,550.0,600.071289,92.890228,1057.359375,308.666565,17.99411,0.149545,0.333673,1937.112671,-0.019492,0.141508,0.1,0.0,1.0,2674.053467,
92.000221,551.950684,553.144104,7.074742,4.10413,7.074742,4.10413,550.000122,550.0,605.35791,92.923088,1057.275391,308.970947,18.480175,0.149545,0.334644,1805.447998,-0.019513,0.141502,0.1,0.0,1.0,2674.19873,
92.008698,555.588196,556.781677,7.074513,4.108473,7.074513,4.108473,560.000122,560.0,608.88208,92.94442,1057.226074,309.174225,18.798374,0.149576,0.335275,1724.408081,-0.019543,0.141495,0.1,0.0,1.0,2674.295898,
92.018562,561.02002,562.21344,7.074243,4.115006,7.074243,4.115006,560.000122,560.0,614.16803,92.975555,1057.159912,309.479431,19.265436,0.149648,0.336148,1613.444702,-0.019564,0.14149,0.1,0.0,1.0,2674.441406,
