airspeed_indicator_indicated_speed_kt,altimeter_indicated_altitude_ft,altimeter_pressure_alt_ft,attitude_indicator_indicated_pitch_deg,attitude_indicator_indicated_roll_deg,attitude_indicator_internal_pitch_deg,attitude_indicator_internal_roll_deg,encoder_indicated_altitude_ft,encoder_pressure_alt_ft,gps_indicated_altitude_ft,gps_indicated_ground_speed_kt,gps_indicated_vertical_speed,indicated_heading_deg,magnetic_compass_indicated_heading_deg,slip_skid_ball_indicated_slip_skid,turn_indicator_indicated_turn_rate,vertical_speed_indicator_indicated_speed_fpm,flight_aileron,flight_elevator,flight_rudder,flight_flaps,engine_throttle,engine_rpm,
Command: takeoff
3.179871,-25.030842,-23.837399,2.963915,1.357166,2.586544,0.099263,-19.999857,-20.0,2.285873,0.0,3.3E-5,297.867676,276.360535,0.011383,-0.046637,-15.325416,-0.0,0.0,0.0,0.0,0.0,602.008545,
3.178901,-25.031088,-23.837643,2.92131,1.216544,2.586122,0.09925,-19.999857,-20.0,2.285871,0.0,-0.004421,297.866425,279.796234,0.011374,-0.04013,-16.363701,-0.019388,0.051731,0.0,0.0,1.0,610.50592,
3.180246,-25.031158,-23.837715,2.766207,0.723676,2.5788,0.098987,-19.999857,-20.0,2.285832,3.1E-5,-0.017418,297.86554,282.060089,0.011281,-0.036324,-16.654476,-0.017379,0.051722,6.3E-5,0.0,1.0,675.470703,
3.188129,-25.031179,-23.837734,2.573662,0.201289,2.542168,0.09631,-19.999857,-20.0,2.285675,2.27E-4,-0.041535,297.864014,285.37439,0.011262,-0.031374,-16.735834,-0.010338,0.051576,1.07E-4,0.0,1.0,858.396606,
3.224113,-25.031157,-23.837713,2.514041,0.092165,2.514041,0.092165,-19.999857,-20.0,2.28558,8.09E-4,-0.011958,297.862854,287.507568,0.011378,-0.028541,-16.646637,-0.002876,0.050843,1.83E-4,0.0,1.0,1013.089355,
3.362248,-25.03105,-23.837605,2.507778,0.082055,2.507778,0.082055,-19.999857,-20.0,2.285682,0.004197,0.049909,297.860779,290.559265,0.011526,-0.024933,-16.205055,-0.001317,0.050281,2.41E-4,0.0,1.0,1259.60022,
3.52191,-25.030903,-23.837458,2.521219,0.073227,2.521219,0.073227,-19.999857,-20.0,2.285918,0.009551,0.087994,297.858734,292.477386,0.00998,-0.022963,-15.587179,-0.001172,0.050156,3.45E-4,0.0,1.0,1418.486694,
3.872211,-25.030542,-23.837097,2.552979,0.058243,2.552979,0.058243,-19.999857,-20.0,2.286498,0.024925,0.138406,297.85321,295.153442,0.007298,-0.020804,-13.950452,-0.001046,0.050424,4.47E-4,0.0,1.0,1632.164795,
4.178867,-25.030197,-23.836754,2.57622,0.048065,2.57622,0.048065,-19.999857,-20.0,2.287027,0.041651,0.171969,297.846741,296.790039,0.007893,-0.019994,-12.181753,-8.32E-4,0.05106,7.23E-4,0.0,1.0,1753.525024,
4.738961,-25.029514,-23.836069,2.607824,0.03382,2.607824,0.03382,-19.999857,-20.0,2.288025,0.078935,0.219768,297.830688,299.004547,0.002619,-0.019915,-7.520035,-6.87E-4,0.051524,0.001047,0.0,1.0,1902.286255,
5.17063,-25.02894,-23.835495,2.625481,0.025725,2.625481,0.025725,-19.999857,-20.0,2.288836,0.11315,0.259092,297.814117,300.311737,5.0E-4,-0.020771,4.518131,-4.83E-4,0.052156,0.001849,0.0,1.0,1980.695801,
5.889335,-25.027893,-23.834448,2.645064,0.016484,2.645064,0.016484,-19.999857,-20.0,2.290282,0.180176,0.318615,297.78006,302.007141,0.006621,-0.02328,12.683713,-3.68E-4,0.05251,0.002678,0.0,1.0,2071.583252,
6.406807,-25.027063,-23.833618,2.654459,0.012305,2.654459,0.012305,-19.999857,-20.0,2.291419,0.236047,0.361959,297.750397,302.955902,0.009856,-0.025813,16.498449,-2.35E-4,0.052901,0.004381,0.0,1.0,2117.299072,
7.226508,-25.025606,-23.832161,2.663603,0.008782,2.663603,0.008782,-19.999857,-20.0,2.293406,0.33747,0.432133,297.696747,304.102631,0.013329,-0.030511,11.268622,-1.76E-4,0.053089,0.005864,0.0,1.0,2168.363281,
7.794998,-25.024481,-23.831036,2.667669,0.007283,2.667669,0.007283,-19.999857,-20.0,2.294934,0.417123,0.482946,297.655182,304.682434,0.014791,-0.034154,16.672327,-1.25E-4,0.053272,0.008546,0.0,1.0,2193.174561,
8.671139,-25.022543,-23.8291,2.671517,0.006061,2.671517,0.006061,-19.999857,-20.0,2.297552,0.554891,0.563069,297.5896,305.277832,0.016216,-0.039413,14.037747,-1.04E-4,0.053353,0.010625,0.0,1.0,2219.989014,
9.266529,-25.021074,-23.827631,2.673262,0.005913,2.673262,0.005913,-19.999857,-20.0,2.299525,0.658943,0.618404,297.544403,305.495422,0.016744,-0.042707,7.304449,-8.7E-5,0.05343,0.013904,0.0,1.0,2232.52417,
9.566682,-25.020285,-23.826839,2.67393,0.006034,2.67393,0.006034,-19.999857,-20.0,2.300581,0.714615,0.646809,297.522369,305.551697,0.016918,-0.044129,12.624061,-8.7E-5,0.05343,0.013904,0.0,1.0,2237.523193,
10.78206,-25.017368,-23.823923,2.676051,0.00738,2.676051,0.00738,-19.999857,-20.0,2.305283,0.961348,0.761734,297.443756,305.439941,0.017493,-0.047616,14.396685,-8.6E-5,0.053479,0.017265,0.0,1.0,2251.061523,
11.667656,-25.014202,-23.820759,2.677378,0.008849,2.677378,0.008849,-19.999857,-20.0,2.309201,1.165089,0.847216,297.392242,305.037628,0.018049,-0.048839,17.064016,-1.05E-4,0.053521,0.021196,0.0,1.0,2256.116699,
12.304575,-25.011744,-23.8183,2.678316,0.010182,2.678316,0.010182,-19.999857,-20.0,2.312253,1.322626,0.908748,297.361603,304.597504,0.018297,-0.048617,16.624479,-1.26E-4,0.053548,0.023772,0.0,1.0,2258.006836,
13.22147,-25.007893,-23.814447,2.679816,0.012109,2.679816,0.012109,-19.999857,-20.0,2.317024,1.566619,0.997279,297.329254,303.759613,0.019091,-0.046477,10.511745,-1.45E-4,0.053566,0.025304,0.0,1.0,2258.901123,
13.831793,-25.005116,-23.81167,2.68099,0.013436,2.68099,0.013436,-19.999857,-20.0,2.320451,1.740248,1.056366,297.314545,303.079529,0.019965,-0.044152,11.691409,-1.73E-4,0.053596,0.026921,0.0,1.0,2258.597168,
14.71949,-25.000751,-23.807308,2.682854,0.015554,2.682854,0.015554,-19.999857,-20.0,2.3258,2.008733,1.142216,297.302155,301.934662,0.02146,-0.039743,6.117689,-1.92E-4,0.05362,0.027657,0.0,1.0,2258.28125,
15.326732,-24.99754,-23.804096,2.684318,0.017326,2.684318,0.017326,-19.999857,-20.0,2.32971,2.203039,1.201069,297.297943,301.057922,0.022562,-0.036413,11.334371,-2.22E-4,0.053657,0.028276,0.0,1.0,2258.879395,
16.261501,-24.992229,-23.798784,2.686894,0.020337,2.686894,0.020337,-19.999857,-20.0,2.336123,2.518384,1.292278,297.295074,299.58551,0.024022,-0.031352,12.117381,-2.48E-4,0.053686,0.028487,0.0,1.0,2260.556641,
16.867279,-24.988546,-23.795103,2.688833,0.022492,2.688833,0.022492,-19.999857,-20.0,2.340534,2.732917,1.351198,297.293396,298.566833,0.02475,-0.028452,17.182373,-2.91E-4,0.053738,0.02863,0.0,1.0,2261.93042,
17.75025,-24.982843,-23.7894,2.691886,0.025931,2.691886,0.025931,-19.999857,-20.0,2.347319,3.059473,1.437383,297.288391,297.015015,0.025272,-0.025135,19.431383,-3.21E-4,0.053777,0.028714,0.0,1.0,2264.140869,
18.380751,-24.978523,-23.78508,2.694285,0.028626,2.694285,0.028626,-19.999857,-20.0,2.352423,3.302435,1.499251,297.281433,295.873199,0.025158,-0.023582,16.160065,-3.7E-4,0.053838,0.028964,0.0,1.0,2265.796387,
19.263123,-24.972126,-23.778681,2.697816,0.032686,2.697816,0.032686,-19.999857,-20.0,2.359928,3.655801,1.585503,297.265961,294.250702,0.024195,-0.022564,8.763618,-4.09E-4,0.053886,0.029312,0.0,1.0,2268.154541,
19.868088,-24.967503,-23.774059,2.700434,0.035629,2.700434,0.035629,-19.999857,-20.0,2.365317,3.906807,1.644825,297.251129,293.134979,0.023112,-0.022605,18.897064,-4.67E-4,0.053956,0.030086,0.0,1.0,2269.776855,
20.800165,-24.960003,-23.766558,2.704638,0.040218,2.704638,0.040218,-19.999857,-20.0,2.374012,4.307255,1.736838,297.223206,291.432404,0.020917,-0.023432,17.609652,-5.09E-4,0.054009,0.030827,0.0,1.0,2272.265869,
21.404493,-24.954891,-23.761448,2.707596,0.043179,2.707596,0.043179,-19.999857,-20.0,2.379904,4.575532,1.795758,297.202362,290.351563,0.019289,-0.024326,17.598539,-5.75E-4,0.054093,0.032224,0.0,1.0,2273.867188,
22.284477,-24.947029,-23.753584,2.717102,0.052493,2.717102,0.052493,-19.999857,-20.0,2.389397,4.978455,2.151285,297.171295,288.826416,0.01728,-0.025428,18.147758,-6.17E-4,0.054152,0.033266,0.0,1.0,2276.181885,
22.862318,-24.941561,-23.748117,2.721679,0.056298,2.721679,0.056298,-19.999857,-20.0,2.396205,5.250594,2.16187,297.150879,287.866119,0.015129,-0.026132,19.430006,-7.5E-4,0.054342,0.034819,0.0,1.0,2277.689697,
23.788836,-24.932192,-23.738747,2.726363,0.059986,2.726363,0.059986,-19.999857,-20.0,2.40757,5.700284,2.259511,297.121674,286.406799,0.013063,-0.026569,15.491255,-8.04E-4,0.054434,0.03584,0.0,1.0,2280.091553,
24.388708,-24.925802,-23.732357,2.729635,0.062064,2.729635,0.062064,-19.999857,-20.0,2.415215,5.999626,2.324594,297.10553,285.524658,0.012308,-0.026384,19.849243,-8.57E-4,0.054527,0.0373,0.0,1.0,2281.630371,
25.311918,-24.915493,-23.72205,2.735027,0.064799,2.735027,0.064799,-19.999857,-20.0,2.427429,6.472554,2.426053,297.086609,284.276733,0.011971,-0.025206,19.262964,-8.87E-4,0.054593,0.038107,0.0,1.0,2283.97998,
25.909712,-24.908518,-23.715073,2.738785,0.066495,2.738785,0.066495,-19.999857,-20.0,2.43563,6.786546,2.491806,297.077606,283.545868,0.012258,-0.024029,16.289318,-9.26E-4,0.054701,0.039053,0.0,1.0,2285.493164,
26.804922,-24.897644,-23.704199,2.744434,0.068928,2.744434,0.068928,-19.999857,-20.0,2.448342,7.26788,2.590486,297.068298,282.573456,0.013183,-0.021823,17.951111,-9.5E-4,0.054776,0.039503,0.0,1.0,2287.750488,
27.350973,-24.890745,-23.697302,2.748047,0.070535,2.748047,0.070535,-19.999857,-20.0,2.456353,7.567984,2.650377,297.063873,282.05545,0.013903,-0.020449,14.086135,-9.85E-4,0.054889,0.039969,0.0,1.0,2289.124512,
28.243471,-24.879097,-23.685654,2.753859,0.073366,2.753859,0.073366,-19.999857,-20.0,2.469858,8.068521,2.748721,297.05658,281.336365,0.014858,-0.018474,19.448338,-0.001008,0.054961,0.04019,0.0,1.0,2291.366699,
28.886492,-24.870378,-23.676933,2.758279,0.075736,2.758279,0.075736,-19.999857,-20.0,2.47993,8.437125,2.835141,297.049622,280.917694,0.015137,-0.017498,11.498784,-0.001048,0.055077,0.040555,0.0,1.0,2292.982178,
29.725481,-24.858465,-23.665022,2.77076,0.079158,2.77076,0.079158,-19.999857,-20.0,2.494577,8.927859,3.257593,297.036865,280.497803,0.014779,-0.016948,18.224619,-0.001082,0.055166,0.040903,0.0,1.0,2295.091309,
30.365852,-24.848825,-23.65538,2.775313,0.082103,2.775313,0.082103,-19.999857,-20.0,2.506472,9.309597,3.327935,297.023468,280.273193,0.013994,-0.017147,15.239347,-0.001131,0.055415,0.041541,0.0,1.0,2296.702148,
31.226637,-24.835155,-23.641712,2.780355,0.086279,2.780355,0.086279,-19.999857,-20.0,2.522902,9.832056,3.430098,297.001007,280.099548,0.012013,-0.018062,17.027754,-0.001173,0.055506,0.04221,0.0,1.0,2298.868896,
31.791265,-24.825777,-23.632334,2.784027,0.089157,2.784027,0.089157,-19.999857,-20.0,2.533974,10.180601,3.499133,296.983612,280.063263,0.010198,-0.019006,11.749722,-0.001233,0.055607,0.043333,0.0,1.0,2300.291748,
32.722572,-24.809742,-23.616299,2.790352,0.093642,2.790352,0.093642,-19.999857,-20.0,2.552752,10.765229,3.614159,296.952728,280.131683,0.007279,-0.020687,14.088193,-0.001274,0.055681,0.044203,0.0,1.0,2302.64209,
33.285034,-24.799606,-23.606161,2.794425,0.096269,2.794425,0.096269,-19.999857,-20.0,2.564414,11.124243,3.684099,296.93335,280.24649,0.005272,-0.021684,12.430897,-0.001338,0.055807,0.045747,0.0,1.0,2304.064453,
34.163635,-24.783228,-23.589785,2.800656,0.099763,2.800656,0.099763,-19.999857,-20.0,2.583108,11.693734,3.773667,296.905365,280.528564,0.002877,-0.022682,14.300179,-0.001375,0.055889,0.046716,0.0,1.0,2306.289795,
34.77206,-24.771482,-23.578037,2.814419,0.103824,2.814419,0.103824,-19.999857,-20.0,2.596553,12.094482,4.03899,296.887909,280.792023,0.001971,-0.02294,18.962013,-0.001425,0.056013,0.048116,0.0,1.0,2307.834717,
35.596916,-24.754871,-23.561426,2.822888,0.108954,2.822888,0.108954,-19.999857,-20.0,2.616921,12.646194,4.396828,296.868561,281.229523,0.00107,-0.022554,10.946064,-0.001483,0.056288,0.048988,0.0,1.0,2309.934814,
36.153568,-24.743092,-23.549646,2.824795,0.110487,2.824795,0.110487,-19.999857,-20.0,2.631089,13.023655,4.471056,296.858551,281.571503,0.001041,-0.021887,17.450829,-0.001556,0.056458,0.049956,0.0,1.0,2311.354736,
37.070965,-24.722784,-23.529339,2.829548,0.11247,2.829548,0.11247,-19.999857,-20.0,2.65503,13.654542,4.598809,296.847107,282.206055,0.002008,-0.020137,13.915251,-0.001578,0.056496,0.050456,0.0,1.0,2313.699707,
37.672905,-24.70883,-23.515385,2.833779,0.11377,2.833779,0.11377,-19.999857,-20.0,2.671151,14.074379,4.683487,296.841614,282.663269,0.00305,-0.018829,15.725223,-0.001607,0.056591,0.051028,0.0,1.0,2315.241455,
38.513733,-24.688622,-23.495176,2.840012,0.115689,2.840012,0.115689,-19.999857,-20.0,2.694211,14.668298,4.800824,296.834717,283.344818,0.004833,-0.017106,10.000984,-0.001625,0.056676,0.051303,0.0,1.0,2317.398682,
39.088516,-24.67429,-23.480846,2.850179,0.117381,2.850179,0.117381,-19.999857,-20.0,2.711235,15.079572,5.370492,296.829163,283.833496,0.005864,-0.016197,14.859462,-0.001653,0.0568,0.051648,0.0,1.0,2318.877197,
39.971703,-24.651169,-23.457726,2.858636,0.121721,2.858636,0.121721,-19.999857,-20.0,2.739218,15.719776,5.517908,296.817139,284.608673,0.006638,-0.015482,13.914717,-0.001677,0.057004,0.051926,0.0,1.0,2321.155029,
40.519619,-24.636108,-23.442665,2.862444,0.123863,2.862444,0.123863,-19.999857,-20.0,2.756976,16.121387,5.596858,296.806763,285.097534,0.006448,-0.015566,11.070165,-0.001739,0.057173,0.052527,0.0,1.0,2322.570068,
41.37534,-24.611641,-23.418198,2.868291,0.127496,2.868291,0.127496,-19.999857,-20.0,2.785286,16.755404,5.724545,296.786285,285.862854,0.005146,-0.016333,12.126554,-0.001769,0.057249,0.053046,0.0,1.0,2324.783936,
41.920822,-24.595461,-23.402016,2.872351,0.130014,2.872351,0.130014,-19.999857,-20.0,2.803713,17.163816,5.807783,296.770325,286.346313,0.003653,-0.017214,21.125202,-0.001821,0.057366,0.05407,0.0,1.0,2326.197754,
42.773148,-24.569534,-23.376089,2.878649,0.133823,2.878649,0.133823,-19.999857,-20.0,2.833087,17.808113,5.938418,296.742767,287.084747,7.94E-4,-0.018816,15.417473,-0.001857,0.057447,0.054868,0.0,1.0,2328.409668,
43.291553,-24.553186,-23.359741,2.886367,0.139102,2.886367,0.139102,-19.999857,-20.0,2.851881,18.204779,6.504836,296.725098,287.520447,-3.14E-4,-0.019702,15.125111,-0.001912,0.057573,0.056245,0.0,1.0,2329.760742,
44.207161,-24.522905,-23.329462,2.900841,0.150445,2.900841,0.150445,-19.999857,-20.0,2.889169,18.913185,6.994515,296.694977,288.254333,-0.004348,-0.020923,16.781006,-0.001987,0.057727,0.057129,0.0,1.0,2333.111084,
44.862705,-24.499815,-23.30637,2.905324,0.152891,2.905324,0.152891,-19.999857,-20.0,2.916575,19.425753,7.096946,296.675293,288.744659,-0.00642,-0.02147,12.069929,-0.002149,0.058017,0.058635,0.0,1.0,2336.42041,
45.610954,-24.472656,-23.279213,2.910144,0.154944,2.910144,0.154944,-19.999857,-20.0,2.948403,20.015455,7.222925,296.65799,289.261688,-0.007666,-0.021204,16.203434,-0.002179,0.058092,0.059456,0.0,1.0,2340.740723,
46.428368,-24.441484,-23.248039,2.916417,0.15671,2.916417,0.15671,-19.999857,-20.0,2.983871,20.665068,7.365752,296.643982,289.768524,-0.007724,-0.020216,12.778398,-0.002213,0.058203,0.060484,0.0,1.0,2345.859863,
46.988377,-24.419538,-23.226095,2.920777,0.157585,2.920777,0.157585,-19.999857,-20.0,3.008594,21.113226,7.46403,296.637177,290.077942,-0.006936,-0.019189,13.198293,-0.002232,0.058285,0.060973,0.0,1.0,2349.514404,
47.873775,-24.383907,-23.190462,2.927825,0.158887,2.927825,0.158887,-19.999857,-20.0,3.048412,21.827179,7.61982,296.628815,290.500854,-0.005012,-0.017407,21.241116,-0.002251,0.058416,0.061525,0.0,1.0,2355.442627,
48.688744,-24.349876,-23.156433,2.934213,0.160197,2.934213,0.160197,-19.999857,-20.0,3.085812,22.489365,7.76335,296.621399,290.815186,-0.00275,-0.015979,18.776344,-0.002264,0.058509,0.06181,0.0,1.0,2360.99585,
49.24752,-24.32604,-23.132595,2.938538,0.161261,2.938538,0.161261,-19.999857,-20.0,3.111862,22.945904,7.862231,296.61496,290.98822,-0.001391,-0.01534,22.121361,-0.002281,0.058636,0.062167,0.0,1.0,2364.834961,
50.085217,-24.289574,-23.09613,2.944882,0.163231,2.944882,0.163231,-19.999857,-20.0,3.151551,23.634369,8.009781,296.601776,291.182709,-6.3E-5,-0.015042,12.641186,-0.002296,0.058732,0.062479,0.0,1.0,2370.624023,
50.620266,-24.26585,-23.072405,2.947997,0.165744,2.947997,0.165744,-19.999857,-20.0,3.1771,24.07646,7.995311,296.590607,291.266388,3.03E-4,-0.015277,19.067434,-0.002322,0.058858,0.063066,0.0,1.0,2374.336426,
51.480911,-24.227163,-23.033718,2.954075,0.168516,2.954075,0.168516,-19.999857,-20.0,3.218588,24.791203,8.148254,296.568665,291.335938,-3.46E-4,-0.016264,18.785122,-0.002347,0.058933,0.063574,0.0,1.0,2380.325684,
52.038849,-24.201675,-23.00823,2.958274,0.17024,2.958274,0.17024,-19.999857,-20.0,3.245921,25.257103,8.246934,296.552124,291.339386,-0.001296,-0.017177,19.574982,-0.002395,0.059043,0.064598,0.0,1.0,2384.219482,
52.874886,-24.16287,-22.969425,2.96903,0.170912,2.96903,0.170912,-19.999857,-20.0,3.288755,25.959211,8.858003,296.526398,291.285706,-0.003297,-0.01856,21.49202,-0.002421,0.059127,0.065393,0.0,1.0,2390.071289,
53.454563,-24.135166,-22.941723,2.973972,0.17241,2.973972,0.17241,-19.999857,-20.0,3.319722,26.44902,8.994365,296.508606,291.208923,-0.00456,-0.01935,21.98554,-0.002435,0.059308,0.066632,0.0,1.0,2394.140869,
54.264221,-24.095016,-22.901573,2.988528,0.173666,2.988528,0.173666,-19.999857,-20.0,3.367353,27.137714,9.992615,296.486481,291.05069,-0.006509,-0.0199,14.478425,-0.002453,0.059434,0.067534,0.0,1.0,2399.844971,
54.842033,-24.065098,-22.871653,2.992515,0.174762,2.992515,0.174762,-19.999857,-20.0,3.402231,27.631693,10.094309,296.472809,290.904083,-0.006924,-0.019896,22.765167,-0.00247,0.059712,0.068698,0.0,1.0,2403.923096,
55.673508,-24.020491,-22.827047,2.997858,0.175864,2.997858,0.175864,-19.999857,-20.0,3.453109,28.345928,10.254353,296.45752,290.648773,-0.006704,-0.019218,14.126858,-0.002489,0.059813,0.069405,0.0,1.0,2409.802002,
56.227341,-23.989868,-22.796425,3.001754,0.176302,3.001754,0.176302,-19.999857,-20.0,3.487484,28.823936,10.365661,296.449677,290.452698,-0.00591,-0.018461,13.995946,-0.002507,0.059919,0.070277,0.0,1.0,2413.725098,
57.056812,-23.942678,-22.749235,3.012607,0.181976,3.012607,0.181976,-19.999857,-20.0,3.541051,29.543633,11.111317,296.441071,290.125336,-0.003963,-0.016856,14.702029,-0.002516,0.059996,0.070717,0.0,1.0,2419.615723,
57.609234,-23.910225,-22.71678,3.017455,0.182455,3.017455,0.182455,-19.999857,-20.0,3.578275,30.02516,11.218404,296.435944,289.888245,-0.002246,-0.015914,15.084715,-0.002559,0.060161,0.071202,0.0,1.0,2423.545654,
58.436527,-23.859962,-22.666517,3.022792,0.182735,3.022792,0.182735,-19.999857,-20.0,3.634795,30.749954,11.386319,296.427795,289.510132,6.32E-4,-0.014765,15.993251,-0.002605,0.060308,0.07146,0.0,1.0,2429.446533,
58.987904,-23.825588,-22.632143,3.026417,0.182902,3.026417,0.182902,-19.999857,-20.0,3.672951,31.234772,11.501747,296.42099,289.246552,0.002505,-0.014313,16.423086,-0.002609,0.06042,0.071849,0.0,1.0,2433.384277,
59.791382,-23.77442,-22.580976,3.036516,0.183022,3.036516,0.183022,-19.999857,-20.0,3.729793,31.944038,12.147652,296.408386,288.851044,0.004569,-0.014156,22.093117,-0.002612,0.060492,0.072157,0.0,1.0,2439.133545,
60.363205,-23.736565,-22.543119,3.047164,0.183261,3.047164,0.183261,-19.999857,-20.0,3.774862,32.452225,13.039618,296.397278,288.563873,0.005814,-0.014394,17.834568,-0.002615,0.060589,0.072673,0.0,1.0,2443.243408,
61.163792,-23.681465,-22.488022,3.052,0.183209,3.052,0.183209,-19.999857,-20.0,3.83864,33.165794,13.199863,296.378906,288.160309,0.007492,-0.015124,23.841206,-0.002617,0.06087,0.073218,0.0,1.0,2449.027832,
61.689541,-23.644152,-22.450708,3.054838,0.183067,3.054838,0.183067,-19.999857,-20.0,3.880997,33.636009,13.315425,296.365723,287.896881,0.008352,-0.015708,18.648829,-0.002617,0.061013,0.074135,0.0,1.0,2452.881592,
62.535023,-23.582344,-22.388899,3.059991,0.182699,3.059991,0.182699,-19.999857,-20.0,3.94994,34.394535,13.512415,296.345123,287.480988,0.009477,-0.016443,18.686857,-0.002617,0.061067,0.074754,0.0,1.0,2459.141602,
63.083054,-23.541306,-22.347862,3.063557,0.182212,3.063557,0.182212,-19.999857,-20.0,3.995207,34.88789,13.642078,296.332642,287.219147,0.010343,-0.016709,18.054289,-0.002612,0.061164,0.075798,0.0,1.0,2463.229492,
63.927242,-23.476675,-22.28323,3.069074,0.181146,3.069074,0.181146,-19.999857,-20.0,4.065839,35.650467,13.842519,296.317078,286.832062,0.012132,-0.016505,19.501791,-0.002607,0.061239,0.076476,0.0,1.0,2469.558838,
Command: fly_strait
64.474358,-23.433907,-22.240461,3.072638,0.180201,3.072638,0.180201,-19.999857,-20.0,4.112206,36.146362,13.972216,296.309326,286.594025,0.013805,-0.016015,24.282801,-0.002593,0.061345,0.077301,0.0,1.0,2473.67749,
65.300316,-23.368536,-22.175093,3.080678,0.205332,3.080678,0.205332,-19.999857,-20.0,4.184148,36.892017,14.81749,296.130524,286.259369,0.006072,-0.044131,16.407825,-0.002581,0.061418,0.0,0.0,1.0,2479.87793,
65.857468,-23.323915,-22.13047,3.081504,0.202562,3.081504,0.202562,-19.999857,-20.0,4.23374,37.390331,14.932582,295.825989,286.051392,-0.010833,-0.089877,22.88443,-0.002815,0.061534,0.003757,0.0,1.0,2484.040771,
66.700432,-23.255465,-22.062021,3.078858,0.184751,3.078858,0.184751,-19.999857,-20.0,4.308891,38.141598,15.129037,295.200684,285.759155,-0.057573,-0.175828,23.411211,-0.002931,0.061634,0.015956,0.0,1.0,2490.343018,
67.265289,-23.208918,-22.015472,3.077924,0.165712,3.077924,0.165712,-19.999857,-20.0,4.359584,38.64455,15.283521,294.753082,285.574554,-0.09861,-0.230124,23.73156,-0.002734,0.061595,0.044458,0.0,1.0,2494.582031,
68.089951,-23.140001,-21.946556,3.080468,0.136223,3.080468,0.136223,-19.999857,-20.0,4.434495,39.379955,15.535143,294.22287,285.315247,-0.159906,-0.279727,17.826761,-0.00251,0.061564,0.067007,0.0,1.0,2500.809326,
68.674835,-23.089748,-21.896305,3.087043,0.116186,3.087043,0.116186,-19.999857,-20.0,4.488795,39.906582,15.771458,294.001129,285.13501,-0.191523,-0.28535,24.496696,-0.002077,0.061576,0.09658,0.0,1.0,2505.274414,
69.517952,-23.01594,-21.822495,3.07917,0.056609,3.07917,0.056609,-19.999857,-20.0,4.570921,40.666729,17.037777,294.002991,284.882172,-0.215836,-0.242834,25.115763,-0.001792,0.061669,0.111356,0.0,1.0,2511.716309,
70.08329,-22.965317,-21.771872,3.045687,-0.023341,3.045687,-0.023341,-19.999857,-20.0,4.628663,41.174702,17.496674,294.208099,284.720276,-0.212366,-0.186909,24.366068,-0.001221,0.061751,0.117673,0.0,1.0,2516.02832,
70.914932,-22.886793,-21.693348,3.013173,-0.124321,3.013173,-0.124321,-19.999857,-20.0,4.720368,41.938408,18.90659,294.743591,284.495667,-0.177458,-0.077862,21.830324,-2.77E-4,0.061294,0.111325,0.0,1.0,2522.499756,
71.453056,-22.832373,-21.638927,3.00628,-0.152164,3.00628,-0.152164,-19.999857,-20.0,4.782979,42.448513,18.699751,295.166718,284.3638,-0.136764,-0.003725,22.48027,0.00143,0.060398,0.088513,0.0,1.0,2526.775146,
72.243523,-22.748343,-21.554897,3.004966,-0.148943,3.004966,-0.148943,-19.999857,-20.0,4.877542,43.214783,19.723089,295.706757,284.202118,-0.064712,0.079059,18.526503,0.002033,0.060159,0.067848,0.0,1.0,2533.092773,
72.769058,-22.690454,-21.497009,2.959277,-0.101012,2.959277,-0.101012,-19.999857,-20.0,4.946153,43.726181,21.232155,295.923523,284.122467,-0.017184,0.105274,23.200533,0.002217,0.060169,0.038214,0.0,1.0,2537.250732,
73.571083,-22.599743,-21.4063,2.826661,0.014752,2.826661,0.014752,-19.999857,-20.0,5.05282,44.493954,21.014698,295.926147,284.049408,0.039145,0.090108,19.193584,0.001879,0.059787,0.023878,0.0,1.0,2543.472168,
74.116013,-22.53731,-21.343864,2.764261,0.043293,2.764261,0.043293,-19.999857,-20.0,5.121179,45.006287,20.167315,295.722046,284.031799,0.061716,0.047818,19.534285,3.04E-4,0.05744,0.017192,0.0,1.0,2547.644531,
74.943581,-22.44203,-21.248585,2.7295,-0.109887,2.7295,-0.109887,-19.999857,-20.0,5.22511,45.775703,21.613173,295.201538,284.047699,0.070937,-0.044986,19.965773,-5.5E-4,0.055792,0.023492,0.0,1.0,2553.966309,
Command_Fault: set /instrumentation/airspeed-indicator/serviceable false
Command_Fault: set /instrumentation/magnetic-compass/serviceable false
75.501213,-22.376957,-21.183514,2.678949,-0.37571,2.678949,-0.37571,-19.999857,-20.0,5.299245,46.289387,22.90468,294.812469,284.082397,0.062838,-0.108574,20.448593,3.93E-4,0.054857,0.045946,0.0,1.0,2558.229248,
75.501213,-22.275482,-21.082037,2.635934,-0.970952,2.635934,-0.970952,-19.999857,-20.0,5.422521,47.061207,27.112188,294.369202,284.082397,0.039718,-0.173719,21.626631,0.00323,0.054132,0.065488,0.0,1.0,2564.69165,
75.501213,-22.203249,-21.009804,2.67259,-1.413428,2.67259,-1.413428,-19.999857,-20.0,5.52342,47.576622,33.929375,294.236115,284.082397,0.023412,-0.186596,23.182671,0.010773,0.052792,0.09117,0.0,1.0,2569.028809,
75.501213,-22.079275,-20.885832,2.827012,-1.954485,2.827012,-1.954485,-19.999857,-20.0,5.739352,48.350735,53.858532,294.331696,284.082397,0.009371,-0.154681,28.226284,0.017067,0.052922,0.101532,0.0,1.0,2575.526611,
75.501213,-21.976969,-20.783524,2.966228,-2.14522,2.966228,-2.14522,-19.999857,-20.0,5.951435,48.867088,73.162918,294.547333,284.082397,0.011396,-0.108599,34.279709,0.025709,0.05529,0.10246,0.0,1.0,2579.80957,
75.501213,-21.773396,-20.57995,3.181254,-2.079961,3.181254,-2.079961,-19.999857,-20.0,6.402343,49.641155,106.786072,294.953125,284.082397,0.030049,-0.028183,47.92001,0.029619,0.057916,0.094229,0.0,1.0,2586.079346,
75.501213,-21.592039,-20.398594,3.318555,-1.832003,3.318555,-1.832003,-19.999857,-20.0,6.800169,50.156357,130.878082,295.179504,284.082397,0.050476,0.015647,59.802395,0.03066,0.062151,0.074757,0.0,1.0,2590.121338,
75.501213,-21.233227,-20.039783,3.478938,-1.282164,3.478938,-1.282164,-19.999857,-20.0,7.544619,50.926983,165.236069,295.302094,284.082397,0.081714,0.042759,80.970284,0.028202,0.065081,0.061777,0.0,1.0,2595.968262,
75.501213,-20.928608,-19.735163,3.567702,-0.911927,3.567702,-0.911927,-19.999857,-20.0,8.132377,51.438862,186.114014,295.21344,284.082397,0.09682,0.031662,96.560966,0.021107,0.068561,0.050902,0.0,1.0,2599.740479,
75.501213,-20.366693,-19.17325,3.665397,-0.537195,3.665397,-0.537195,-19.999857,-20.0,9.133204,52.203392,212.696487,294.868317,284.082397,0.104363,-0.019553,120.957214,0.015561,0.070546,0.051888,0.0,1.0,2604.656982,
75.501213,-19.921392,-18.727947,3.726903,-0.458378,3.726903,-0.458378,-19.999857,-20.0,9.87079,52.71072,228.957428,294.575378,284.082397,0.097269,-0.062498,137.306351,0.009037,0.072678,0.065427,0.0,1.0,2607.3125,
75.501213,-19.148834,-17.955391,3.822574,-0.6014,3.822574,-0.6014,-19.999857,-20.0,11.074019,53.467964,251.438309,294.218048,284.082397,0.076386,-0.110992,161.512283,0.006814,0.073944,0.079561,0.0,1.0,2610.684326,
75.501213,-18.565678,-17.372232,3.89802,-0.793814,3.89802,-0.793814,-19.999857,-20.0,11.938246,53.970127,266.475067,294.106812,284.082397,0.06045,-0.120841,177.307007,0.00753,0.075753,0.099777,0.0,1.0,2612.645264,
75.501213,-17.591026,-16.397583,4.023124,-1.062223,4.023124,-1.062223,-19.999857,-20.0,13.329092,54.718929,289.250153,294.198029,284.082397,0.045465,-0.092907,200.581314,0.009894,0.077204,0.108383,0.0,1.0,2615.288086,
75.501213,-16.87549,-15.682045,4.117945,-1.133069,4.117945,-1.133069,-19.999857,-20.0,14.32066,55.214806,305.04541,294.397217,284.082397,0.045964,-0.05265,215.906403,0.014091,0.079553,0.108891,0.0,1.0,2616.89502,
75.501213,-15.703722,-14.510278,4.256197,-0.985164,4.256197,-0.985164,-9.999858,-10.0,15.91126,55.952877,331.308228,294.774597,284.082397,0.061967,0.017385,238.847183,0.015912,0.081425,0.101283,0.0,1.0,2619.115234,
75.501213,-14.855492,-13.662047,4.351915,-0.73738,4.351915,-0.73738,-9.999858,-10.0,17.050732,56.440651,351.763367,294.98819,284.082397,0.080269,0.054863,254.399734,0.01525,0.084166,0.08324,0.0,1.0,2620.486816,
75.501213,-13.476849,-12.283404,4.487879,-0.258505,4.487879,-0.258505,-9.999858,-10.0,18.892962,57.165241,384.070038,295.113281,284.082397,0.10765,0.075466,278.69931,0.012483,0.086111,0.071071,0.0,1.0,2622.41333,
75.501213,-12.483411,-11.289967,4.575006,0.034035,4.575006,0.034035,-9.999858,-10.0,20.207024,57.643326,402.953583,295.047699,284.082397,0.120141,0.063291,295.606079,0.006037,0.088817,0.060574,0.0,1.0,2623.629883,
75.501213,-10.880917,-9.687472,4.65791,0.279111,4.65791,0.279111,-9.999858,-10.0,22.279598,58.352856,423.838287,294.774719,284.082397,0.124287,0.016271,321.292603,0.001464,0.090695,0.060869,0.0,1.0,2625.382324,
75.501213,-9.741284,-8.54784,4.68882,0.282295,4.68882,0.282295,-9.999858,-10.0,23.711689,58.820866,434.760559,294.552979,284.082397,0.11586,-0.02036,337.963684,-0.003239,0.0927,0.071565,0.0,1.0,2626.515625,
75.501213,-7.934141,-6.740696,4.7251,0.069727,4.7251,0.069727,-9.999858,-10.0,25.922806,59.515518,448.942657,294.317932,284.082397,0.094774,-0.057255,361.562683,-0.004271,0.093529,0.082549,0.0,1.0,2628.177002,
75.501213,-6.66967,-5.476225,4.766929,-0.136563,4.766929,-0.136563,-9.999858,-10.0,27.435431,59.973759,458.352844,294.282501,284.082397,0.080359,-0.060671,376.213501,-0.002303,0.094204,0.096851,0.0,1.0,2629.260498,
75.501213,-4.690644,-3.4972,4.855384,-0.386881,4.855384,-0.386881,1.42E-4,0.0,29.767378,60.653664,474.422791,294.442627,284.082397,0.06861,-0.030618,396.726898,4.59E-4,0.094886,0.101392,0.0,1.0,2630.83667,
75.501213,-3.318651,-2.125207,4.925164,-0.441527,4.925164,-0.441527,1.42E-4,0.0,31.370359,61.101761,487.049744,294.647278,284.082397,0.071038,0.00446,409.699646,0.004566,0.096441,0.097441,0.0,1.0,2631.843506,
75.501213,-1.183576,0.009868,5.02579,-0.302049,5.02579,-0.302049,1.42E-4,0.0,33.858303,61.765701,507.735077,294.968384,284.082397,0.087105,0.056888,428.501404,0.006139,0.097815,0.088681,0.0,1.0,2633.28125,
75.501213,0.367017,1.560461,5.089299,-0.100348,5.089299,-0.100348,1.42E-4,0.0,35.575985,62.202633,522.233459,295.117157,284.082397,0.102831,0.078989,441.225311,0.005353,0.099829,0.072247,0.0,1.0,2634.191406,
75.501213,2.774893,3.968337,5.162641,0.240443,5.162641,0.240443,1.42E-4,0.0,38.241295,62.849293,542.963013,295.146973,284.082397,0.122708,0.078391,460.076813,0.002985,0.101194,0.06293,0.0,1.0,2635.498047,
75.501213,4.36846,5.561904,5.204544,0.402595,5.204544,0.402595,1.42E-4,0.0,39.996956,63.25695,555.546509,295.050262,284.082397,0.128371,0.058612,472.353027,-0.001734,0.102742,0.057446,0.0,1.0,2636.307617,
75.501213,7.023634,8.217078,5.264848,0.460086,5.264848,0.460086,10.000142,10.0,42.901447,63.903965,573.936829,294.786255,284.082397,0.122786,0.009937,492.424866,-0.004592,0.103645,0.059903,0.0,1.0,2637.585693,
75.501213,8.802323,9.995769,5.307073,0.360776,5.307073,0.360776,10.000142,10.0,44.83419,64.318016,585.144226,294.618683,284.082397,0.110448,-0.019453,505.186859,-0.006708,0.10488,0.071715,0.0,1.0,2638.404541,
75.501213,11.55246,12.745904,5.372677,0.07607,5.372677,0.07607,10.000142,10.0,47.802135,64.930984,601.591858,294.500916,284.082397,0.088868,-0.039659,524.013916,-0.006171,0.105662,0.080103,0.0,1.0,2639.618896,
75.501213,13.438486,14.63193,5.424753,-0.121476,5.424753,-0.121476,10.000142,10.0,49.827381,65.334251,613.133057,294.539795,284.082397,0.077535,-0.032887,536.253601,-0.00258,0.106972,0.089745,0.0,1.0,2640.41626,
75.501213,16.345335,17.538778,5.512513,-0.292899,5.512513,-0.292899,20.000143,20.0,52.939404,65.930946,631.353394,294.756927,284.082397,0.072244,0.003244,554.275574,3.93E-4,0.107974,0.090268,0.0,1.0,2641.582275,
75.501213,18.335211,19.528654,5.578593,-0.284732,5.578593,-0.284732,20.000143,20.0,55.066704,66.323105,644.558899,294.949371,284.082397,0.078314,0.034059,566.172302,0.003672,0.109607,0.082213,0.0,1.0,2642.331299,
75.501213,21.399515,22.59296,5.668953,-0.093685,5.668953,-0.093685,20.000143,20.0,58.341843,66.902596,664.893799,295.178802,284.082397,0.095535,0.068555,584.058472,0.004334,0.110927,0.072987,0.0,1.0,2643.403564,
75.501213,23.496475,24.689919,5.723027,0.091436,5.723027,0.091436,20.000143,20.0,60.582012,67.282974,678.534424,295.240417,284.082397,0.108116,0.075141,596.095032,0.002502,0.112775,0.059807,0.0,1.0,2644.085938,
75.501213,26.724365,27.917809,5.784765,0.32552,5.784765,0.32552,30.000143,30.0,64.024078,67.844597,697.312073,295.157745,284.082397,0.119226,0.055519,614.352417,3.8E-5,0.113964,0.054556,0.0,1.0,2645.07373,
75.501213,28.931011,30.124456,5.82303,0.389891,5.82303,0.389891,30.000143,30.0,66.368629,68.213158,708.763428,295.019592,284.082397,0.117962,0.029237,626.583008,-0.003719,0.11529,0.05533,0.0,1.0,2645.717285,
75.501213,32.321014,33.514458,5.875483,0.30027,5.875483,0.30027,30.000143,30.0,69.95298,68.7575,724.231079,294.794891,284.082397,0.104945,-0.011456,644.812927,-0.005296,0.1161,0.060954,0.0,1.0,2646.67041,
75.501213,34.6325,35.825947,5.913807,0.148434,5.913807,0.148434,30.000143,30.0,72.384293,69.114876,734.081665,294.696869,284.082397,0.091598,-0.028567,656.765747,-0.005031,0.117139,0.072403,0.0,1.0,2647.299805,
75.501213,38.173691,39.367134,5.975861,-0.114044,5.975861,-0.114044,40.000141,40.0,76.092026,69.642807,748.599792,294.706635,284.082397,0.074388,-0.027071,674.265137,-0.003301,0.117899,0.078813,0.0,1.0,2648.231689,
75.501213,40.582191,41.775635,6.024934,-0.240038,6.024934,-0.240038,40.000141,40.0,78.604897,69.989326,758.745361,294.811798,284.082397,0.069327,-0.009639,685.624146,4.23E-4,0.11906,0.081563,0.0,1.0,2648.839355,
75.501213,44.264961,45.458408,6.101507,-0.267396,6.101507,-0.267396,40.000141,40.0,82.439011,70.500793,774.534363,295.047089,284.082397,0.073386,0.028399,702.270081,0.002667,0.12001,0.078105,0.0,1.0,2649.718506,
75.501213,46.766506,47.959949,6.153005,-0.179852,6.153005,-0.179852,50.000141,50.0,85.039993,70.836098,785.585815,295.193604,284.082397,0.083089,0.050781,713.173523,0.004002,0.12149,0.067406,0.0,1.0,2650.277344,
75.501213,50.588512,51.78196,6.214935,0.046991,6.214935,0.046991,50.000141,50.0,89.009613,71.330406,801.56488,295.294891,284.082397,0.099533,0.063346,729.359375,0.00334,0.122574,0.059351,0.0,1.0,2651.074707,
75.501213,53.182793,54.37624,6.249811,0.1925,6.249811,0.1925,50.000141,50.0,91.699203,71.654182,811.612793,295.265381,284.082397,0.10719,0.055115,740.060425,4.87E-4,0.123898,0.051639,0.0,1.0,2651.584717,
75.501213,57.1423,58.335743,6.289125,0.295364,6.289125,0.295364,60.000141,60.0,95.792175,72.131401,824.78772,295.102081,284.082397,0.108323,0.02351,755.930908,-0.001784,0.12468,0.051131,0.0,1.0,2652.330566,
75.501213,59.825737,61.01918,6.314534,0.262387,6.314534,0.262387,60.000141,60.0,98.555313,72.444092,832.651184,294.966003,284.082397,0.101172,-0.001024,766.312744,-0.003994,0.125521,0.057275,0.0,1.0,2652.821045,
75.501213,63.912945,65.106384,6.351654,0.080193,6.351654,0.080193,60.000141,60.0,102.746735,72.905228,843.459839,294.828156,284.082397,0.084679,-0.025287,781.445496,-0.004147,0.126048,0.064008,0.0,1.0,2653.551758,
75.501213,66.676926,67.870369,6.381032,-0.073818,6.381032,-0.073818,70.000145,70.0,105.570648,73.20752,850.587708,294.817413,284.082397,0.073905,-0.027082,791.180664,-0.002187,0.126763,0.07263,0.0,1.0,2654.034668,
75.501213,70.878578,72.072021,6.431874,-0.245005,6.431874,-0.245005,70.000145,70.0,109.85157,73.65329,861.555115,294.937225,284.082397,0.065465,-0.007013,805.230225,-3.6E-5,0.127326,0.075005,0.0,1.0,2654.746338,
75.501213,73.715584,74.909027,6.471311,-0.275365,6.471311,-0.275365,70.000145,70.0,112.737038,73.945305,869.44281,295.072235,284.082397,0.067478,0.014921,814.257874,0.002869,0.12826,0.071547,0.0,1.0,2655.205566,
75.501213,78.024048,79.217491,6.527051,-0.173634,6.527051,-0.173634,80.000145,80.0,117.115524,74.37545,881.601929,295.260834,284.082397,0.078767,0.044246,827.404419,0.003875,0.129039,0.065526,0.0,1.0,2655.863281,
75.501213,80.931511,82.124962,6.56033,-0.04506,6.56033,-0.04506,80.000145,80.0,120.068542,74.656891,889.801819,295.329712,284.082397,0.088899,0.053345,835.972595,0.003194,0.130165,0.055371,0.0,1.0,2656.280029,
75.501213,85.345184,86.538628,6.595335,0.144167,6.595335,0.144167,90.000145,90.0,124.54702,75.071129,900.95105,295.299225,284.082397,0.099775,0.04423,848.608887,0.001611,0.130904,0.050449,0.0,1.0,2656.879395,
Command_Fault: set /instrumentation/airspeed-indicator/serviceable true
Command_Fault: set /instrumentation/magnetic-compass/serviceable true
75.501213,88.321907,89.51535,6.614511,0.212892,6.614511,0.212892,90.000145,90.0,127.561882,75.342102,907.550354,295.206543,284.082397,0.100759,0.02639,856.883911,-0.001252,0.131687,0.049319,0.0,1.0,2657.268555,
91.440315,92.836151,94.029594,6.637638,0.17638,6.637638,0.17638,90.000145,90.0,132.122101,75.741104,916.031189,295.032654,284.100983,0.092805,-0.005058,868.999939,-0.002682,0.132116,0.052734,0.0,1.0,2657.846436,
91.510124,95.876602,97.070045,6.654659,0.074668,6.654659,0.074668,100.000145,100.0,135.184555,76.002296,921.179565,294.944763,284.064545,0.082822,-0.020276,876.81897,-0.002943,0.132592,0.061165,0.0,1.0,2658.230713,
91.613174,100.480507,101.673958,6.684501,-0.123013,6.684501,-0.123013,100.000145,100.0,139.809723,76.387108,928.681091,294.926514,283.939514,0.068646,-0.023265,888.08252,-0.001884,0.132924,0.066521,0.0,1.0,2658.805176,
91.677223,103.577026,104.77047,6.71005,-0.227577,6.71005,-0.227577,100.000145,100.0,142.91449,76.63903,934.00116,294.992218,283.812042,0.063572,-0.012137,895.268127,8.16E-4,0.133463,0.069841,0.0,1.0,2659.183594,
91.761787,108.260994,109.454437,6.752766,-0.267891,6.752766,-0.267891,110.000145,110.0,147.606216,77.009956,942.549194,295.16214,283.561279,0.065186,0.015812,905.607544,0.002597,0.133942,0.068034,0.0,1.0,2659.734131,
91.81031,111.409363,112.602806,6.782245,-0.212342,6.782245,-0.212342,110.000145,110.0,150.758728,77.252525,948.715088,295.275482,283.358734,0.072237,0.033538,912.26123,0.00387,0.134749,0.060603,0.0,1.0,2660.085205,
91.876793,116.170509,117.363953,6.817002,-0.046467,6.817002,-0.046467,120.000145,120.0,155.525864,77.609261,957.748596,295.36203,283.009369,0.08521,0.045226,921.990356,0.003549,0.135366,0.054529,0.0,1.0,2660.586182,
91.920753,119.370285,120.563728,6.835147,0.066203,6.835147,0.066203,120.000145,120.0,158.728333,77.842361,963.39856,295.346069,282.750061,0.091793,0.040344,928.348755,0.001533,0.13612,0.048285,0.0,1.0,2660.90625,
91.991119,124.20771,125.401154,6.852614,0.153261,6.852614,0.153261,120.000145,120.0,163.564499,78.18512,970.569641,295.226013,282.327209,0.093735,0.017358,937.704956,-1.88E-4,0.136544,0.047543,0.0,1.0,2661.375,
92.041512,127.456795,128.650238,6.863044,0.13429,6.863044,0.13429,130.000137,130.0,166.806946,78.409203,974.643982,295.121124,282.025787,0.088681,-0.00134,943.789734,-0.001971,0.136942,0.051884,0.0,1.0,2661.685303,
92.120224,132.364151,133.557587,6.87914,9.37E-4,6.87914,9.37E-4,130.000137,130.0,171.69429,78.738968,980.044922,295.010071,281.549713,0.076137,-0.02054,952.608948,-0.002181,0.137163,0.056996,0.0,1.0,2662.1521,
92.172348,135.656677,136.850128,6.893496,-0.115564,6.893496,-0.115564,140.000137,140.0,174.96727,78.954689,983.607361,294.997253,281.21991,0.06765,-0.022466,958.244995,-7.89E-4,0.137461,0.0638,0.0,1.0,2662.463867,
92.244568,140.624817,141.818268,6.921272,-0.247407,6.921272,-0.247407,140.000137,140.0,179.899719,79.272186,989.308899,295.083679,280.713593,0.060823,-0.00763,966.315857,8.22E-4,0.137722,0.065846,0.0,1.0,2662.926758,
92.286263,143.955719,145.14917,6.943855,-0.271572,6.943855,-0.271572,140.000137,140.0,183.204788,79.479774,993.600037,295.184814,280.372955,0.062291,0.009049,971.461365,0.003045,0.138214,0.063501,0.0,1.0,2663.227295,
92.339348,148.979965,150.173416,6.976112,-0.194227,6.976112,-0.194227,150.000137,150.0,188.190262,79.78495,1000.424377,295.326843,279.865265,0.071124,0.031506,978.906067,0.003829,0.138653,0.059029,0.0,1.0,2663.65918,
92.370865,152.34816,153.541611,6.994745,-0.095818,6.994745,-0.095818,150.000137,150.0,191.533157,79.984238,1005.0802,295.377747,279.533173,0.079127,0.038431,983.737366,0.00332,0.139306,0.051382,0.0,1.0,2663.932861,
92.418182,157.428696,158.622147,7.015525,0.053795,7.015525,0.053795,160.000137,160.0,196.575363,80.276993,1011.492737,295.355743,279.050537,0.087525,0.032198,990.85022,0.002109,0.139728,0.047696,0.0,1.0,2664.327393,
92.452179,160.834351,162.027786,7.023077,0.108001,7.023077,0.108001,160.000137,160.0,199.953613,80.468132,1015.173584,295.284882,278.741638,0.088547,0.018768,995.512695,-1.28E-4,0.140194,0.046845,0.0,1.0,2664.584229,
92.508011,165.969543,167.162994,7.031194,0.083476,7.031194,0.083476,170.000137,170.0,205.041107,80.749069,1019.530823,295.148346,278.300934,0.082342,-0.005505,1002.350891,-0.001543,0.140462,0.051401,0.0,1.0,2664.968262,
92.547424,169.409653,170.603088,7.037376,0.002752,7.037376,0.002752,170.000137,170.0,208.443878,80.932671,1021.985962,295.082092,278.023834,0.074624,-0.016856,1006.762939,-0.001525,0.140573,0.056021,0.0,1.0,2665.225586,
92.606102,174.592514,175.785965,7.052758,-0.151569,7.052758,-0.151569,170.000137,170.0,213.563171,81.202705,1025.686646,295.065948,277.636322,0.063892,-0.01931,1013.096191,-3.9E-5,0.140748,0.06154,0.0,1.0,2665.613525,
92.642113,178.061874,179.255325,7.066616,-0.230128,7.066616,-0.230128,180.000137,180.0,216.986816,81.379204,1028.433472,295.117188,277.398651,0.059934,-0.010426,1017.115784,0.001447,0.140938,0.062727,0.0,1.0,2665.870361,
92.687798,183.286133,184.479584,7.092847,-0.262453,7.092847,-0.262453,180.000137,180.0,222.140915,81.638641,1033.203125,295.248596,277.076874,0.061747,0.011302,1022.869141,0.003288,0.141332,0.059785,0.0,1.0,2666.24585,
92.712898,186.782379,187.97583,7.109086,-0.215971,7.109086,-0.215971,190.000137,190.0,225.590927,81.808014,1036.659546,295.33194,276.887482,0.067406,0.024507,1026.559937,0.003802,0.141683,0.055542,0.0,1.0,2666.48584,
92.746017,192.047165,193.240616,7.130581,-0.088001,7.130581,-0.088001,190.000137,190.0,230.787598,82.056671,1041.840088,295.395203,276.643585,0.077529,0.033197,1031.950562,0.003085,0.142182,0.049048,0.0,1.0,2666.828857,
92.768188,195.57077,196.764221,7.138818,-0.003894,7.138818,-0.003894,200.000137,200.0,234.265961,82.21888,1044.960693,295.377136,276.508362,0.082677,0.028637,1035.477051,0.001917,0.142493,0.046364,0.0,1.0,2667.048584,
92.805199,200.876465,202.069916,7.146863,0.059978,7.146863,0.059978,200.000137,200.0,239.500977,82.457001,1048.785645,295.2789,276.346252,0.083554,0.010408,1040.672485,5.6E-5,0.142776,0.046788,0.0,1.0,2667.371826,
92.832771,204.426468,205.619919,7.149944,0.038465,7.149944,0.038465,200.000137,200.0,243.000565,82.612427,1050.816895,295.198425,276.264465,0.07943,-0.003755,1044.052368,-7.3E-4,0.142897,0.049751,0.0,1.0,2667.586914,
92.877007,209.769226,210.962662,7.156286,-0.067855,7.156286,-0.067855,210.000137,210.0,248.26149,82.840813,1053.446411,295.113892,276.17926,0.069537,-0.017983,1048.942505,-5.49E-4,0.142999,0.055724,0.0,1.0,2667.912354,
92.906364,213.341888,214.535324,7.163125,-0.157059,7.163125,-0.157059,210.000137,210.0,251.775986,82.98999,1055.192383,295.109741,276.146423,0.063023,-0.018285,1052.056152,3.61E-4,0.143076,0.058987,0.0,1.0,2668.131104,
92.945915,218.715836,219.909286,7.179671,-0.254632,7.179671,-0.254632,220.000137,220.0,257.059509,83.209221,1058.240112,295.181946,276.131897,0.058612,-0.005753,1056.493774,0.002244,0.143263,0.060158,0.0,1.0,2668.457031,
92.967613,222.30809,223.501526,7.19277,-0.2643,7.19277,-0.2643,220.000137,220.0,260.591064,83.352333,1060.635376,295.260193,276.144806,0.060188,0.007341,1059.312378,0.003311,0.143472,0.058182,0.0,1.0,2668.669189,
92.993362,227.710938,228.904373,7.213127,-0.197373,7.213127,-0.197373,230.000137,230.0,265.904449,83.562386,1064.664307,295.367279,276.196991,0.067709,0.024362,1063.385864,0.003776,0.143855,0.052635,0.0,1.0,2668.974121,
93.008171,231.322754,232.516205,7.222456,-0.118169,7.222456,-0.118169,230.000137,230.0,269.458038,83.699326,1067.337036,295.398376,276.252655,0.074059,0.028473,1066.035889,0.003278,0.144141,0.048775,0.0,1.0,2669.168213,
93.030846,236.752335,237.94577,7.231668,-0.008732,7.231668,-0.008732,240.000137,240.0,274.804016,83.900169,1070.85144,295.367584,276.364746,0.080097,0.021573,1069.779175,0.001688,0.144449,0.045726,0.0,1.0,2669.448975,
93.048714,240.384888,241.578339,7.23392,0.022758,7.23392,0.022758,240.000137,240.0,278.376892,84.031105,1072.709473,295.305969,276.456299,0.08029,0.010265,1072.417725,6.0E-4,0.144587,0.046191,0.0,1.0,2669.633057,
93.079704,245.847641,247.041077,7.236401,-0.009823,7.236401,-0.009823,250.000137,250.0,283.746124,84.223289,1074.825806,295.199402,276.614594,0.074562,-0.008215,1076.253418,-3.25E-4,0.144678,0.050346,0.0,1.0,2669.910645,
93.102127,249.497986,250.691422,7.238931,-0.077223,7.238931,-0.077223,250.000137,250.0,287.330933,84.348724,1076.005493,295.153992,276.731506,0.068305,-0.01571,1078.706055,-1.74E-4,0.144712,0.054022,0.0,1.0,2670.098145,
93.135147,254.984909,256.178345,7.247204,-0.193925,7.247204,-0.193925,250.000137,250.0,292.715607,84.532967,1077.862427,295.155212,276.920166,0.060434,-0.014967,1082.196167,0.001103,0.144779,0.057945,0.0,1.0,2670.38208,
93.154541,258.649902,259.843323,7.255819,-0.245785,7.255819,-0.245785,260.000153,260.0,296.311005,84.653221,1079.35437,295.202637,277.052979,0.05814,-0.006644,1084.394165,0.00225,0.144876,0.058414,0.0,1.0,2670.570801,
93.185226,264.002472,265.195892,7.271957,-0.253449,7.271957,-0.253449,260.000153,260.0,301.564362,84.824875,1082.046997,295.304962,277.254456,0.060836,0.010412,1087.327148,0.003511,0.145116,0.055513,0.0,1.0,2670.839111,
93.187843,267.829895,269.023346,7.282062,-0.205508,7.282062,-0.205508,270.000153,270.0,305.325348,84.944756,1084.190063,295.367279,277.402679,0.065983,0.020301,1089.234375,0.003735,0.145339,0.05204,0.0,1.0,2671.022949,
93.202957,273.360382,274.553833,7.293523,-0.099707,7.293523,-0.099707,270.000153,270.0,310.754181,85.113388,1087.233887,295.401154,277.619843,0.07384,0.024637,1092.33728,0.002936,0.145641,0.047281,0.0,1.0,2671.276367,
93.213531,276.886627,278.080078,7.296629,-0.040551,7.296629,-0.040551,280.000153,280.0,314.230194,85.218681,1088.905884,295.378296,277.759216,0.077275,0.019809,1093.506104,0.001943,0.145813,0.04568,0.0,1.0,2671.433105,
93.232117,282.59668,283.790131,7.298378,-0.003004,7.298378,-0.003004,280.000153,280.0,319.831573,85.384239,1090.914795,295.290985,277.980682,0.076786,0.004075,1096.924316,5.79E-4,0.145933,0.04673,0.0,1.0,2671.682861,
93.247948,286.306335,287.499786,7.298535,-0.030063,7.298535,-0.030063,290.000153,290.0,323.469635,85.489212,1091.846558,295.22937,278.120331,0.072869,-0.006528,1098.971313,6.5E-5,0.145964,0.049492,0.0,1.0,2671.846191,
93.273766,291.87915,293.072601,7.300829,-0.121882,7.300829,-0.121882,290.000153,290.0,328.931885,85.64328,1093.00354,295.174835,278.320404,0.064897,-0.015421,1101.832397,4.29E-4,0.145971,0.054176,0.0,1.0,2672.095215,
Command: turn_+45
93.290527,295.599335,296.792786,7.305017,-0.189513,7.305017,-0.189513,300.000153,300.0,332.57663,85.743805,1093.849365,295.181915,278.446014,0.060255,-0.013797,1103.60022,0.001245,0.145992,0.056389,0.0,1.0,2672.263184,
93.309975,301.186462,302.379913,7.316992,-0.272072,7.316992,-0.272072,300.000153,300.0,338.049988,85.891319,1095.542358,295.299622,278.621124,0.050005,0.006813,1106.060425,9.02E-4,0.1461,0.1,0.0,1.0,2672.513184,
93.312111,304.915741,306.109192,7.332489,-0.276815,7.332489,-0.276815,300.000153,300.0,341.704437,85.987404,1097.136353,295.515564,278.728912,0.050029,0.041811,1107.597412,0.001171,0.14624,0.1,0.0,1.0,2672.671143,
93.291458,310.517181,311.710632,7.366312,-0.091897,7.366312,-0.091897,310.000153,310.0,347.199127,86.127846,1100.941406,295.937836,278.87915,0.068334,0.106688,1109.82251,0.001318,0.14665,0.1,0.0,1.0,2672.875977,
93.263702,314.257568,315.451019,7.385117,0.164828,7.385117,0.164828,310.000153,310.0,350.874573,86.218788,1104.216309,296.207306,278.973175,0.088601,0.145226,1111.321167,8.66E-4,0.1471,0.1,0.0,1.0,2672.982422,
93.208916,319.854431,321.047852,7.401086,0.684207,7.401086,0.684207,320.000153,320.0,356.408569,86.350922,1109.175659,296.49884,279.107086,0.121558,0.181013,1112.556152,-7.85E-4,0.147702,0.1,0.0,1.0,2673.096436,
93.176773,323.61615,324.809601,7.400377,1.054719,7.400377,1.054719,320.000153,320.0,360.110596,86.436096,1111.770996,296.596893,279.191956,0.140046,0.187297,1114.73291,-0.002385,0.147968,0.1,0.0,1.0,2673.150391,
93.132736,329.252563,330.446014,7.393336,1.555649,7.393336,1.555649,330.000153,330.0,365.675903,86.559639,1113.972656,296.619263,279.311951,0.156856,0.175175,1117.027344,-0.005022,0.148008,0.1,0.0,1.0,2673.21582,
93.115707,333.033661,334.227112,7.387856,1.807096,7.387856,1.807096,330.000153,330.0,369.390137,86.639359,1114.439697,296.585541,279.386078,0.159825,0.158869,1119.467896,-0.006617,0.147925,0.1,0.0,1.0,2673.259033,
93.096603,338.713654,339.907074,7.379545,2.04864,7.379545,2.04864,340.000153,340.0,374.961639,86.755325,1113.974609,296.534058,279.486481,0.154343,0.134674,1122.795654,-0.008605,0.147757,0.1,0.0,1.0,2673.333984,
93.088234,342.504303,343.697754,7.374768,2.126543,7.374768,2.126543,340.000153,340.0,378.673584,86.830452,1113.193604,296.535431,279.545349,0.146854,0.124496,1124.759399,-0.009461,0.147642,0.1,0.0,1.0,2673.392822,
93.078392,348.193573,349.387024,7.367559,2.174463,7.367559,2.174463,350.000153,350.0,384.235992,86.940102,1111.79187,296.626465,279.621185,0.135377,0.123577,1127.27417,-0.010126,0.147495,0.1,0.0,1.0,2673.493164,
93.067047,353.884033,355.077484,7.362714,2.20637,7.362714,2.20637,350.000153,350.0,389.791779,87.04631,1110.643433,296.825439,279.68335,0.128518,0.139068,1129.252319,-0.010305,0.147395,0.1,0.0,1.0,2673.601807,
93.05658,357.677246,358.870697,7.36075,2.250232,7.36075,2.250232,360.000153,360.0,393.493042,87.115234,1110.188843,297.001678,279.718597,0.127837,0.155374,1130.288208,-0.010443,0.147283,0.1,0.0,1.0,2673.674561,
93.035553,363.365784,364.559204,7.35965,2.370982,7.35965,2.370982,360.000153,360.0,399.043427,87.215767,1110.062378,297.292908,279.765015,0.132175,0.182052,1131.479614,-0.010595,0.14723,0.1,0.0,1.0,2673.777588,
93.018715,367.157227,368.350677,7.358845,2.486349,7.358845,2.486349,370.000153,370.0,402.743896,87.280861,1110.231567,297.483154,279.793304,0.137351,0.197707,1132.080688,-0.011062,0.147199,0.1,0.0,1.0,2673.840088,
92.991928,372.843445,374.036896,7.35667,2.689531,7.35667,2.689531,370.000153,370.0,408.295898,87.375603,1110.540527,297.737549,279.834412,0.145849,0.214103,1132.775757,-0.011552,0.147186,0.1,0.0,1.0,2673.925049,
92.974617,376.63382,377.827271,7.354398,2.828488,7.354398,2.828488,380.000153,380.0,411.997864,87.436859,1110.611938,297.88147,279.862152,0.150448,0.219741,1133.138794,-0.012473,0.147152,0.1,0.0,1.0,2673.977539,
92.951424,382.318756,383.512207,7.349816,3.012775,7.349816,3.012775,380.000153,380.0,417.550446,87.525978,1110.351318,298.065948,279.905792,0.154372,0.221847,1133.569702,-0.013143,0.147112,0.1,0.0,1.0,2674.054199,
92.938271,386.108124,387.301575,7.346013,3.110917,7.346013,3.110917,390.000153,390.0,421.250885,87.583626,1109.886108,298.17807,279.93692,0.15471,0.22091,1133.786743,-0.014073,0.147031,0.1,0.0,1.0,2674.106445,
92.921692,391.790619,392.98407,7.339729,3.21433,7.339729,3.21433,390.000153,390.0,426.797791,87.667625,1108.861694,298.350311,279.987701,0.1527,0.219483,1133.996948,-0.014595,0.146958,0.1,0.0,1.0,2674.189453,
92.912239,395.577423,396.770874,7.335013,3.260022,7.335013,3.260022,400.000153,400.0,430.492554,87.722061,1108.020874,298.47757,280.024933,0.150416,0.220154,1134.050171,-0.015166,0.14684,0.1,0.0,1.0,2674.248535,
92.899155,401.254456,402.447906,7.328278,3.306942,7.328278,3.306942,400.000153,400.0,436.029327,87.801491,1106.729248,298.696045,280.087036,0.147156,0.224915,1133.984253,-0.015425,0.146746,0.1,0.0,1.0,2674.342041,
92.890442,405.036591,406.230042,7.323907,3.334389,7.323907,3.334389,400.000153,400.0,439.71698,87.85302,1105.909546,298.860046,280.133514,0.145725,0.230499,1133.84082,-0.01568,0.146612,0.1,0.0,1.0,2674.406494,
92.876488,410.705505,411.898956,7.318419,3.382299,7.318419,3.382299,410.000153,410.0,445.243805,87.92823,1104.895386,299.126373,280.212341,0.14527,0.241147,1133.485107,-0.015813,0.146519,0.1,0.0,1.0,2674.505127,
92.866447,414.481781,415.675232,7.31497,3.423053,7.31497,3.423053,410.000153,410.0,448.925781,87.977013,1104.341675,299.311066,280.271912,0.146012,0.248665,1133.167358,-0.016022,0.146405,0.1,0.0,1.0,2674.570557,
92.850533,420.141754,421.335205,7.310557,3.496821,7.310557,3.496821,420.000153,420.0,454.44574,88.04818,1103.685425,299.588104,280.37323,0.148154,0.258814,1132.598877,-0.016199,0.146332,0.1,0.0,1.0,2674.66748,
92.839737,423.912231,425.105682,7.307595,3.551472,7.307595,3.551472,420.000153,420.0,458.123993,88.094299,1103.289917,299.768311,280.449371,0.149774,0.264154,1132.17688,-0.016527,0.146241,0.1,0.0,1.0,2674.731201,
92.823967,429.563934,430.757385,7.303391,3.632801,7.303391,3.632801,430.000153,430.0,463.638947,88.16156,1102.699585,300.028931,280.577362,0.151825,0.269688,1131.504395,-0.016781,0.14618,0.1,0.0,1.0,2674.826416,
92.814079,433.329132,434.522583,7.30037,3.682574,7.30037,3.682574,430.000153,430.0,467.313843,88.205162,1102.24939,300.197113,280.67215,0.152625,0.271973,1131.040161,-0.017172,0.146098,0.1,0.0,1.0,2674.889893,
92.80043,438.973114,440.166565,7.295852,3.744483,7.295852,3.744483,440.000153,440.0,472.823181,88.268761,1101.489868,300.445679,280.828644,0.152917,0.274177,1130.328125,-0.017421,0.146037,0.1,0.0,1.0,2674.986816,
92.792114,442.733185,443.926636,7.29259,3.777046,7.29259,3.777046,440.000153,440.0,476.493805,88.31002,1100.913452,300.612244,280.942566,0.152576,0.275434,1129.843506,-0.01774,0.145949,0.1,0.0,1.0,2675.052734,
92.780548,448.369324,449.562775,7.287826,3.813929,7.287826,3.813929,450.000153,450.0,481.996063,88.37027,1100.016602,300.868134,281.127686,0.151691,0.277814,1129.098633,-0.017913,0.145884,0.1,0.0,1.0,2675.154541,
92.773224,452.123993,453.317444,7.284519,3.833497,7.284519,3.833497,450.000153,450.0,485.661743,88.409386,1099.404175,301.044342,281.260437,0.151075,0.279991,1128.588135,-0.018109,0.14579,0.1,0.0,1.0,2675.223877,
92.759003,457.596191,458.789612,7.280103,3.858846,7.280103,3.858846,460.000153,460.0,491.003937,88.464981,1098.570435,301.30957,281.467224,0.150475,0.284011,1127.859497,-0.01821,0.145722,0.1,0.0,1.0,2675.32666,
92.755058,461.499695,462.693146,7.276992,3.877343,7.276992,3.877343,460.000153,460.0,494.817383,88.50367,1098.012573,301.503784,281.624298,0.15037,0.287293,1127.210327,-0.018338,0.145631,0.1,0.0,1.0,2675.401123,
92.744102,467.119263,468.312714,7.272954,3.90658,7.272954,3.90658,470.000153,470.0,500.305573,88.557938,1097.305664,301.787415,281.863739,0.150681,0.292096,1126.415649,-0.018421,0.145568,0.1,0.0,1.0,2675.509277,
92.736748,470.862823,472.056274,7.270281,3.928083,7.270281,3.928083,470.000153,470.0,503.962494,88.593185,1096.866455,301.977173,282.031738,0.15109,0.295054,1125.875854,-0.018554,0.145487,0.1,0.0,1.0,2675.581543,
92.725761,476.474121,477.667572,7.266699,3.961662,7.266699,3.961662,480.000153,480.0,509.445251,88.644707,1096.264893,302.260559,282.295563,0.151809,0.298786,1125.062256,-0.018653,0.145431,0.1,0.0,1.0,2675.69043,
92.718597,480.212372,481.405823,7.264268,3.983839,7.264268,3.983839,480.000153,480.0,513.098816,88.678177,1095.868286,302.448029,282.478882,0.15222,0.300739,1124.522827,-0.018811,0.145359,0.1,0.0,1.0,2675.763184,
92.711876,485.81604,487.00946,7.260849,4.014091,7.260849,4.014091,490.000153,490.0,518.57666,88.727112,1095.294312,302.727386,282.763947,0.15256,0.302978,1123.724731,-0.018919,0.145309,0.1,0.0,1.0,2675.874756,
92.710388,489.549377,490.742798,7.258463,4.030663,7.258463,4.030663,490.000153,490.0,522.22699,88.758919,1094.923828,302.913666,282.960114,0.152413,0.304235,1123.202393,-0.019069,0.145241,0.1,0.0,1.0,2675.954346,
92.708672,495.145874,496.339294,7.25524,4.048751,7.25524,4.048751,490.000153,490.0,527.700256,88.805458,1094.413208,303.196289,283.262482,0.151872,0.30627,1122.436523,-0.019157,0.145192,0.1,0.0,1.0,2676.080322,
92.707687,498.874603,500.068054,7.25319,4.057673,7.25319,4.057673,500.000153,500.0,531.347717,88.835724,1094.101318,303.388,283.468781,0.151458,0.307919,1121.939575,-0.019255,0.145127,0.1,0.0,1.0,2676.167969,
92.706184,504.464478,505.657928,7.250632,4.068955,7.250632,4.068955,500.000153,500.0,536.8172,88.880028,1093.725586,303.680847,283.784241,0.151007,0.310885,1121.21814,-0.019302,0.145083,0.1,0.0,1.0,2676.303223,
92.70504,508.189026,509.382477,7.249037,4.076748,7.249037,4.076748,510.000153,510.0,540.462646,88.908852,1093.52771,303.879059,283.997925,0.15089,0.313089,1120.756104,-0.019358,0.14503,0.1,0.0,1.0,2676.39502,
92.703026,513.773071,514.966492,7.247101,4.090304,7.247101,4.090304,510.000153,510.0,545.929688,88.951042,1093.324585,304.178894,284.32254,0.151013,0.316433,1120.0979,-0.019394,0.144996,0.1,0.0,1.0,2676.53418,
92.701523,517.494019,518.6875,7.245921,4.10086,7.245921,4.10086,520.000122,520.0,549.573975,88.978493,1093.232178,304.379303,284.541077,0.151239,0.318502,1119.685913,-0.019455,0.144955,0.1,0.0,1.0,2676.62793,
92.699066,523.073242,524.266724,7.24449,4.118093,7.24449,4.118093,520.000122,520.0,555.039856,89.018661,1093.151855,304.679108,284.871033,0.151669,0.321135,1119.11377,-0.019502,0.144929,0.1,0.0,1.0,2676.768555,
92.697388,526.791382,527.984802,7.243581,4.129804,7.243581,4.129804,530.000122,530.0,558.683655,89.044785,1093.115356,304.87796,285.091827,0.151928,0.322524,1118.765137,-0.019582,0.144899,0.1,0.0,1.0,2676.862793,
92.694771,532.365723,533.559204,7.242384,4.146074,7.242384,4.146074,530.000122,530.0,564.149109,89.083031,1093.076294,305.174774,285.423309,0.152191,0.32411,1118.246582,-0.019638,0.14488,0.1,0.0,1.0,2677.004395,
92.693207,536.081787,537.275269,7.24157,4.155556,7.24157,4.155556,540.000122,540.0,567.792664,89.107903,1093.047363,305.372101,285.643921,0.152249,0.324925,1117.982422,-0.019718,0.144856,0.1,0.0,1.0,2677.099365,
92.690979,541.654358,542.847839,7.240429,4.167087,7.240429,4.167087,540.000122,540.0,573.257813,89.144325,1093.004028,305.668243,285.973297,0.152193,0.325976,1117.623779,-0.019767,0.144839,0.1,0.0,1.0,2677.241943,
92.68956,545.368469,546.561951,7.239643,4.173229,7.239643,4.173229,540.000122,540.0,576.901062,89.168022,1092.971436,305.866302,286.191376,0.152089,0.326664,1117.408813,-0.019826,0.144817,0.1,0.0,1.0,2677.337402,
92.687454,550.938416,552.131836,7.238553,4.180638,7.238553,4.180638,550.000122,550.0,582.365845,89.202728,1092.931885,306.164948,286.515533,0.151918,0.327783,1117.119629,-0.019859,0.1448,0.1,0.0,1.0,2677.481201,
92.686035,554.650879,555.844299,7.237822,4.184982,7.237822,4.184982,550.000122,550.0,586.008911,89.225319,1092.910522,306.365204,286.729279,0.151829,0.328605,1116.947144,-0.019897,0.144779,0.1,0.0,1.0,2677.577393,
92.683815,560.218445,561.411865,7.236848,4.191295,7.236848,4.191295,560.000122,560.0,591.473389,89.258408,1092.89917,306.666992,287.045776,0.151777,0.329911,1116.716064,-0.019918,0.144763,0.1,0.0,1.0,2677.721924,
92.682274,563.929443,565.122864,7.23621,4.195723,7.23621,4.195723,560.000122,560.0,595.116394,89.279945,1092.901123,306.868835,287.253784,0.151798,0.330782,1116.578979,-0.019948,0.144744,0.1,0.0,1.0,2677.818115,
92.679901,569.494934,570.688354,7.235372,4.202771,7.235372,4.202771,570.000122,570.0,600.580994,89.311493,1092.92334,307.172028,287.560944,0.151895,0.332002,1116.397217,-0.019969,0.14473,0.1,0.0,1.0,2677.962646,
92.678276,573.204651,574.398132,7.234818,4.207684,7.234818,4.207684,570.000122,570.0,604.22406,89.332031,1092.943481,307.374115,287.762329,0.151979,0.332717,1116.291016,-0.020002,0.144713,0.1,0.0,1.0,2678.059082,
92.675812,578.768433,579.961853,7.234068,4.214935,7.234068,4.214935,580.000122,580.0,609.688904,89.362122,1092.982056,307.676941,288.059082,0.152099,0.333615,1116.15271,-0.020025,0.144702,0.1,0.0,1.0,2678.203613,
92.674171,582.477051,583.670532,7.233555,4.219505,7.233555,4.219505,580.000122,580.0,613.332214,89.381706,1093.00647,307.878632,288.253296,0.152154,0.334103,1116.073486,-0.02006,0.144687,0.1,0.0,1.0,2678.299805,
92.67173,588.039246,589.232727,7.232828,4.225569,7.232828,4.225569,590.000122,590.0,618.797363,89.4104,1093.042969,308.18103,288.539185,0.152191,0.334713,1115.972168,-0.020082,0.144676,0.1,0.0,1.0,2678.444336,
92.670151,591.746948,592.940369,7.232319,4.22906,7.232319,4.22906,590.000122,590.0,622.440857,89.429085,1093.063354,308.382721,288.726166,0.152184,0.335071,1115.915039,-0.020113,0.144662,0.1,0.0,1.0,2678.540771,
92.667801,597.307739,598.50116,7.231592,4.233437,7.231592,4.233437,600.000122,600.0,627.90625,89.456459,1093.09436,308.685577,289.001282,0.152147,0.335584,1115.842529,-0.02013,0.144651,0.1,0.0,1.0,2678.685547,
92.666245,601.014465,602.207886,7.231087,4.23594,7.231087,4.23594,600.000122,600.0,631.549927,89.474297,1093.112671,308.887817,289.181244,0.152116,0.335931,1115.80188,-0.020153,0.144637,0.1,0.0,1.0,2678.782227,
