airspeed_indicator_indicated_speed_kt,altimeter_indicated_altitude_ft,altimeter_pressure_alt_ft,attitude_indicator_indicated_pitch_deg,attitude_indicator_indicated_roll_deg,attitude_indicator_internal_pitch_deg,attitude_indicator_internal_roll_deg,encoder_indicated_altitude_ft,encoder_pressure_alt_ft,gps_indicated_altitude_ft,gps_indicated_ground_speed_kt,gps_indicated_vertical_speed,indicated_heading_deg,magnetic_compass_indicated_heading_deg,slip_skid_ball_indicated_slip_skid,turn_indicator_indicated_turn_rate,vertical_speed_indicator_indicated_speed_fpm,flight_aileron,flight_elevator,flight_rudder,flight_flaps,engine_throttle,engine_rpm,
Command: takeoff
5.378778,-96.882034,-95.688591,2.977206,1.390135,2.592057,0.106306,-99.999855,-100.0,2.28625,0.0,0.005125,297.872406,266.307251,0.010438,-0.080614,-16.998363,-0.0,0.0,0.0,0.0,0.0,599.314148,
5.315079,-96.952446,-95.759003,2.936733,1.25553,2.592184,0.107032,-99.999855,-100.0,2.286285,0.0,0.001474,297.87088,270.360657,0.010272,-0.066786,-14.602188,-0.019859,0.051841,0.0,0.0,1.0,607.769897,
5.304371,-96.981506,-95.788063,2.773489,0.737136,2.584481,0.107106,-99.999855,-100.0,2.286264,3.4E-5,-0.012662,297.869965,272.701813,0.010116,-0.060178,-21.288,-0.017936,0.051844,7.6E-5,0.0,1.0,675.857483,
5.314073,-97.013237,-95.819794,2.582895,0.220684,2.548184,0.104979,-99.999855,-100.0,2.286134,2.21E-4,-0.039726,297.8685,276.034454,0.009847,-0.0521,-16.81139,-0.010531,0.05169,1.22E-4,0.0,1.0,852.377686,
5.362422,-97.030861,-95.837418,2.515939,0.101006,2.515939,0.101006,-99.999855,-100.0,2.286036,7.87E-4,-0.010518,297.867249,278.42572,0.009984,-0.047104,-11.075025,-0.003153,0.050964,1.95E-4,0.0,1.0,1011.440674,
5.532721,-97.051033,-95.85759,2.505409,0.091336,2.505409,0.091336,-99.999855,-100.0,2.28615,0.004205,0.051986,297.864868,281.934662,0.010877,-0.040755,-18.438505,-0.001443,0.050319,2.58E-4,0.0,1.0,1261.47168,
5.708169,-97.06073,-95.867287,2.515739,0.08352,2.515739,0.08352,-99.999855,-100.0,2.286384,0.009224,0.092583,297.862671,284.074524,0.013305,-0.03745,-15.034272,-0.001305,0.050108,3.77E-4,0.0,1.0,1411.420288,
6.109988,-97.072792,-95.879349,2.544601,0.069552,2.544601,0.069552,-99.999855,-100.0,2.287006,0.024689,0.14611,297.855927,287.410431,0.019415,-0.033301,-10.103331,-0.001193,0.050315,4.87E-4,0.0,1.0,1627.367676,
6.431664,-97.078514,-95.885071,2.565125,0.060766,2.565125,0.060766,-99.999855,-100.0,2.287537,0.040349,0.186607,297.848297,289.398346,0.024469,-0.031597,-13.157578,-9.94E-4,0.050892,8.24E-4,0.0,1.0,1741.688477,
7.036121,-97.085327,-95.891884,2.595488,0.048351,2.595488,0.048351,-99.999855,-100.0,2.288588,0.076533,0.24288,297.828094,292.3461,0.035129,-0.030522,-6.755414,-8.68E-4,0.051303,0.001205,0.0,1.0,1888.459229,
7.517175,-97.088806,-95.895363,2.614079,0.041443,2.614079,0.041443,-99.999855,-100.0,2.289481,0.111297,0.274366,297.806091,294.257813,0.041577,-0.031103,-13.107886,-6.91E-4,0.05191,0.002216,0.0,1.0,1968.790283,
8.261835,-97.0923,-95.898857,2.634614,0.03477,2.634614,0.03477,-99.999855,-100.0,2.290972,0.174801,0.335798,297.763519,296.723236,0.036398,-0.033587,-17.19305,-5.92E-4,0.052282,0.003316,0.0,1.0,2055.717529,
8.810875,-97.093941,-95.900497,2.645678,0.031645,2.645678,0.031645,-99.999855,-100.0,2.292171,0.229028,0.381453,297.725861,298.259186,0.033329,-0.036391,-13.04748,-4.97E-4,0.052692,0.005444,0.0,1.0,2100.932861,
9.70092,-97.095459,-95.902016,2.658226,0.028444,2.658226,0.028444,-99.999855,-100.0,2.294318,0.33048,0.45357,297.657623,300.362152,0.029474,-0.041725,-5.758837,-4.52E-4,0.052914,0.007327,0.0,1.0,2152.607666,
10.300783,-97.095894,-95.902443,2.664394,0.027495,2.664394,0.027495,-99.999855,-100.0,2.295921,0.408149,0.504451,297.606842,301.546051,0.027288,-0.045753,-9.549451,-4.06E-4,0.053165,0.010739,0.0,1.0,2176.887695,
11.223375,-97.09584,-95.902397,2.671146,0.027738,2.671146,0.027738,-99.999855,-100.0,2.298649,0.542363,0.583903,297.526978,303.046082,0.024252,-0.051581,-9.205691,-3.93E-4,0.053288,0.013278,0.0,1.0,2203.083496,
11.823135,-97.095421,-95.901978,2.67459,0.028699,2.67459,0.028699,-99.999855,-100.0,2.300604,0.639242,0.636392,297.473816,303.827881,0.022465,-0.055176,-5.332813,-3.96E-4,0.053423,0.017271,0.0,1.0,2214.85083,
12.772396,-97.094223,-95.90078,2.67889,0.031209,2.67889,0.031209,-99.999855,-100.0,2.304004,0.808161,0.721103,297.393555,304.773132,0.020033,-0.059624,11.510857,-4.1E-4,0.053492,0.01993,0.0,1.0,2227.520752,
13.409295,-97.093086,-95.899643,2.681446,0.033383,2.681446,0.033383,-99.999855,-100.0,2.306507,0.932343,0.777042,297.34198,305.215393,0.018763,-0.061917,16.888945,-4.46E-4,0.053578,0.023943,0.0,1.0,2232.988525,
13.409295,-97.093086,-95.899643,2.681446,0.033383,2.681446,0.033383,-99.999855,-100.0,2.306507,0.932343,0.777042,297.34198,305.215393,0.018763,-0.061917,16.888945,-4.46E-4,0.053578,0.023943,0.0,1.0,2232.988525,
15.014496,-97.090088,-95.896645,2.687496,0.040964,2.687496,0.040964,-99.999855,-100.0,2.313629,1.282261,0.917625,297.231628,305.680267,0.015746,-0.063861,18.619228,-4.77E-4,0.053629,0.026521,0.0,1.0,2242.078613,
15.941721,-97.086891,-95.893448,2.690824,0.045107,2.690824,0.045107,-99.999855,-100.0,2.318307,1.511652,1.003877,297.174164,305.547852,0.014916,-0.063714,9.414475,-5.85E-4,0.05375,0.032039,0.0,1.0,2246.754395,
16.609354,-97.084366,-95.890923,2.693295,0.048319,2.693295,0.048319,-99.999855,-100.0,2.32191,1.68655,1.066314,297.141876,305.28299,0.014596,-0.062206,9.001414,-6.44E-4,0.053816,0.034912,0.0,1.0,2249.844482,
17.597088,-97.080246,-95.886795,2.697435,0.053058,2.697435,0.053058,-99.999855,-100.0,2.327635,1.961859,1.157725,297.109192,304.648987,0.014842,-0.057899,16.936125,-6.9E-4,0.053866,0.036527,0.0,1.0,2254.046143,
18.211346,-97.077454,-95.88401,2.700323,0.056071,2.700323,0.056071,-99.999855,-100.0,2.331431,2.142672,1.216778,297.095398,304.120239,0.015439,-0.054542,17.787224,-7.58E-4,0.053949,0.038161,0.0,1.0,2256.454346,
19.19792,-97.072609,-95.879158,2.705069,0.061063,2.705069,0.061063,-99.999855,-100.0,2.337914,2.448689,1.307017,297.080475,303.075226,0.016443,-0.048663,16.637794,-8.01E-4,0.054006,0.03885,0.0,1.0,2260.048584,
19.836954,-97.069214,-95.875771,2.70832,0.064618,2.70832,0.064618,-99.999855,-100.0,2.342367,2.656938,1.362821,297.072479,302.282684,0.017032,-0.045077,6.446121,-8.72E-4,0.054101,0.039597,0.0,1.0,2262.2229,
20.795488,-97.063766,-95.870323,2.713185,0.070442,2.713185,0.070442,-99.999855,-100.0,2.349413,2.983299,1.45105,297.058655,300.948883,0.017403,-0.040639,9.269547,-9.23E-4,0.054166,0.039996,0.0,1.0,2265.296875,
21.407579,-97.060066,-95.866623,2.716422,0.074556,2.716422,0.074556,-99.999855,-100.0,2.354144,3.200381,1.506184,297.046356,300.018982,0.017129,-0.0387,15.476547,-0.001006,0.054264,0.040688,0.0,1.0,2267.163818,
22.365158,-97.053917,-95.860474,2.721464,0.081497,2.721464,0.081497,-99.999855,-100.0,2.361909,3.553207,1.59582,297.019531,298.466064,0.015695,-0.037195,19.293036,-0.001065,0.054328,0.041302,0.0,1.0,2269.966797,
23.029514,-97.049408,-95.855965,2.725142,0.086689,2.725142,0.086689,-99.999855,-100.0,2.36756,3.807354,1.656716,296.994263,297.333099,0.014111,-0.037326,16.993614,-0.001164,0.054429,0.042644,0.0,1.0,2271.844971,
23.932024,-97.042938,-95.849487,2.73015,0.093906,2.73015,0.093906,-99.999855,-100.0,2.375585,4.164657,1.738513,296.952484,295.743042,0.010823,-0.038606,11.157256,-0.001238,0.054503,0.043907,0.0,1.0,2274.328857,
24.621466,-97.037727,-95.844284,2.734214,0.099585,2.734214,0.099585,-99.999855,-100.0,2.381987,4.446719,1.801955,296.915314,294.504181,0.008247,-0.040286,11.58161,-0.001342,0.054603,0.045996,0.0,1.0,2276.185059,
25.548454,-97.030334,-95.836891,2.743354,0.109885,2.743354,0.109885,-99.999855,-100.0,2.391315,4.838146,2.019813,296.861816,292.827667,0.004689,-0.042701,9.058536,-0.001423,0.054684,0.047855,0.0,1.0,2278.638916,
26.208443,-97.024719,-95.831276,2.750359,0.118415,2.750359,0.118415,-99.999855,-100.0,2.398631,5.125748,2.169842,296.822144,291.637604,0.001725,-0.04443,11.960905,-0.00157,0.054867,0.050529,0.0,1.0,2280.366455,
27.131208,-97.016312,-95.822868,2.756045,0.125344,2.756045,0.125344,-99.999855,-100.0,2.409399,5.539261,2.261621,296.769592,290.001892,-0.002126,-0.046151,15.165678,-0.001692,0.055007,0.052513,0.0,1.0,2282.758057,
27.762411,-97.010208,-95.816765,2.76,0.129691,2.76,0.129691,-99.999855,-100.0,2.417041,5.829947,2.325866,296.73642,288.911896,-0.003947,-0.04675,19.0896,-0.001791,0.055121,0.055141,0.0,1.0,2284.383545,
28.706511,-97.000549,-95.807106,2.766305,0.135522,2.766305,0.135522,-99.999855,-100.0,2.428905,6.276519,2.41989,296.693756,287.342834,-0.005525,-0.046425,16.606918,-0.001853,0.0552,0.056799,0.0,1.0,2286.804688,
29.334557,-96.993805,-95.800362,2.770829,0.139338,2.770829,0.139338,-99.999855,-100.0,2.437085,6.581071,2.484537,296.669342,286.350311,-0.005914,-0.045617,11.688115,-0.001936,0.055326,0.058933,0.0,1.0,2288.409668,
30.247824,-96.983528,-95.790077,2.77742,0.144642,2.77742,0.144642,-99.999855,-100.0,2.449399,7.034705,2.577087,296.639496,284.993317,-0.005685,-0.043677,10.758165,-0.001991,0.055417,0.060153,0.0,1.0,2290.73999,
30.898661,-96.975876,-95.782433,2.782303,0.148646,2.782303,0.148646,-99.999855,-100.0,2.458475,7.365434,2.644012,296.620392,284.097443,-0.00527,-0.042131,10.206672,-0.002066,0.055548,0.061646,0.0,1.0,2292.398438,
31.807878,-96.964752,-95.771309,2.788959,0.15437,2.788959,0.15437,-99.999855,-100.0,2.471571,7.83754,2.738974,296.594666,282.956268,-0.004679,-0.040077,14.02794,-0.002124,0.055646,0.062601,0.0,1.0,2294.713623,
32.429752,-96.956856,-95.763412,2.793626,0.158696,2.793626,0.158696,-99.999855,-100.0,2.480814,8.167219,2.803621,296.575714,282.255005,-0.00461,-0.039055,14.460869,-0.002205,0.055779,0.063887,0.0,1.0,2296.297852,
33.386044,-96.944229,-95.750786,2.806048,0.165493,2.806048,0.165493,-99.999855,-100.0,2.495901,8.684643,3.23917,296.542389,281.310242,-0.005277,-0.038318,11.413252,-0.002267,0.055873,0.064835,0.0,1.0,2298.73584,
Command_Fault: set /instrumentation/altimeter/serviceable false
34.030369,-96.935234,-95.741791,2.812794,0.170805,2.812794,0.170805,-99.999855,-100.0,2.507285,9.040353,3.31122,296.515015,280.768402,-0.006409,-0.038648,16.652613,-0.002364,0.056121,0.066501,0.0,1.0,2300.380859,
34.930241,-96.931519,-95.738075,2.818704,0.178398,2.818704,0.178398,-99.999855,-100.0,2.5236,9.54632,3.406517,296.470764,280.142944,-0.009186,-0.039961,17.272802,-0.00244,0.056256,0.06787,0.0,1.0,2302.680908,
35.545662,-96.931519,-95.738075,2.822981,0.183874,2.822981,0.183874,-99.999855,-100.0,2.535065,9.898484,3.472806,296.436218,279.804047,-0.011686,-0.041416,13.398087,-0.002549,0.056374,0.070082,0.0,1.0,2304.256836,
36.441246,-96.931519,-95.738075,2.829483,0.191601,2.829483,0.191601,-99.999855,-100.0,2.552201,10.419402,3.573093,296.382294,279.439789,-0.015947,-0.043824,19.010145,-0.002627,0.05646,0.071809,0.0,1.0,2306.553467,
37.079498,-96.931519,-95.738075,2.834423,0.197146,2.834423,0.197146,-99.999855,-100.0,2.564749,10.796656,3.646985,296.341553,279.272064,-0.018944,-0.045686,9.116163,-0.002737,0.05659,0.074506,0.0,1.0,2308.193115,
38.02187,-96.931519,-95.738075,2.841624,0.204507,2.841624,0.204507,-99.999855,-100.0,2.583789,11.36261,3.761207,296.282379,279.160187,-0.023063,-0.047896,12.725905,-0.002816,0.056688,0.076543,0.0,1.0,2310.617432,
38.579498,-96.931519,-95.738075,2.845981,0.208744,2.845981,0.208744,-99.999855,-100.0,2.595366,11.703297,3.805355,296.248535,279.167572,-0.025272,-0.048849,8.977063,-0.002922,0.056832,0.079501,0.0,1.0,2312.057617,
39.514858,-96.931519,-95.738075,2.859811,0.219103,2.859811,0.219103,-99.999855,-100.0,2.616185,12.283026,4.415552,296.197723,279.296692,-0.027378,-0.049199,17.389635,-0.002982,0.05692,0.081194,0.0,1.0,2314.478027,
40.11853,-96.931519,-95.738075,2.866882,0.223389,2.866882,0.223389,-99.999855,-100.0,2.630867,12.663443,4.429721,296.167633,279.453674,-0.028322,-0.04903,12.412692,-0.00313,0.057196,0.083734,0.0,1.0,2316.045654,
41.021709,-96.931519,-95.738075,2.872736,0.228488,2.872736,0.228488,-99.999855,-100.0,2.653301,13.240273,4.539856,296.128265,279.787537,-0.028428,-0.047907,15.651915,-0.003191,0.057338,0.085239,0.0,1.0,2318.394043,
41.621967,-96.931519,-95.738075,2.877033,0.231967,2.877033,0.231967,-99.999855,-100.0,2.668566,13.628823,4.619946,296.104614,280.069824,-0.027918,-0.046864,13.825767,-0.003264,0.057455,0.087207,0.0,1.0,2319.95752,
42.518661,-96.931519,-95.738075,2.883891,0.237009,2.883891,0.237009,-99.999855,-100.0,2.691938,14.217408,4.733765,296.071533,280.571991,-0.026638,-0.045121,18.584871,-0.003314,0.057541,0.08839,0.0,1.0,2322.299316,
43.138813,-96.931519,-95.738075,2.889006,0.240767,2.889006,0.240767,-99.999855,-100.0,2.708523,14.63007,4.827052,296.048035,280.969299,-0.025779,-0.044163,11.241478,-0.003386,0.057678,0.090044,0.0,1.0,2323.9646,
44.004356,-96.931519,-95.738075,2.903036,0.247655,2.903036,0.247655,-99.999855,-100.0,2.733989,15.212964,5.444887,296.012817,281.581024,-0.024984,-0.043315,10.069381,-0.00344,0.05778,0.091219,0.0,1.0,2327.417725,
44.571423,-96.931519,-95.738075,2.907952,0.252215,2.907952,0.252215,-99.999855,-100.0,2.751445,15.599172,5.502935,295.986145,282.011902,-0.025153,-0.043403,16.568338,-0.003538,0.058061,0.092979,0.0,1.0,2330.316162,
45.457069,-96.931519,-95.738075,2.913911,0.259034,2.913911,0.259034,-99.999855,-100.0,2.779243,16.208519,5.618296,295.938934,282.720764,-0.026555,-0.04437,17.385487,-0.003603,0.058159,0.094313,0.0,1.0,2335.457764,
46.071796,-96.931519,-95.738075,2.918492,0.2641,2.918492,0.2641,-99.999855,-100.0,2.798907,16.635052,5.704648,295.90152,283.230469,-0.028309,-0.045688,20.329811,-0.0037,0.058278,0.096674,0.0,1.0,2339.306641,
46.98032,-96.931519,-95.738075,2.925442,0.271287,2.925442,0.271287,-99.999855,-100.0,2.828565,17.271215,5.831733,295.841858,283.998383,-0.031742,-0.048043,12.707328,-0.003773,0.05837,0.098544,0.0,1.0,2345.249756,
47.544666,-96.931519,-95.738075,2.929964,0.275729,2.929964,0.275729,-99.999855,-100.0,2.84734,17.669527,5.913162,295.802795,284.477478,-0.034372,-0.049644,12.811246,-0.003876,0.058509,0.101527,0.0,1.0,2349.038574,
48.450272,-96.931519,-95.738075,2.947325,0.292201,2.947325,0.292201,-99.999855,-100.0,2.880534,18.314722,6.876575,295.742188,285.239777,-0.038097,-0.051289,16.12594,-0.003939,0.058599,0.103481,0.0,1.0,2355.223877,
49.280663,-96.931519,-95.738075,2.95448,0.297716,2.95448,0.297716,-99.999855,-100.0,2.913273,18.912249,6.991568,295.689148,285.9198,-0.041202,-0.052402,15.369921,-0.004174,0.058947,0.106511,0.0,1.0,2360.965088,
49.865345,-96.931519,-95.738075,2.958256,0.300852,2.958256,0.300852,-99.999855,-100.0,2.936715,19.33662,7.074705,295.655792,286.382019,-0.042292,-0.052444,18.836147,-0.004233,0.059058,0.108414,0.0,1.0,2365.037109,
50.473942,-96.931519,-95.738075,2.962786,0.304018,2.962786,0.304018,-99.999855,-100.0,2.961455,19.780884,7.17171,295.623688,286.84375,-0.042712,-0.052094,19.152138,-0.004298,0.059165,0.110831,0.0,1.0,2369.289063,
51.348724,-96.931519,-95.738075,2.969599,0.307805,2.969599,0.307805,-99.999855,-100.0,2.997677,20.424469,7.310617,295.582397,287.466492,-0.0419,-0.050884,19.870005,-0.004343,0.059256,0.112436,0.0,1.0,2375.424316,
52.198017,-96.931519,-95.738075,2.976411,0.311324,2.976411,0.311324,-99.999855,-100.0,3.033575,21.054375,7.451468,295.544983,288.016663,-0.039924,-0.049496,17.236008,-0.004397,0.059392,0.1145,0.0,1.0,2381.398682,
52.803997,-96.931519,-95.738075,2.981042,0.313651,2.981042,0.313651,-99.999855,-100.0,3.059626,21.50675,7.553732,295.519196,288.372467,-0.038162,-0.048476,20.881514,-0.004434,0.05949,0.115846,0.0,1.0,2385.669922,
53.650257,-96.931519,-95.738075,2.987649,0.31715,2.987649,0.31715,-99.999855,-100.0,3.09667,22.143379,7.684467,295.480988,288.814178,-0.035553,-0.047584,18.216286,-0.004481,0.059621,0.117661,0.0,1.0,2391.653809,
54.254925,-96.931519,-95.738075,2.992137,0.319602,2.992137,0.319602,-99.999855,-100.0,3.123539,22.600397,7.789846,295.451691,289.087219,-0.033979,-0.047333,21.806557,-0.004516,0.059713,0.118954,0.0,1.0,2395.931396,
54.834091,-96.931519,-95.738075,2.996586,0.322179,2.996586,0.322179,-99.999855,-100.0,3.149654,23.040867,7.879716,295.420593,289.314758,-0.032809,-0.047608,22.144386,-0.004566,0.059843,0.121036,0.0,1.0,2400.040771,
55.702457,-96.931519,-95.738075,3.002845,0.32579,3.002845,0.32579,-99.999855,-100.0,3.189401,23.704647,7.937363,295.369446,289.590973,-0.031698,-0.048652,21.537727,-0.004603,0.059932,0.122591,0.0,1.0,2406.211426,
56.280891,-96.931519,-95.738075,3.006171,0.329522,3.006171,0.329522,-99.999855,-100.0,3.216025,24.149155,8.009178,295.332092,289.73114,-0.031523,-0.049761,18.900459,-0.004654,0.060057,0.125148,0.0,1.0,2410.329102,
57.12315,-96.931519,-95.738075,3.012046,0.332559,3.012046,0.332559,-99.999855,-100.0,3.255305,24.800135,8.144201,295.275848,289.872314,-0.031709,-0.051471,19.197287,-0.004707,0.060123,0.127016,0.0,1.0,2416.340576,
58.012154,-96.931519,-95.738075,3.020865,0.33439,3.020865,0.33439,-99.999855,-100.0,3.297833,25.491714,8.832712,295.216064,289.940979,-0.032319,-0.053105,18.938572,-0.004751,0.060241,0.129828,0.0,1.0,2422.702637,
58.61134,-96.931519,-95.738075,3.027651,0.334811,3.027651,0.334811,-99.999855,-100.0,3.328344,25.960894,8.838407,295.178406,289.94162,-0.031897,-0.053615,17.663065,-0.004781,0.060334,0.131944,0.0,1.0,2427.004639,
59.447613,-96.931519,-95.738075,3.041488,0.335411,3.041488,0.335411,-99.999855,-100.0,3.373748,26.620201,9.846437,295.129791,289.882874,-0.030849,-0.053609,18.415462,-0.004783,0.060553,0.1347,0.0,1.0,2433.029053,
59.9953,-96.931519,-95.738075,3.046007,0.335751,3.046007,0.335751,-89.999855,-90.0,3.40534,27.054956,9.926259,295.101776,289.808014,-0.028551,-0.052985,22.140295,-0.004787,0.060743,0.136407,0.0,1.0,2436.987549,
60.590481,-96.931519,-95.738075,3.049849,0.335907,3.049849,0.335907,-89.999855,-90.0,3.439996,27.528816,10.029561,295.073334,289.695862,-0.025571,-0.052076,19.382906,-0.004796,0.06092,0.138532,0.0,1.0,2441.310791,
61.469154,-96.931519,-95.738075,3.05529,0.335286,3.05529,0.335286,-89.999855,-90.0,3.491942,28.232521,10.181298,295.034912,289.47525,-0.019812,-0.050339,13.636827,-0.004799,0.060997,0.139954,0.0,1.0,2447.797363,
62.2995,-96.931519,-95.738075,3.064628,0.338661,3.064628,0.338661,-89.999855,-90.0,3.542574,28.900707,10.876307,295.000031,289.212372,-0.012824,-0.048627,19.130991,-0.00479,0.061106,0.141875,0.0,1.0,2453.99292,
62.866562,-96.931519,-95.738075,3.070359,0.338484,3.070359,0.338484,-89.999855,-90.0,3.579113,29.360245,11.005804,294.976196,289.005066,-0.007757,-0.047661,19.705519,-0.004784,0.061198,0.143082,0.0,1.0,2458.261475,
63.717514,-96.931519,-95.738075,3.075701,0.336016,3.075701,0.336016,-89.999855,-90.0,3.634547,30.051531,11.160455,294.9375,288.658417,5.34E-4,-0.046906,20.379715,-0.004835,0.061407,0.14481,0.0,1.0,2464.685059,
Command: fly_strait
64.307846,-96.931519,-95.738075,3.079047,0.333687,3.079047,0.333687,-89.999855,-90.0,3.673499,30.532938,11.27136,294.908783,288.396088,0.006331,-0.046743,15.661896,-0.004813,0.061485,0.146136,0.0,1.0,2469.156982,
64.876984,-96.931519,-95.738075,3.082443,0.343098,3.082443,0.343098,-89.999855,-90.0,3.711253,30.996105,11.375701,294.845062,288.130463,0.00856,-0.054086,16.065626,-0.004767,0.061581,0.0,0.0,1.0,2473.458496,
65.765388,-96.931519,-95.738075,3.087958,0.355079,3.087958,0.355079,-89.999855,-90.0,3.769885,31.692787,12.707404,294.234375,287.710114,-0.015767,-0.146985,16.666492,-0.004901,0.061649,0.003186,0.0,1.0,2479.993896,
66.654533,-96.931519,-95.738075,3.084757,0.322545,3.084757,0.322545,-89.999855,-90.0,3.832084,32.372368,12.864099,293.137482,287.273895,-0.083881,-0.301331,22.760559,-0.005073,0.061759,0.03372,0.0,1.0,2486.515625,
67.291481,-96.931519,-95.738075,3.079931,0.282042,3.079931,0.282042,-89.999855,-90.0,3.876987,32.859207,12.996241,292.243408,286.941193,-0.14937,-0.414109,18.361719,-0.004826,0.061745,0.067996,0.0,1.0,2491.261963,
67.875511,-96.931519,-95.738075,3.077431,0.239602,3.077431,0.239602,-89.999855,-90.0,3.918759,33.308212,13.147408,291.451477,286.616211,-0.220769,-0.501932,15.272331,-0.004029,0.061599,0.133269,0.0,1.0,2495.669434,
68.812149,-96.931519,-95.738075,3.081563,0.166224,3.081563,0.166224,-89.999855,-90.0,3.987088,34.032887,13.446998,290.547791,286.050476,-0.313051,-0.565846,18.210327,-0.003423,0.061549,0.172865,0.0,1.0,2502.811035,
69.363716,-96.931519,-95.738075,3.088703,0.129341,3.088703,0.129341,-89.999855,-90.0,4.028946,34.465111,14.144553,290.318268,285.688477,-0.352675,-0.549955,23.185579,-0.002375,0.061631,0.21805,0.0,1.0,2507.067871,
70.272301,-96.931519,-95.738075,3.057712,0.008268,3.057712,0.008268,-89.999855,-90.0,4.103376,35.174492,15.300335,290.553314,285.06073,-0.365233,-0.43223,16.371759,-0.001848,0.061774,0.229526,0.0,1.0,2514.05249,
71.176056,-96.931519,-95.738075,3.021714,-0.077851,3.021714,-0.077851,-89.999855,-90.0,4.182487,35.906364,15.061173,291.482513,284.389038,-0.310284,-0.223077,16.386724,-1.18E-4,0.061154,0.217773,0.0,1.0,2521.220459,
71.746544,-96.931519,-95.738075,3.03955,-0.027055,3.03955,-0.027055,-89.999855,-90.0,4.234393,36.402237,15.419179,292.316803,283.935608,-0.23951,-0.066301,19.146749,9.76E-4,0.06049,0.187846,0.0,1.0,2525.957764,
72.265709,-96.931519,-95.738075,3.025922,0.180266,3.025922,0.180266,-89.999855,-90.0,4.289791,36.879044,17.759081,293.131531,283.511658,-0.154653,0.074112,19.799444,3.87E-4,0.060791,0.129599,0.0,1.0,2530.369141,
72.989929,-96.931519,-95.738075,2.878302,0.814858,2.878302,0.814858,-89.999855,-90.0,4.377954,37.555416,18.865757,294.009125,282.946991,-0.022511,0.211694,18.85627,-0.002575,0.060518,0.088863,0.0,1.0,2536.406494,
73.796867,-96.931519,-95.738075,2.645865,1.603133,2.645865,1.603133,-89.999855,-90.0,4.479323,38.275303,20.736814,294.322205,282.413757,0.079624,0.242131,19.865,-0.011641,0.057566,0.044983,0.0,1.0,2542.700684,
74.419998,-96.931519,-95.738075,2.509282,1.959919,2.509282,1.959919,-89.999855,-90.0,4.548407,38.796085,17.610962,294.094482,282.076782,0.123265,0.185073,20.30114,-0.020176,0.054367,0.029961,0.0,1.0,2547.328857,
75.291908,-96.931519,-95.738075,2.494734,2.030387,2.494734,2.030387,-89.999855,-90.0,4.623832,39.498356,13.66412,293.341675,281.687164,0.144386,0.040575,25.604622,-0.027999,0.050186,0.040715,0.0,1.0,2553.760254,
75.918228,-96.931519,-95.738075,2.596503,1.776925,2.596503,1.776925,-89.999855,-90.0,4.671057,40.001118,15.170035,292.67749,281.44931,0.137596,-0.075192,21.503786,-0.029491,0.04948,0.064677,0.0,1.0,2558.475098,
76.514076,-96.931519,-95.738075,2.698906,1.299505,2.698906,1.299505,-89.999855,-90.0,4.73744,40.484795,25.347246,292.08432,281.24762,0.113892,-0.172333,22.066406,-0.025385,0.05193,0.111565,0.0,1.0,2563.060791,
77.390862,-96.931519,-95.738075,2.785393,0.281663,2.785393,0.281663,-89.999855,-90.0,4.918555,41.212082,47.030857,291.578644,280.98645,0.065343,-0.244817,21.677298,-0.018564,0.053978,0.141223,0.0,1.0,2569.998291,
78.213211,-96.931519,-95.738075,2.893166,-0.702403,2.893166,-0.702403,-89.999855,-90.0,5.204994,41.920723,70.726746,291.695526,280.777466,0.031468,-0.20982,30.645407,-0.004024,0.055708,0.166507,0.0,1.0,2576.753418,
78.764999,-96.931519,-95.738075,3.029335,-1.149577,3.029335,-1.149577,-89.999855,-90.0,5.485714,42.427322,90.703568,292.118011,280.657379,0.027399,-0.129184,39.441631,0.006066,0.057014,0.165848,0.0,1.0,2581.519043,
79.253036,-96.931519,-95.738075,3.209975,-1.293391,3.209975,-1.293391,-89.999855,-90.0,5.826872,42.913494,113.778107,292.681732,280.567596,0.041088,-0.028958,49.794918,0.016423,0.060587,0.139539,0.0,1.0,2585.979004,
79.908028,-96.931519,-95.738075,3.474567,-0.910192,3.474567,-0.910192,-89.999855,-90.0,6.497497,43.641365,154.019135,293.503601,280.483521,0.087694,0.110463,69.431473,0.018477,0.064199,0.111353,0.0,1.0,2592.302002,
80.293785,-96.931519,-95.738075,3.617063,-0.392314,3.617063,-0.392314,-89.999855,-90.0,7.033814,44.104839,180.675583,293.856171,280.462036,0.125239,0.166577,84.438965,0.013003,0.069491,0.070259,0.0,1.0,2595.695801,
80.90554,-96.931519,-95.738075,3.74247,0.552438,3.74247,0.552438,-89.999855,-90.0,8.066532,44.846912,218.686523,293.92392,280.476013,0.173269,0.169186,111.544273,0.005604,0.072341,0.052631,0.0,1.0,2600.107422,
81.512558,-96.931519,-95.738075,3.8214,1.196987,3.8214,1.196987,-89.999855,-90.0,9.23806,45.564205,247.978836,293.436493,280.535828,0.188258,0.080436,139.238556,-0.007892,0.074849,0.049243,0.0,1.0,2603.611084,
81.916862,-96.931519,-95.738075,3.873194,1.289106,3.873194,1.289106,-89.999855,-90.0,10.092748,46.039749,263.725708,292.948029,280.592529,0.176036,-0.003659,157.59906,-0.014896,0.075939,0.063147,0.0,1.0,2605.678223,
82.500832,-96.931519,-95.738075,3.964865,0.948528,3.964865,0.948528,-89.999855,-90.0,11.426195,46.729504,284.073456,292.279755,280.686707,0.133481,-0.11327,182.94783,-0.018416,0.077464,0.098038,0.0,1.0,2608.437988,
82.885719,-96.931519,-95.738075,4.026137,0.477536,4.026137,0.477536,-89.999855,-90.0,12.39624,47.19986,297.300323,292.030273,280.75296,0.098758,-0.150403,200.105209,-0.016238,0.078619,0.120479,0.0,1.0,2610.201904,
83.462067,-96.931519,-95.738075,4.139281,-0.294604,4.139281,-0.294604,-89.999855,-90.0,13.977946,47.920433,318.165436,292.112915,280.851776,0.060982,-0.128156,224.828674,-0.006822,0.080523,0.143926,0.0,1.0,2612.768311,
83.808792,-96.931519,-95.738075,4.230367,-0.615767,4.230367,-0.615767,-89.999855,-90.0,15.066658,48.384445,334.851624,292.453033,280.913422,0.0535,-0.066666,240.216629,9.35E-4,0.082013,0.144386,0.0,1.0,2614.343994,
84.244766,-96.931519,-95.738075,4.409807,-0.661688,4.409807,-0.661688,-89.999855,-90.0,16.717056,49.0364,364.557434,293.131683,281.000244,0.073556,0.048471,261.988068,0.008797,0.084607,0.122787,0.0,1.0,2616.447998,
84.532944,-96.931519,-95.738075,4.568869,-0.356255,4.568869,-0.356255,-89.999855,-90.0,18.083561,49.530006,391.485168,293.619293,281.068268,0.102316,0.127014,279.474152,0.009453,0.088196,0.088855,0.0,1.0,2617.944824,
84.902542,-96.931519,-95.738075,4.725254,0.36992,4.725254,0.36992,-79.999855,-80.0,20.131269,50.205482,425.365784,293.958679,281.1651,0.152073,0.174473,305.299316,0.005089,0.091377,0.064475,0.0,1.0,2619.868896,
85.154572,-96.931519,-95.738075,4.767543,0.855118,4.767543,0.855118,-79.999855,-80.0,21.579977,50.650417,442.293457,293.889069,281.229401,0.176379,0.155255,323.296967,-9.7E-4,0.093585,0.051036,0.0,1.0,2621.084473,
85.552261,-96.931519,-95.738075,4.796688,1.298517,4.796688,1.298517,-79.999855,-80.0,23.844168,51.309868,461.887543,293.425049,281.318909,0.182945,0.068436,350.02124,-0.012216,0.095351,0.050986,0.0,1.0,2622.86084,
85.824364,-96.931519,-95.738075,4.816081,1.279454,4.816081,1.279454,-79.999855,-80.0,25.401739,51.744431,471.917877,293.011993,281.36908,0.166593,-0.004536,367.065887,-0.017285,0.095787,0.064719,0.0,1.0,2624.031006,
86.236,-96.931519,-95.738075,4.868368,0.841638,4.868368,0.841638,-79.999855,-80.0,27.796482,52.389057,485.657379,292.5065,281.422058,0.123132,-0.090052,391.053619,-0.018278,0.096322,0.094839,0.0,1.0,2625.772461,
86.497536,-96.931519,-95.738075,4.910322,0.412974,4.910322,0.412974,-79.999855,-80.0,29.363417,52.79644,495.109131,292.39328,281.438965,0.091722,-0.107268,405.093689,-0.014761,0.096977,0.113452,0.0,1.0,2626.875244,
Command_Fault: set /instrumentation/altimeter/serviceable true
86.89402,-96.931519,-95.738075,5.004458,-0.214378,5.004458,-0.214378,-69.999855,-70.0,31.95355,53.444313,513.118042,292.619476,281.437531,0.06383,-0.066506,426.441956,-0.0059,0.098206,0.125775,0.0,1.0,2628.621582,
87.127556,-73.997284,-72.803841,5.083753,-0.404504,5.083753,-0.404504,-69.999855,-70.0,33.687492,53.859333,526.904724,292.976074,281.419891,0.063908,-0.006088,439.574829,6.23E-4,0.09941,0.120732,0.0,1.0,2629.721191,
87.431328,-71.700394,-70.50695,5.225782,-0.275615,5.225782,-0.275615,-69.999855,-70.0,36.382328,54.473515,551.064575,293.592072,281.374634,0.090745,0.093542,459.047363,0.005779,0.101675,0.096635,0.0,1.0,2631.290527,
87.613213,-70.112793,-68.91935,5.303645,0.05588,5.303645,0.05588,-69.999855,-70.0,38.24995,54.87706,568.782043,293.887115,281.335114,0.119558,0.137722,472.16568,0.005381,0.103602,0.075603,0.0,1.0,2632.274902,
87.882317,-67.642738,-66.449295,5.394473,0.674509,5.394473,0.674509,-69.999855,-70.0,41.161961,55.473179,595.037354,293.993317,281.264374,0.156797,0.145256,492.396881,-7.98E-4,0.106073,0.051083,0.0,1.0,2633.677734,
88.071068,-65.933121,-64.739677,5.431218,0.99078,5.431218,0.99078,-69.999855,-70.0,43.172947,55.864494,610.464233,293.817078,281.208954,0.169106,0.108543,506.44046,-0.006762,0.107403,0.044958,0.0,1.0,2634.585449,
88.367729,-63.275612,-62.082165,5.485189,1.129269,5.485189,1.129269,-59.999859,-60.0,46.276489,56.442696,629.892334,293.3255,281.109467,0.159009,0.018623,527.794739,-0.014154,0.108624,0.054585,0.0,1.0,2635.938232,
88.552818,-61.598255,-60.404812,5.517736,0.970988,5.517736,0.970988,-59.999859,-60.0,48.218197,56.7911,640.408264,293.020752,281.036407,0.135932,-0.034793,540.769592,-0.016283,0.109352,0.070284,0.0,1.0,2636.765869,
88.872002,-58.612873,-57.41943,5.584761,0.415268,5.584761,0.415268,-59.999859,-60.0,51.645432,57.38443,657.94751,292.720947,280.88446,0.09431,-0.08531,562.516174,-0.013871,0.110355,0.094402,0.0,1.0,2638.198242,
89.059875,-56.750751,-55.557308,5.63276,0.044713,5.63276,0.044713,-59.999859,-60.0,53.765598,57.738377,669.053406,292.761017,280.776459,0.071377,-0.07733,575.447266,-0.00899,0.111218,0.10661,0.0,1.0,2639.061768,
89.327797,-53.758904,-52.56546,5.737447,-0.338745,5.737447,-0.338745,-49.999859,-50.0,57.15942,58.284309,688.466797,293.127228,280.5867,0.060895,-0.015205,595.008606,-6.39E-4,0.112655,0.107388,0.0,1.0,2640.389648,
89.486092,-51.625725,-50.432281,5.828668,-0.361296,5.828668,-0.361296,-49.999859,-50.0,59.577415,58.657326,704.047424,293.49649,280.444,0.071644,0.045128,608.308472,0.004839,0.114749,0.089078,0.0,1.0,2641.275635,
89.680862,-48.470211,-47.276764,5.943142,-0.025796,5.943142,-0.025796,-49.999859,-50.0,63.160294,59.185143,728.545654,293.933594,280.229797,0.105769,0.112761,627.556885,0.005161,0.116573,0.070615,0.0,1.0,2642.476318,
89.803513,-46.309631,-45.116188,5.998414,0.323249,5.998414,0.323249,-49.999859,-50.0,65.616913,59.53072,744.545227,294.042786,280.084198,0.130171,0.125538,640.604858,0.00251,0.118187,0.054588,0.0,1.0,2643.230713,
90.002327,-42.983231,-41.789787,6.065038,0.781101,6.065038,0.781101,-39.999859,-40.0,69.396828,60.039661,766.343872,293.888519,279.863434,0.15046,0.091286,660.357361,-0.004618,0.119968,0.0433,0.0,1.0,2644.320557,
90.126595,-40.802052,-39.608608,6.094338,0.902381,6.094338,0.902381,-39.999859,-40.0,71.865158,60.359077,778.188049,293.637634,279.720093,0.148414,0.044688,673.260254,-0.009213,0.120896,0.046164,0.0,1.0,2645.006348,
90.346329,-37.20554,-36.012093,6.141459,0.754009,6.141459,0.754009,-39.999859,-40.0,75.907494,60.864029,794.164917,293.18457,279.482788,0.123013,-0.034866,693.983154,-0.012891,0.121887,0.063557,0.0,1.0,2646.109863,
90.492447,-34.817787,-33.624344,6.17127,0.467593,6.17127,0.467593,-29.999857,-30.0,78.57103,61.185947,803.482605,292.997498,279.322998,0.097568,-0.066345,707.131836,-0.012224,0.122511,0.078813,0.0,1.0,2646.828857,
90.70623,-31.16017,-29.966726,6.229534,-0.030796,6.229534,-0.030796,-29.999857,-30.0,82.624382,61.660721,817.633789,292.998718,279.074677,0.06617,-0.064736,726.240967,-0.00668,0.123425,0.095564,0.0,1.0,2647.90625,
90.83712,-28.674484,-27.481039,6.279546,-0.261612,6.279546,-0.261612,-29.999857,-30.0,85.367325,61.971767,827.816467,293.192322,278.905365,0.057129,-0.031248,738.455261,-0.001803,0.124171,0.097611,0.0,1.0,2648.615723,
91.002304,-24.877815,-23.68437,6.377781,-0.31603,6.377781,-0.31603,-19.999857,-20.0,89.550049,62.429798,845.268005,293.632874,278.651489,0.067568,0.041478,756.096497,0.003737,0.125591,0.085823,0.0,1.0,2649.641113,
91.093475,-22.299988,-21.106544,6.44006,-0.138582,6.44006,-0.138582,-19.999857,-20.0,92.38987,62.729221,858.129028,293.895813,278.486084,0.087159,0.082833,767.634521,0.004923,0.126891,0.071382,0.0,1.0,2650.286377,
91.218391,-18.36224,-17.168795,6.518399,0.296024,6.518399,0.296024,-19.999857,-20.0,96.731125,63.169209,877.75769,294.078613,278.248505,0.118884,0.106989,784.807861,0.00198,0.128801,0.050648,0.0,1.0,2651.196045,
91.305573,-15.68867,-14.495226,6.54726,0.56745,6.54726,0.56745,-19.999857,-20.0,99.677994,63.456448,889.522217,294.007416,278.098358,0.133542,0.08998,796.272278,-0.002042,0.129948,0.042677,0.0,1.0,2651.775391,
91.448135,-11.606899,-10.413455,6.579789,0.760506,6.579789,0.760506,-9.999858,-10.0,104.163773,63.878536,903.793335,293.682312,277.884613,0.13362,0.029591,813.416992,-0.008106,0.130945,0.045068,0.0,1.0,2652.626953,
91.553337,-8.839108,-7.645664,6.597208,0.682914,6.597208,0.682914,-9.999858,-10.0,107.190033,64.154373,911.416077,293.424225,277.74823,0.119379,-0.015925,824.722839,-0.010474,0.131393,0.054489,0.0,1.0,2653.181152,
91.715218,-4.623713,-3.430269,6.628285,0.332406,6.628285,0.332406,1.42E-4,0.0,111.773239,64.560234,921.472412,293.157654,277.55011,0.087398,-0.060963,841.15564,-0.009756,0.131944,0.074228,0.0,1.0,2654.00293,
91.822556,-1.774197,-0.580753,6.653517,0.041618,6.653517,0.041618,1.42E-4,0.0,114.856247,64.825691,928.072937,293.148041,277.421844,0.06722,-0.06146,851.644897,-0.006738,0.132352,0.084558,0.0,1.0,2654.546631,
91.969276,2.738864,3.932309,6.712499,-0.277439,6.712499,-0.277439,1.42E-4,0.0,119.524178,65.216141,939.13269,293.384369,277.236938,0.05454,-0.020735,866.62085,-5.95E-4,0.13307,0.088037,0.0,1.0,2655.346191,
92.051239,5.803267,6.996711,6.76168,-0.312023,6.76168,-0.312023,10.000142,10.0,122.669205,65.471146,947.626892,293.638489,277.121002,0.060373,0.021587,876.153381,0.002887,0.133811,0.081534,0.0,1.0,2655.85791,
92.149467,10.454544,11.647988,6.842504,-0.100128,6.842504,-0.100128,10.000142,10.0,127.443558,65.845383,962.024658,293.988861,276.962555,0.084909,0.07703,889.97229,0.004457,0.135234,0.063515,0.0,1.0,2656.575684,
92.20752,13.59264,14.786084,6.880348,0.15537,6.880348,0.15537,10.000142,10.0,130.667603,66.089233,971.854309,294.095184,276.86908,0.105026,0.09112,899.004456,0.002894,0.136359,0.050923,0.0,1.0,2657.019775,
92.299278,18.35512,19.548563,6.917215,0.512845,6.917215,0.512845,20.000143,20.0,135.561386,66.44664,984.862976,294.006165,276.747864,0.123886,0.070195,912.352966,-0.00222,0.137607,0.04068,0.0,1.0,2657.651123,
92.368668,21.56834,22.761784,6.928171,0.621556,6.928171,0.621556,20.000143,20.0,138.856644,66.679512,991.745972,293.812439,276.678528,0.124244,0.034273,921.215149,-0.005761,0.138154,0.04184,0.0,1.0,2658.062256,
92.484177,26.443222,27.636667,6.940015,0.52847,6.940015,0.52847,30.000143,30.0,143.836945,67.021233,999.785217,293.469391,276.588287,0.105609,-0.025661,934.325806,-0.008879,0.138563,0.054817,0.0,1.0,2658.680908,
92.566528,29.725954,30.919397,6.948941,0.316827,6.948941,0.316827,30.000143,30.0,147.177383,67.24424,1004.23291,293.308563,276.535156,0.085937,-0.05256,942.752869,-0.00755,0.1388,0.07197,0.0,1.0,2659.099609,
92.689468,34.692577,35.886024,6.972831,-0.06435,6.972831,-0.06435,30.000143,30.0,152.215393,67.571777,1010.887756,293.300018,276.463959,0.059268,-0.052281,954.696838,-0.004526,0.138979,0.080011,0.0,1.0,2659.735352,
92.763947,38.030338,39.223785,7.001716,-0.244853,7.001716,-0.244853,40.000141,40.0,155.593811,67.785484,1016.086609,293.45047,276.422394,0.05167,-0.026023,962.192261,-9.68E-4,0.139238,0.082062,0.0,1.0,2660.157471,
92.853477,43.079613,44.273056,7.062945,-0.288004,7.062945,-0.288004,40.000141,40.0,160.698654,68.098839,1026.004272,293.796509,276.371246,0.060522,0.031338,973.087769,0.003498,0.140034,0.072916,0.0,1.0,2660.766846,
92.898613,46.472012,47.665455,7.105379,-0.150499,7.105379,-0.150499,50.000141,50.0,164.132004,68.30278,1033.832886,294.008606,276.346252,0.076608,0.064842,980.061157,0.004114,0.141259,0.055614,0.0,1.0,2661.147217,
92.958611,51.602074,52.795517,7.144929,0.196564,7.144929,0.196564,50.000141,50.0,169.331894,68.601082,1045.544067,294.135559,276.324127,0.103911,0.081176,990.328186,0.00215,0.142108,0.045009,0.0,1.0,2661.676758,
93.00209,55.050755,56.244202,7.160739,0.414845,7.160739,0.414845,50.000141,50.0,172.828857,68.794945,1052.219849,294.065186,276.319275,0.114838,0.065981,997.131714,-0.002808,0.142899,0.038661,0.0,1.0,2662.011719,
93.079071,60.266407,61.45985,7.169848,0.541612,7.169848,0.541612,60.000141,60.0,178.110992,69.078568,1059.889648,293.790192,276.324005,0.113716,0.015668,1007.271423,-0.005926,0.143215,0.04218,0.0,1.0,2662.506836,
93.135185,63.622303,64.81575,7.173517,0.471732,7.173517,0.471732,60.000141,60.0,181.502777,69.255524,1063.389893,293.586121,276.332214,0.101194,-0.019686,1013.540649,-0.007737,0.143397,0.05593,0.0,1.0,2662.82666,
93.230995,69.058197,70.25164,7.182781,0.164553,7.182781,0.164553,70.000145,70.0,186.979874,69.53363,1068.008667,293.390503,276.34964,0.074042,-0.052078,1023.332092,-0.006739,0.14347,0.066133,0.0,1.0,2663.352783,
93.294563,72.609001,73.802444,7.196529,-0.070543,7.196529,-0.070543,70.000145,70.0,190.545197,69.709824,1071.127563,293.400696,276.362274,0.059207,-0.049417,1029.50708,-0.002351,0.143656,0.075914,0.0,1.0,2663.699707,
93.377136,77.964478,79.157921,7.232286,-0.290207,7.232286,-0.290207,80.000145,80.0,195.915253,69.967865,1077.023315,293.612213,276.383026,0.050882,-0.012534,1038.213745,0.001008,0.143931,0.075404,0.0,1.0,2664.216797,
93.41922,81.55365,82.747093,7.266332,-0.297893,7.266332,-0.297893,80.000145,80.0,199.513916,70.135628,1082.146851,293.822327,276.399017,0.05747,0.022376,1043.698608,0.004146,0.144646,0.064829,0.0,1.0,2664.548584,
93.465553,86.966476,88.15992,7.311322,-0.089921,7.311322,-0.089921,90.000145,90.0,204.947372,70.38063,1091.089966,294.075623,276.428192,0.079618,0.062368,1051.615356,0.004256,0.145327,0.054323,0.0,1.0,2665.012451,
93.492081,90.594376,91.787819,7.334204,0.123236,7.334204,0.123236,90.000145,90.0,208.594772,70.53949,1097.093872,294.13623,276.451691,0.094927,0.069922,1056.734009,0.001285,0.146226,0.041658,0.0,1.0,2665.299561,
93.538162,96.070343,97.263786,7.346961,0.383404,7.346961,0.383404,100.000145,100.0,214.100769,70.771194,1104.63916,294.021912,276.492065,0.108396,0.046348,1064.493042,-0.001761,0.146684,0.038628,0.0,1.0,2665.709473,
93.576202,99.742218,100.935661,7.348999,0.447655,7.348999,0.447655,100.000145,100.0,217.789261,70.921478,1108.141357,293.847931,276.520721,0.106024,0.015202,1069.629761,-0.005477,0.146939,0.044344,0.0,1.0,2665.979736,
93.643021,105.278496,106.471939,7.349286,0.319158,7.349286,0.319158,100.000145,100.0,223.339844,71.141037,1111.717651,293.585419,276.562531,0.087976,-0.029952,1077.125244,-0.006395,0.14698,0.053043,0.0,1.0,2666.392822,
93.691803,108.987785,110.181229,7.352157,0.13137,7.352157,0.13137,110.000145,110.0,227.048813,71.283699,1113.568359,293.484344,276.587646,0.072061,-0.046434,1081.974365,-0.004559,0.146986,0.066168,0.0,1.0,2666.676025,
93.759613,114.263504,115.456947,7.366291,-0.14554,7.366291,-0.14554,110.000145,110.0,232.314194,71.48085,1116.52417,293.517212,276.617889,0.053064,-0.039258,1088.471069,-0.001877,0.147043,0.071222,0.0,1.0,2667.084717,
93.803673,118.311806,119.505249,7.388561,-0.279682,7.388561,-0.279682,120.000145,120.0,236.3517,71.627686,1119.682007,293.666901,276.636993,0.050029,-0.013418,1093.080078,0.002079,0.147326,0.069579,0.0,1.0,2667.395996,
93.845482,123.626427,124.81987,7.425436,-0.259478,7.425436,-0.259478,120.000145,120.0,241.652161,71.814384,1125.302734,293.923676,276.658508,0.060896,0.029284,1098.862427,0.003995,0.147771,0.062094,0.0,1.0,2667.786133,
93.866989,127.704597,128.898041,7.453664,-0.112598,7.453664,-0.112598,130.000137,130.0,245.725204,71.952965,1130.44043,294.081146,276.673676,0.074581,0.054092,1103.060913,0.003707,0.148509,0.049255,0.0,1.0,2668.063721,
93.89357,133.376648,134.570099,7.474782,0.167019,7.474782,0.167019,130.000137,130.0,251.395859,72.138817,1137.404663,294.129944,276.694031,0.095031,0.058652,1108.881592,0.001609,0.149073,0.041382,0.0,1.0,2668.42041,
93.913399,136.85704,138.050491,7.479593,0.308336,7.479593,0.308336,140.000137,140.0,254.876801,72.249016,1140.7677,294.052765,276.705872,0.101388,0.043616,1112.428833,-0.002386,0.149496,0.038942,0.0,1.0,2668.628906,
93.95842,142.892502,144.085938,7.47738,0.36365,7.47738,0.36365,140.000137,140.0,260.909088,72.433693,1144.618164,293.805634,276.722931,0.09641,-4.63E-4,1118.479248,-0.004405,0.149592,0.042801,0.0,1.0,2668.988525,
93.993584,146.720093,147.913544,7.474674,0.270948,7.474674,0.270948,150.000137,150.0,264.72699,72.546852,1145.97998,293.647003,276.729858,0.084479,-0.027367,1122.257202,-0.005195,0.149548,0.055157,0.0,1.0,2669.22168,
94.051239,152.479919,153.67337,7.47639,0.010123,7.47639,0.010123,150.000137,150.0,270.461029,72.711853,1147.587402,293.539764,276.7323,0.062362,-0.044201,1127.662354,-0.003871,0.149493,0.063089,0.0,1.0,2669.58374,
94.088081,156.329193,157.522644,7.484964,-0.16453,7.484964,-0.16453,160.000137,160.0,274.288635,72.818756,1148.99646,293.584503,276.728302,0.052305,-0.035643,1130.980713,-1.45E-4,0.149528,0.068451,0.0,1.0,2669.830811,
94.132401,162.118347,163.311798,7.510952,-0.285874,7.510952,-0.285874,160.000137,160.0,280.041565,72.974396,1152.371704,293.78949,276.715179,0.050312,-1.52E-4,1135.696899,0.00235,0.149699,0.066214,0.0,1.0,2670.197754,
94.151787,165.987961,167.181412,7.534592,-0.24951,7.534592,-0.24951,170.000137,170.0,283.888275,73.074913,1155.658569,293.957581,276.703156,0.058462,0.027596,1138.695313,0.004084,0.150219,0.055965,0.0,1.0,2670.431396,
94.170349,171.807632,173.001068,7.561639,-0.042232,7.561639,-0.042232,170.000137,170.0,289.681244,73.220673,1161.37561,294.122803,276.682739,0.078246,0.053019,1143.033325,0.003564,0.150692,0.04756,0.0,1.0,2670.756348,
94.181732,175.698654,176.892105,7.572517,0.130095,7.572517,0.130095,180.000137,180.0,293.558777,73.314491,1164.955322,294.131805,276.668335,0.089593,0.052469,1145.895508,6.03E-4,0.151233,0.039299,0.0,1.0,2670.958252,
94.205757,181.552124,182.745575,7.57349,0.297248,7.57349,0.297248,180.000137,180.0,299.394714,73.450386,1168.931396,293.990204,276.645416,0.096411,0.025607,1150.165527,-0.001858,0.15145,0.038849,0.0,1.0,2671.251465,
94.228477,185.46698,186.660431,7.56969,0.305875,7.56969,0.305875,180.000137,180.0,303.293915,73.537941,1170.386108,293.837524,276.628326,0.091443,-0.001091,1153.049438,-0.004246,0.15147,0.045929,0.0,1.0,2671.447998,
94.270676,191.354645,192.548096,7.564666,0.148956,7.564666,0.148956,190.000137,190.0,309.149048,73.665047,1171.502075,293.647644,276.598022,0.073896,-0.032991,1157.257568,-0.00437,0.151394,0.053563,0.0,1.0,2671.753662,
94.301437,195.288437,196.481888,7.564891,-0.016801,7.564891,-0.016801,190.000137,190.0,313.055054,73.747108,1172.072388,293.600952,276.573975,0.061306,-0.040055,1159.922119,-0.002128,0.151293,0.063057,0.0,1.0,2671.965576,
94.343849,201.199829,202.39328,7.576978,-0.226314,7.576978,-0.226314,200.000137,200.0,318.918823,73.866241,1173.594116,293.688904,276.53241,0.04945,-0.023674,1163.643677,2.4E-4,0.151298,0.065392,0.0,1.0,2672.289795,
94.364929,205.147217,206.340652,7.593364,-0.284759,7.593364,-0.284759,200.000137,200.0,322.833862,73.942978,1175.47998,293.824951,276.502106,0.050372,-4.46E-4,1165.944824,0.003233,0.15154,0.060994,0.0,1.0,2672.503174,
94.383545,211.078293,212.271729,7.620358,-0.198703,7.620358,-0.198703,210.000137,210.0,328.721222,74.053886,1179.53772,294.034882,276.455414,0.063261,0.034077,1169.205078,0.004068,0.151867,0.054192,0.0,1.0,2672.806885,
94.390396,215.039871,216.233307,7.6359,-0.060669,7.6359,-0.060669,210.000137,210.0,332.658386,74.124962,1182.670166,294.119995,276.424896,0.075098,0.04698,1171.31897,0.002839,0.152407,0.043695,0.0,1.0,2672.994873,
94.40155,220.994125,222.187576,7.643909,0.156901,7.643909,0.156901,220.000137,220.0,338.583038,74.22731,1186.817627,294.098846,276.381256,0.08937,0.040594,1174.457031,8.67E-4,0.152718,0.039439,0.0,1.0,2673.26001,
94.413857,224.973694,226.16713,7.642563,0.2466,7.642563,0.2466,220.000137,220.0,342.542419,74.292816,1188.625732,293.996155,276.353455,0.091407,0.02189,1176.626099,-0.002241,0.152878,0.040497,0.0,1.0,2673.432373,
94.441231,230.955933,232.149384,7.63555,0.219383,7.63555,0.219383,230.000137,230.0,348.489624,74.387276,1189.957275,293.795776,276.312195,0.082546,-0.012874,1179.869385,-0.003523,0.152851,0.045631,0.0,1.0,2673.695801,
94.464333,234.951584,236.14502,7.631125,0.109583,7.631125,0.109583,230.000137,230.0,352.456696,74.447891,1190.226196,293.690247,276.284119,0.071475,-0.030347,1181.970947,-0.003134,0.152711,0.05565,0.0,1.0,2673.878418,
94.500946,240.952835,242.146271,7.632421,-0.108874,7.632421,-0.108874,240.000137,240.0,358.408691,74.535446,1190.645508,293.660736,276.240204,0.054981,-0.033893,1184.893188,-0.001565,0.152623,0.060927,0.0,1.0,2674.163574,
Command: turn_+45
94.522499,244.959442,246.152878,7.640445,-0.2269,7.640445,-0.2269,240.000137,240.0,362.378784,74.591583,1191.447998,293.732971,276.210083,0.049753,-0.020952,1186.739624,0.001555,0.152648,0.062402,0.0,1.0,2674.357178,
94.542419,250.975861,252.169312,7.662382,-0.285228,7.662382,-0.285228,250.000137,250.0,368.341553,74.672325,1193.837524,293.967804,276.165497,0.043751,0.019368,1189.293945,0.00108,0.152809,0.1,0.0,1.0,2674.640869,
94.540535,254.991547,256.184998,7.685356,-0.226902,7.685356,-0.226902,250.000137,250.0,372.325104,74.723663,1196.3396,294.238342,276.137909,0.050274,0.063033,1190.900146,0.001358,0.153248,0.1,0.0,1.0,2674.814941,
Command_Fault: set /instrumentation/altimeter/serviceable false
94.511459,261.024017,262.217468,7.721921,0.08129,7.721921,0.08129,260.000153,260.0,378.319611,74.796638,1201.545044,294.685638,276.104065,0.077192,0.131033,1193.287476,0.00108,0.153707,0.1,0.0,1.0,2675.032715,
94.479561,261.024017,262.217468,7.742708,0.416096,7.742708,0.416096,260.000153,260.0,382.331757,74.84243,1205.6521,294.935303,276.088928,0.100785,0.165613,1194.948486,-3.87E-4,0.154438,0.1,0.0,1.0,2675.143311,
94.427254,261.024017,262.217468,7.753006,1.006959,7.753006,1.006959,270.000153,270.0,388.375305,74.9067,1211.334961,295.162598,276.080292,0.134243,0.189931,1197.66687,-0.001981,0.154854,0.1,0.0,1.0,2675.264404,
94.396439,261.024017,262.217468,7.75168,1.398125,7.75168,1.398125,270.000153,270.0,392.417969,74.946678,1213.997314,295.211304,276.084473,0.150282,0.187999,1199.655762,-0.004795,0.15506,0.1,0.0,1.0,2675.325928,
94.361588,261.024017,262.217468,7.744011,1.87291,7.744011,1.87291,280.000153,280.0,398.494324,75.00264,1216.089478,295.176453,276.105042,0.161123,0.16654,1202.796631,-0.006658,0.155034,0.1,0.0,1.0,2675.409912,
94.346138,261.024017,262.217468,7.737745,2.0943,7.737745,2.0943,280.000153,280.0,402.548553,75.037514,1216.297607,295.125946,276.127289,0.159914,0.14791,1204.988892,-0.008919,0.15488,0.1,0.0,1.0,2675.468994,
94.331749,261.024017,262.217468,7.729237,2.276746,7.729237,2.276746,290.000153,290.0,408.628296,75.086594,1215.443237,295.08551,276.171539,0.149852,0.125983,1208.177002,-0.009973,0.154755,0.1,0.0,1.0,2675.570557,
94.325745,261.024017,262.217468,7.723046,2.328896,7.723046,2.328896,290.000153,290.0,412.678131,75.117355,1214.452148,295.113739,276.207397,0.141168,0.120462,1210.14502,-0.010842,0.154585,0.1,0.0,1.0,2675.647461,
94.317528,261.024017,262.217468,7.715836,2.362596,7.715836,2.362596,300.000153,300.0,418.746368,75.160782,1212.930298,295.258514,276.270386,0.130669,0.128213,1212.703979,-0.01109,0.154461,0.1,0.0,1.0,2675.773438,
94.310295,261.024017,262.217468,7.712435,2.391959,7.712435,2.391959,310.000153,310.0,422.788116,75.187988,1212.192505,295.415222,276.318848,0.127423,0.142286,1214.191528,-0.01125,0.154317,0.1,0.0,1.0,2675.860596,
94.2939,261.024017,262.217468,7.711055,2.486234,7.711055,2.486234,310.000153,310.0,428.847626,75.226204,1211.770264,295.704315,276.402557,0.12906,0.170131,1216.021851,-0.01139,0.154249,0.1,0.0,1.0,2675.988281,
94.279144,261.024017,262.217468,7.711173,2.590595,7.711173,2.590595,320.000153,320.0,432.887115,75.249931,1211.947998,295.907196,276.466675,0.133618,0.188791,1217.006836,-0.011839,0.154221,0.1,0.0,1.0,2676.067871,
94.253212,261.024017,262.217468,7.711024,2.794493,7.711024,2.794493,320.000153,320.0,438.948364,75.28289,1212.568848,296.189972,276.576599,0.142864,0.210913,1218.168335,-0.012336,0.154223,0.1,0.0,1.0,2676.176514,
94.235466,261.024017,262.217468,7.71,2.94691,7.71,2.94691,330.000153,330.0,442.991028,75.303139,1212.983521,296.352142,276.659576,0.148767,0.220044,1218.85437,-0.013307,0.15422,0.1,0.0,1.0,2676.242676,
94.210823,261.024017,262.217468,7.706714,3.162608,7.706714,3.162608,330.000153,330.0,449.056915,75.331024,1213.263428,296.554321,276.798615,0.154931,0.225456,1219.732422,-0.014033,0.1542,0.1,0.0,1.0,2676.336426,
94.196678,261.024017,262.217468,7.703346,3.285444,7.703346,3.285444,340.000153,340.0,453.100922,75.348038,1213.102051,296.669952,276.900757,0.156577,0.225237,1220.234741,-0.01506,0.154134,0.1,0.0,1.0,2676.398682,
94.179115,261.024017,262.217468,7.697481,3.420899,7.697481,3.420899,340.000153,340.0,459.164764,75.371384,1212.352173,296.836517,277.067291,0.155662,0.222956,1220.82019,-0.015645,0.154067,0.1,0.0,1.0,2676.495117,
94.16964,261.024017,262.217468,7.692666,3.482349,7.692666,3.482349,350.000153,350.0,463.204651,75.385597,1211.58252,296.955658,277.186646,0.153529,0.222345,1221.163818,-0.01629,0.15395,0.1,0.0,1.0,2676.562988,
94.157188,261.024017,262.217468,7.685684,3.541766,7.685684,3.541766,350.000153,350.0,469.259186,75.40506,1210.243896,297.161255,277.377258,0.149755,0.225099,1221.448608,-0.016583,0.153853,0.1,0.0,1.0,2676.670654,
94.149353,261.024017,262.217468,7.680781,3.571686,7.680781,3.571686,360.000153,360.0,473.291779,75.416862,1209.353882,297.319122,277.511719,0.147752,0.229782,1221.57959,-0.016866,0.153714,0.1,0.0,1.0,2676.745361,
94.136856,261.024017,262.217468,7.67488,3.618179,7.67488,3.618179,360.000153,360.0,479.33548,75.432899,1208.196777,297.582581,277.72406,0.146464,0.240122,1221.543457,-0.017008,0.153616,0.1,0.0,1.0,2676.859863,
94.127785,261.024017,262.217468,7.671226,3.657501,7.671226,3.657501,370.000153,370.0,483.361725,75.442505,1207.598877,297.769623,277.872589,0.146858,0.248111,1221.449341,-0.017229,0.153498,0.1,0.0,1.0,2676.936523,
94.1129,261.024017,262.217468,7.667048,3.731409,7.667048,3.731409,370.000153,370.0,489.397919,75.455338,1206.93457,298.054596,278.10553,0.148892,0.25961,1221.160278,-0.017417,0.153425,0.1,0.0,1.0,2677.050049,
94.102448,261.024017,262.217468,7.664324,3.789132,7.664324,3.789132,380.000153,380.0,493.420471,75.462875,1206.602173,298.241333,278.267395,0.150708,0.265995,1220.892212,-0.017769,0.153341,0.1,0.0,1.0,2677.124756,
94.08667,261.024017,262.217468,7.660648,3.87846,7.660648,3.87846,380.000153,380.0,499.452301,75.472694,1206.135864,298.510925,278.51947,0.153258,0.272831,1220.368042,-0.018043,0.153286,0.1,0.0,1.0,2677.234863,
94.076729,261.024017,262.217468,7.657866,3.935486,7.657866,3.935486,390.000153,390.0,503.472168,75.478302,1205.785156,298.683502,278.693207,0.154435,0.275666,1220.032837,-0.018469,0.153213,0.1,0.0,1.0,2677.308105,
94.063004,261.024017,262.217468,7.653666,4.008097,7.653666,4.008097,390.000153,390.0,509.499512,75.48539,1205.133423,298.935699,278.961395,0.155148,0.27813,1219.488525,-0.01874,0.153157,0.1,0.0,1.0,2677.418701,
94.056114,261.024017,262.217468,7.650386,4.047091,7.650386,4.047091,400.000153,400.0,513.515747,75.489296,1204.608887,299.103058,279.144623,0.154964,0.279277,1219.103516,-0.019086,0.153073,0.1,0.0,1.0,2677.493896,
94.073662,261.024017,262.217468,7.645504,4.086936,7.645504,4.086936,400.000153,400.0,519.536865,75.494003,1203.874756,299.361145,279.424988,0.153068,0.281558,1218.45105,-0.019272,0.153008,0.1,0.0,1.0,2677.631104,
94.086662,261.024017,262.217468,7.642068,4.100994,7.642068,4.100994,410.000153,410.0,523.549072,75.496429,1203.466675,299.543976,279.615021,0.151201,0.284371,1218.043579,-0.019462,0.15291,0.1,0.0,1.0,2677.740967,
94.106071,261.024017,262.217468,7.638547,4.111928,7.638547,4.111928,410.000153,410.0,529.565247,75.499054,1203.083252,299.839478,279.904053,0.148788,0.291199,1217.407593,-0.019529,0.152841,0.1,0.0,1.0,2677.925293,
94.118324,261.024017,262.217468,7.637002,4.119754,7.637002,4.119754,420.000153,420.0,533.575439,75.50016,1203.057129,300.049377,280.09903,0.147915,0.297233,1216.978882,-0.019581,0.152771,0.1,0.0,1.0,2678.057129,
94.127327,261.024017,262.217468,7.636459,4.140947,7.636459,4.140947,420.000153,420.0,539.591431,75.500854,1203.376221,300.376465,280.394562,0.147954,0.307284,1216.315186,-0.019618,0.15274,0.1,0.0,1.0,2678.261475,
94.087852,261.024017,262.217468,7.637173,4.162012,7.637173,4.162012,430.000153,430.0,543.602783,75.500687,1203.375122,300.598114,280.593384,0.148273,0.313876,1215.950439,-0.019719,0.152729,0.1,0.0,1.0,2678.369141,
94.028343,261.024017,262.217468,7.63773,4.196082,7.63773,4.196082,430.000153,430.0,549.618652,75.499565,1202.89209,300.932922,280.894043,0.148699,0.323005,1215.449585,-0.019819,0.152743,0.1,0.0,1.0,2678.46875,
93.98922,261.024017,262.217468,7.635819,4.218902,7.635819,4.218902,440.000153,440.0,553.627258,75.498268,1202.268188,301.156952,281.095886,0.148984,0.328496,1215.134277,-0.019981,0.152755,0.1,0.0,1.0,2678.506348,
93.931854,261.024017,262.217468,7.629605,4.251323,7.629605,4.251323,440.000153,440.0,559.635071,75.495583,1200.790161,301.493652,281.400482,0.149406,0.335828,1214.653564,-0.02009,0.152716,0.1,0.0,1.0,2678.53418,
93.89473,261.024017,262.217468,7.624024,4.271807,7.624024,4.271807,450.000153,450.0,563.635498,75.493332,1199.474731,301.718536,281.604675,0.149653,0.340172,1214.300415,-0.020244,0.152592,0.1,0.0,1.0,2678.540039,
93.840919,261.024017,262.217468,7.615561,4.299681,7.615561,4.299681,450.000153,450.0,569.627136,75.489365,1197.200195,302.05658,281.912415,0.149938,0.345976,1213.672119,-0.020342,0.15248,0.1,0.0,1.0,2678.536621,
93.806351,261.024017,262.217468,7.608857,4.316599,7.608857,4.316599,460.000153,460.0,573.61499,75.486351,1195.540771,302.282501,282.1185,0.150065,0.349437,1213.163452,-0.020475,0.152311,0.1,0.0,1.0,2678.529785,
93.756477,261.024017,262.217468,7.598716,4.338957,7.598716,4.338957,460.000153,460.0,579.585876,75.481369,1192.881714,302.62262,282.428894,0.150182,0.354147,1212.236328,-0.020555,0.152177,0.1,0.0,1.0,2678.515381,
93.724541,261.024017,262.217468,7.590962,4.352333,7.590962,4.352333,470.000153,470.0,583.55896,75.477768,1191.02063,302.850281,282.636597,0.150228,0.357021,1211.497559,-0.020662,0.151974,0.1,0.0,1.0,2678.505127,
93.678543,261.024017,262.217468,7.579951,4.370095,7.579951,4.370095,470.000153,470.0,589.506714,75.472023,1188.145386,303.193268,282.949219,0.150279,0.361016,1210.199097,-0.020725,0.151819,0.1,0.0,1.0,2678.490234,
93.649109,261.024017,262.217468,7.571849,4.380899,7.571849,4.380899,480.000153,480.0,593.463867,75.467995,1186.203003,303.422852,283.158356,0.150314,0.363478,1209.205811,-0.02081,0.151599,0.1,0.0,1.0,2678.481445,
93.606598,261.024017,262.217468,7.560612,4.39557,7.560612,4.39557,480.000153,480.0,599.387329,75.461716,1183.275269,303.768433,283.473022,0.150381,0.366897,1207.487305,-0.020861,0.151437,0.1,0.0,1.0,2678.471191,
93.579498,261.024017,262.217468,7.55246,4.404667,7.55246,4.404667,490.000153,490.0,603.328186,75.457397,1181.333374,303.99939,283.683472,0.150433,0.368976,1206.270142,-0.020931,0.151212,0.1,0.0,1.0,2678.466309,
93.540474,261.024017,262.217468,7.541306,4.417101,7.541306,4.417101,490.000153,490.0,609.227417,75.45079,1178.441895,304.346527,284.000092,0.150511,0.371808,1204.277832,-0.020975,0.151049,0.1,0.0,1.0,2678.462646,
93.515518,261.024017,262.217468,7.533298,4.424721,7.533298,4.424721,500.000153,500.0,613.152283,75.44632,1176.543945,304.578186,284.211761,0.150555,0.373496,1202.850708,-0.021034,0.150826,0.1,0.0,1.0,2678.462646,
93.479591,261.024017,262.217468,7.522444,4.434863,7.522444,4.434863,500.000153,500.0,619.02771,75.43956,1173.73938,304.926147,284.530182,0.1506,0.375767,1200.583618,-0.02107,0.150666,0.1,0.0,1.0,2678.467285,
93.456627,261.024017,262.217468,7.514699,4.440856,7.514699,4.440856,510.000153,510.0,622.937012,75.435051,1171.910767,305.158295,284.743011,0.15061,0.377112,1199.00061,-0.021118,0.150449,0.1,0.0,1.0,2678.473145,
93.423584,261.024017,262.217468,7.504258,4.448525,7.504258,4.448525,510.000153,510.0,628.789612,75.427521,1169.223633,305.506958,285.063049,0.150598,0.378934,1196.540039,-0.021147,0.150294,0.1,0.0,1.0,2678.486084,
93.402458,261.024017,262.217468,7.496845,4.452892,7.496845,4.452892,520.000122,520.0,632.684021,75.421371,1167.481079,305.739655,285.276947,0.150575,0.380026,1194.854126,-0.021183,0.150085,0.1,0.0,1.0,2678.498047,
93.37191,261.024017,262.217468,7.486903,4.458321,7.486903,4.458321,520.000122,520.0,638.514832,75.412346,1164.932739,306.089233,285.59848,0.15052,0.381535,1192.232422,-0.021204,0.149937,0.1,0.0,1.0,2678.52002,
93.352478,261.024017,262.217468,7.479877,4.461369,7.479877,4.461369,530.000122,530.0,642.395081,75.406479,1163.288208,306.322571,285.813293,0.150488,0.38245,1190.507935,-0.02123,0.149738,0.1,0.0,1.0,2678.537598,
93.324471,261.024017,262.217468,7.470492,4.465165,7.470492,4.465165,530.000122,530.0,648.205322,75.397934,1160.893677,306.673065,286.136108,0.150441,0.383721,1187.895874,-0.021245,0.149598,0.1,0.0,1.0,2678.568359,
93.306534,261.024017,262.217468,7.46388,4.467292,7.46388,4.467292,540.000122,540.0,652.072327,75.392426,1159.354614,306.906921,286.351715,0.150413,0.384487,1186.147583,-0.021263,0.14941,0.1,0.0,1.0,2678.591553,
93.280563,261.024017,262.217468,7.455076,4.469914,7.455076,4.469914,540.000122,540.0,657.863281,75.384476,1157.120117,307.258026,286.675659,0.150368,0.385539,1183.48645,-0.021273,0.149278,0.1,0.0,1.0,2678.630859,
93.26403,261.024017,262.217468,7.448889,4.471351,7.448889,4.471351,550.000122,550.0,661.717896,75.379387,1155.687134,307.492157,286.891937,0.150346,0.386161,1181.768799,-0.021285,0.149102,0.1,0.0,1.0,2678.659668,
93.240112,261.024017,262.217468,7.440661,4.473022,7.440661,4.473022,550.000122,550.0,667.490906,75.372116,1153.61084,307.843567,287.216736,0.150301,0.386998,1179.150146,-0.021292,0.148978,0.1,0.0,1.0,2678.706787,
93.217354,261.024017,262.217468,7.432211,4.474134,7.432211,4.474134,560.000122,560.0,673.253845,75.365295,1151.625977,308.194977,287.541962,0.150262,0.387711,1176.660767,-0.0213,0.148813,0.1,0.0,1.0,2678.758301,
93.202812,261.024017,262.217468,7.427211,4.474572,7.427211,4.474572,560.000122,560.0,677.090393,75.361015,1150.355469,308.429321,287.758942,0.150231,0.388133,1175.022095,-0.021304,0.148698,0.1,0.0,1.0,2678.795166,
93.181862,261.024017,262.217468,7.419338,4.47478,7.419338,4.47478,570.000122,570.0,682.837463,75.355003,1148.518433,308.780853,288.084656,0.150178,0.388684,1172.605713,-0.021307,0.148544,0.1,0.0,1.0,2678.854248,
93.168434,261.024017,262.217468,7.414682,4.474649,7.414682,4.474649,570.000122,570.0,686.663757,75.35128,1147.344116,309.015259,288.30191,0.150138,0.389013,1171.027222,-0.021308,0.148437,0.1,0.0,1.0,2678.895996,
93.14933,261.024017,262.217468,7.407362,4.474078,7.407362,4.474078,580.000122,580.0,692.396118,75.346146,1145.648926,309.366943,288.627838,0.150069,0.389446,1168.648438,-0.021308,0.148294,0.1,0.0,1.0,2678.961914,
93.136551,261.024017,262.217468,7.40304,4.4735,7.40304,4.4735,580.000122,580.0,696.213074,75.343018,1144.566162,309.601471,288.845154,0.15003,0.389708,1167.168457,-0.021306,0.148193,0.1,0.0,1.0,2679.008057,
93.118698,261.024017,262.217468,7.396253,4.472385,7.396253,4.472385,590.000122,590.0,701.931885,75.338806,1143.005859,309.953278,289.171051,0.149975,0.39005,1165.00061,-0.021302,0.148061,0.1,0.0,1.0,2679.080322,
93.107254,261.024017,262.217468,7.392247,4.471522,7.392247,4.471522,590.000122,590.0,705.740173,75.336319,1142.01123,310.187836,289.388306,0.149939,0.390254,1163.59314,-0.021299,0.147968,0.1,0.0,1.0,2679.130615,
93.090759,261.024017,262.217468,7.385958,4.47004,7.385958,4.47004,600.000122,600.0,711.446533,75.333076,1140.579102,310.539673,289.713989,0.149889,0.390512,1161.542847,-0.021293,0.147845,0.1,0.0,1.0,2679.209229,
93.080185,261.024017,262.217468,7.382251,4.468968,7.382251,4.468968,600.000122,600.0,715.246826,75.331245,1139.666992,310.7742,289.931,0.149856,0.390662,1160.218018,-0.021288,0.147759,0.1,0.0,1.0,2679.263428,
