airspeed_indicator_indicated_speed_kt,altimeter_indicated_altitude_ft,altimeter_pressure_alt_ft,attitude_indicator_indicated_pitch_deg,attitude_indicator_indicated_roll_deg,attitude_indicator_internal_pitch_deg,attitude_indicator_internal_roll_deg,encoder_indicated_altitude_ft,encoder_pressure_alt_ft,gps_indicated_altitude_ft,gps_indicated_ground_speed_kt,gps_indicated_vertical_speed,indicated_heading_deg,magnetic_compass_indicated_heading_deg,slip_skid_ball_indicated_slip_skid,turn_indicator_indicated_turn_rate,vertical_speed_indicator_indicated_speed_fpm,flight_aileron,flight_elevator,flight_rudder,flight_flaps,engine_throttle,engine_rpm,
Command: takeoff
4.065053,-97.070328,-95.876884,2.97787,1.394603,2.594462,0.116575,-99.999855,-100.0,2.286582,0.0,0.008073,297.868652,278.893524,0.008894,-0.049291,-16.509195,-0.0,0.0,0.0,0.0,0.0,599.204956,
4.05051,-97.083443,-95.889992,2.976026,1.388736,2.594597,0.117305,-99.999855,-100.0,2.286611,0.0,0.008073,297.867859,281.168457,0.008782,-0.044568,-15.320752,-0.0,0.0,0.0,0.0,0.0,599.227966,
4.047406,-97.099129,-95.905685,2.773006,0.739325,2.586644,0.118118,-99.999855,-100.0,2.28662,3.2E-5,-0.008977,297.866547,284.601593,0.008471,-0.038183,-15.070361,-0.019839,0.051892,4.0E-5,0.0,1.0,675.949341,
4.097742,-97.110123,-95.916672,2.585483,0.228278,2.551946,0.116487,-99.999855,-100.0,2.28651,2.17E-4,-0.033061,297.865112,287.720734,0.007861,-0.033084,-17.183159,-0.010562,0.051733,1.05E-4,0.0,1.0,853.688965,
4.170959,-97.116234,-95.922791,2.525037,0.112807,2.525037,0.112807,-99.999855,-100.0,2.286444,8.21E-4,-8.04E-4,297.863892,289.847717,0.008073,-0.029956,-9.065177,-0.003261,0.051039,1.77E-4,0.0,1.0,1014.010254,
4.352204,-97.122742,-95.929291,2.523046,0.10422,2.523046,0.10422,-99.999855,-100.0,2.286587,0.003928,0.058384,297.861694,292.577728,0.006094,-0.026359,-16.126431,-0.001612,0.050501,2.38E-4,0.0,1.0,1245.464111,
4.557184,-97.126427,-95.932983,2.540451,0.095783,2.540451,0.095783,-99.999855,-100.0,2.286872,0.00932,0.100053,297.859283,294.449493,0.009666,-0.024203,-7.863602,-0.001489,0.050461,3.48E-4,0.0,1.0,1410.165039,
4.965391,-97.130432,-95.936989,2.578444,0.081921,2.578444,0.081921,-99.999855,-100.0,2.287524,0.024379,0.15234,297.852417,296.919647,0.020366,-0.022076,-15.932055,-0.001368,0.050809,4.68E-4,0.0,1.0,1622.702148,
5.312434,-97.132401,-95.93895,2.606238,0.072525,2.606238,0.072525,-99.999855,-100.0,2.288108,0.040775,0.186272,297.84433,298.407318,0.030983,-0.021386,-13.25286,-0.00117,0.051569,8.12E-4,0.0,1.0,1743.49646,
5.932826,-97.134483,-95.941032,2.644732,0.059663,2.644732,0.059663,-99.999855,-100.0,2.289197,0.077339,0.23474,297.822662,300.384613,0.043272,-0.022,-10.634904,-0.001036,0.052125,0.001216,0.0,1.0,1891.658325,
6.426318,-97.135414,-95.941971,2.667459,0.052219,2.667459,0.052219,-99.999855,-100.0,2.29011,0.112471,0.280798,297.798553,301.570892,0.049153,-0.023775,-15.44396,-8.52E-4,0.052895,0.002299,0.0,1.0,1972.720703,
6.678723,-97.135735,-95.942291,2.676661,0.049342,2.676661,0.049342,-99.999855,-100.0,2.290594,0.132438,0.299053,297.784332,302.084564,0.046462,-0.024975,-16.772068,-8.52E-4,0.052895,0.002299,0.0,1.0,2005.928101,
6.830401,-97.135887,-95.942444,2.681571,0.04784,2.681571,0.04784,-99.999855,-100.0,2.290891,0.145056,0.310509,297.775208,302.36731,0.044667,-0.025775,-17.364233,-7.46E-4,0.053349,0.003505,0.0,1.0,2023.728882,
8.65463,-97.136284,-95.942833,2.71635,0.041286,2.71635,0.041286,-99.999855,-100.0,2.294956,0.334013,0.450221,297.630554,304.648438,0.031522,-0.03976,-3.654258,-6.83E-4,0.053631,0.004672,0.0,1.0,2157.915039,
9.241482,-97.135796,-95.942352,2.721437,0.042161,2.721437,0.042161,-99.999855,-100.0,2.296476,0.409075,0.497584,297.568176,305.035736,0.028434,-0.045961,7.177536,-5.9E-4,0.054327,0.011905,0.0,1.0,2181.452148,
10.209264,-97.134628,-95.941177,2.724577,0.046573,2.724577,0.046573,-99.999855,-100.0,2.299247,0.548255,0.578611,297.465332,305.3815,0.024119,-0.055026,14.448287,-6.02E-4,0.054429,0.015024,0.0,1.0,2208.668457,
10.822322,-97.133659,-95.940216,2.725517,0.05074,2.725517,0.05074,-99.999855,-100.0,2.301186,0.646237,0.633846,297.397614,305.428925,0.021202,-0.060581,18.385054,-6.65E-4,0.054492,0.020166,0.0,1.0,2220.46875,
11.791154,-97.131798,-95.938354,2.726069,0.059087,2.726069,0.059087,-99.999855,-100.0,2.304567,0.817112,0.717318,297.29071,305.256592,0.017272,-0.068313,15.667254,-7.25E-4,0.05451,0.023552,0.0,1.0,2233.140137,
12.469534,-97.130249,-95.936806,2.726129,0.066067,2.726129,0.066067,-99.999855,-100.0,2.307169,0.948193,0.77731,297.214233,304.968628,0.0145,-0.073385,10.616888,-8.44E-4,0.054521,0.028897,0.0,1.0,2238.769531,
13.450035,-97.127655,-95.934204,2.725939,0.077447,2.725939,0.077447,-99.999855,-100.0,2.311287,1.154487,0.865739,297.105896,304.328522,0.010574,-0.079451,10.969041,-9.44E-4,0.054523,0.032721,0.0,1.0,2243.55835,
14.104809,-97.125687,-95.932243,2.725827,0.085844,2.725827,0.085844,-99.999855,-100.0,2.314277,1.303282,0.924559,297.033936,303.764862,0.008368,-0.082968,6.499115,-0.001106,0.054519,0.038138,0.0,1.0,2245.248047,
15.058879,-97.122475,-95.929031,2.725789,0.099347,2.725789,0.099347,-99.999855,-100.0,2.318992,1.536017,1.011012,296.933411,302.765717,0.004924,-0.086753,11.279554,-0.001226,0.054517,0.041736,0.0,1.0,2248.014404,
15.713234,-97.120033,-95.92659,2.726039,0.109475,2.726039,0.109475,-99.999855,-100.0,2.32247,1.706152,1.070869,296.864807,301.971375,0.002422,-0.089019,10.400047,-0.001419,0.054516,0.046762,0.0,1.0,2250.1521,
16.721674,-97.115898,-95.922455,2.726908,0.125714,2.726908,0.125714,-99.999855,-100.0,2.328223,1.984806,1.163586,296.760986,300.596558,-0.001313,-0.091742,17.806875,-0.001564,0.054521,0.050192,0.0,1.0,2253.559814,
17.375332,-97.112968,-95.919525,2.728042,0.135199,2.728042,0.135199,-99.999855,-100.0,2.332211,2.175914,1.22398,296.694214,299.621429,-0.003941,-0.093218,19.145134,-0.001796,0.054538,0.055383,0.0,1.0,2255.758789,
18.353849,-97.108208,-95.914764,2.730663,0.146496,2.730663,0.146496,-99.999855,-100.0,2.33857,2.477424,1.315759,296.604675,298.060089,-0.007388,-0.093491,17.732512,-0.001931,0.054561,0.058722,0.0,1.0,2258.971191,
18.950039,-97.105087,-95.911644,2.732779,0.152459,2.732779,0.152459,-99.999855,-100.0,2.342679,2.670236,1.369721,296.556549,297.059906,-0.008797,-0.092627,6.504915,-0.002093,0.054613,0.063199,0.0,1.0,2260.868896,
19.977064,-97.099304,-95.905853,2.736904,0.16156,2.736904,0.16156,-99.999855,-100.0,2.35017,3.018123,1.464515,296.489471,295.275543,-0.009922,-0.0888,11.409819,-0.002178,0.054656,0.065605,0.0,1.0,2264.025391,
20.623981,-97.095398,-95.901947,2.739845,0.167093,2.739845,0.167093,-99.999855,-100.0,2.35516,3.247283,1.524808,296.455383,294.125977,-0.009758,-0.08541,17.595068,-0.002308,0.054738,0.068959,0.0,1.0,2265.943848,
21.564056,-97.089348,-95.895905,2.744264,0.174971,2.744264,0.174971,-99.999855,-100.0,2.362789,3.594188,1.610089,296.41684,292.440674,-0.008855,-0.079304,8.696889,-0.002387,0.054797,0.070663,0.0,1.0,2268.649902,
22.207783,-97.084961,-95.891518,2.747527,0.180661,2.747527,0.180661,-99.999855,-100.0,2.368264,3.840559,1.672459,296.394562,291.291687,-0.008182,-0.074994,17.874825,-0.0025,0.054885,0.072591,0.0,1.0,2270.451172,
23.19655,-97.07782,-95.884377,2.752569,0.189773,2.752569,0.189773,-99.999855,-100.0,2.377088,4.233508,1.760252,296.361938,289.553131,-0.00732,-0.0689,15.342181,-0.002581,0.054951,0.073705,0.0,1.0,2273.156494,
23.837669,-97.072945,-95.879501,2.755965,0.196201,2.755965,0.196201,-99.999855,-100.0,2.383063,4.496679,1.822622,296.338287,288.458588,-0.007218,-0.065844,13.930358,-0.002711,0.055051,0.075336,0.0,1.0,2274.873291,
24.769514,-97.065437,-95.871994,2.765489,0.210504,2.765489,0.210504,-99.999855,-100.0,2.392583,4.891791,2.035054,296.297363,286.926514,-0.007815,-0.062806,13.094974,-0.002803,0.055119,0.076518,0.0,1.0,2277.334961,
25.434526,-97.059723,-95.86628,2.771056,0.220251,2.771056,0.220251,-99.999855,-100.0,2.400043,5.182007,2.189739,296.260712,285.88855,-0.010004,-0.062114,15.553588,-0.003007,0.05531,0.078564,0.0,1.0,2279.068848,
26.364513,-97.051178,-95.857727,2.775645,0.231516,2.775645,0.231516,-99.999855,-100.0,2.410911,5.599143,2.282891,296.199554,284.528076,-0.014375,-0.062825,18.79524,-0.003146,0.055421,0.080397,0.0,1.0,2281.469971,
27.00124,-97.044968,-95.851524,2.778995,0.239427,2.778995,0.239427,-99.999855,-100.0,2.418624,5.892279,2.347404,296.150421,283.664703,-0.018106,-0.064392,11.546038,-0.003307,0.055513,0.083455,0.0,1.0,2283.102783,
27.98107,-97.034889,-95.841446,2.784541,0.251291,2.784541,0.251291,-99.999855,-100.0,2.43094,6.355145,2.447926,296.067627,282.455048,-0.024211,-0.06757,8.637272,-0.00342,0.05558,0.085912,0.0,1.0,2285.603516,
28.588409,-97.028328,-95.834885,2.788326,0.258685,2.788326,0.258685,-99.999855,-100.0,2.438858,6.649372,2.507248,296.012695,281.78183,-0.028531,-0.069849,16.064054,-0.00359,0.055691,0.090051,0.0,1.0,2287.150146,
29.537165,-97.017601,-95.824158,2.794335,0.269266,2.794335,0.269266,-99.999855,-100.0,2.451654,7.11957,2.606731,295.928497,280.855164,-0.034291,-0.072665,16.834913,-0.003696,0.055767,0.092798,0.0,1.0,2289.560791,
30.193445,-97.009834,-95.816391,2.798812,0.276349,2.798812,0.276349,-99.999855,-100.0,2.460829,7.452835,2.675364,295.872223,280.30542,-0.037628,-0.074053,16.668608,-0.003847,0.055887,0.097008,0.0,1.0,2291.22876,
31.135849,-96.998215,-95.804771,2.805254,0.285266,2.805254,0.285266,-99.999855,-100.0,2.474456,7.942102,2.775518,295.80014,279.65097,-0.040713,-0.07437,10.698513,-0.003948,0.055976,0.099821,0.0,1.0,2293.622803,
31.708628,-96.99086,-95.797417,2.809417,0.290523,2.809417,0.290523,-99.999855,-100.0,2.483022,8.24638,2.830552,295.76123,279.330994,-0.041737,-0.073754,19.88143,-0.004075,0.056105,0.103426,0.0,1.0,2295.081543,
32.642349,-96.978394,-95.78495,2.822308,0.297915,2.822308,0.297915,-99.999855,-100.0,2.498045,8.752631,3.271996,295.707581,278.937042,-0.041706,-0.071298,17.494766,-0.00415,0.056188,0.105371,0.0,1.0,2297.46167,
33.287689,-96.969254,-95.77581,2.828386,0.303412,2.828386,0.303412,-99.999855,-100.0,2.509525,9.110095,3.3345,295.674622,278.756378,-0.04111,-0.069166,11.228059,-0.004256,0.056446,0.108054,0.0,1.0,2299.109619,
34.188019,-96.955757,-95.762314,2.834245,0.310877,2.834245,0.310877,-99.999855,-100.0,2.525976,9.618377,3.42926,295.631989,278.627258,-0.039561,-0.065991,12.321946,-0.004334,0.056568,0.109701,0.0,1.0,2301.410645,
34.854965,-96.945274,-95.751831,2.838857,0.316997,2.838857,0.316997,-99.999855,-100.0,2.538507,10.001682,3.504359,295.599884,278.621124,-0.038794,-0.064018,12.318018,-0.004441,0.056685,0.111833,0.0,1.0,2303.116455,
35.750305,-96.930565,-95.737122,2.845174,0.325607,2.845174,0.325607,-99.999855,-100.0,2.555805,10.525094,3.611245,295.553192,278.726715,-0.038296,-0.062228,19.242094,-0.004529,0.056777,0.113438,0.0,1.0,2305.408203,
36.387409,-96.91967,-95.726227,2.84987,0.332375,2.84987,0.332375,-99.999855,-100.0,2.568466,10.904,3.679141,295.514923,278.877045,-0.038873,-0.06189,9.479409,-0.004652,0.056903,0.115773,0.0,1.0,2307.042725,
37.303593,-96.903442,-95.709999,2.856462,0.342485,2.856462,0.342485,-99.999855,-100.0,2.587143,11.456727,3.786664,295.452057,279.193665,-0.041234,-0.062655,10.41024,-0.004748,0.056997,0.117686,0.0,1.0,2309.393799,
37.913113,-96.892288,-95.698845,2.860814,0.349716,2.860814,0.349716,-99.999855,-100.0,2.599869,11.829708,3.810714,295.403992,279.464355,-0.043786,-0.064071,13.153715,-0.004893,0.057129,0.12083,0.0,1.0,2310.959961,
38.798046,-96.875381,-95.681938,2.871549,0.358969,2.871549,0.358969,-99.999855,-100.0,2.620481,12.379826,4.346785,295.329163,279.934082,-0.049155,-0.066612,17.79294,-0.004996,0.057216,0.123233,0.0,1.0,2313.241943,
39.427788,-96.862717,-95.669273,2.878075,0.368597,2.878075,0.368597,-99.999855,-100.0,2.635751,12.7771,4.444526,295.27182,280.316956,-0.052886,-0.068772,17.169781,-0.005128,0.057431,0.126974,0.0,1.0,2314.870361,
40.331921,-96.843674,-95.65023,2.885439,0.379774,2.885439,0.379774,-99.999855,-100.0,2.658305,13.355257,4.57084,295.188599,280.925446,-0.058451,-0.071608,19.969324,-0.005266,0.057562,0.129842,0.0,1.0,2317.212646,
40.907814,-96.831047,-95.637604,2.889943,0.386161,2.889943,0.386161,-99.999855,-100.0,2.673036,13.728258,4.651465,295.135925,281.342804,-0.061921,-0.07314,16.538157,-0.005425,0.057709,0.134003,0.0,1.0,2318.707275,
41.779198,-96.811188,-95.617744,2.896562,0.394273,2.896562,0.394273,-99.999855,-100.0,2.695911,14.301063,4.758284,295.061554,282.009644,-0.065957,-0.074295,20.686644,-0.005517,0.057799,0.136636,0.0,1.0,2320.978027,
42.374508,-96.797157,-95.603706,2.902098,0.399373,2.902098,0.399373,-99.999855,-100.0,2.711971,14.697333,4.917524,295.01416,282.48233,-0.067438,-0.074448,13.393179,-0.005632,0.057931,0.140355,0.0,1.0,2322.532227,
43.261795,-96.775253,-95.58181,2.91559,0.408028,2.91559,0.408028,-99.999855,-100.0,2.738658,15.296821,5.45594,294.951019,283.203491,-0.068381,-0.073363,15.180752,-0.005705,0.058042,0.142725,0.0,1.0,2324.916504,
43.875278,-96.7593,-95.565857,2.920468,0.41251,2.920468,0.41251,-99.999855,-100.0,2.757754,15.716572,5.537604,294.910675,283.705902,-0.06804,-0.072221,16.826845,-0.005829,0.058312,0.145882,0.0,1.0,2327.272217,
44.779202,-96.734695,-95.541252,2.926672,0.418615,2.926672,0.418615,-99.999855,-100.0,2.78653,16.342743,5.659596,294.855774,284.440521,-0.066262,-0.069983,20.090267,-0.005893,0.058409,0.147899,0.0,1.0,2331.840088,
45.339348,-96.718864,-95.525421,2.930934,0.42268,2.930934,0.42268,-99.999855,-100.0,2.804741,16.734848,5.73647,294.822479,284.886322,-0.064856,-0.068657,18.231565,-0.00598,0.058533,0.150644,0.0,1.0,2335.089111,
46.190025,-96.694069,-95.500626,2.937436,0.42867,2.937436,0.42867,-99.999855,-100.0,2.832938,17.335575,5.858764,294.77182,285.540344,-0.062547,-0.066871,16.219959,-0.006038,0.058619,0.152309,0.0,1.0,2340.391846,
46.82122,-96.675133,-95.481689,2.944371,0.43415,2.944371,0.43415,-99.999855,-100.0,2.854521,17.784885,6.450338,294.731537,286.001862,-0.061124,-0.0661,16.132002,-0.006124,0.058749,0.154842,0.0,1.0,2344.508789,
47.691765,-96.647751,-95.454308,2.960353,0.450562,2.960353,0.450562,-99.999855,-100.0,2.888278,18.411131,6.901094,294.671997,286.598785,-0.060861,-0.065617,18.45104,-0.006202,0.058887,0.156856,0.0,1.0,2350.354248,
48.247406,-96.629402,-95.435959,2.964545,0.455166,2.964545,0.455166,-99.999855,-100.0,2.910451,18.81365,6.975724,294.629486,286.950745,-0.061188,-0.066182,15.921749,-0.006437,0.059207,0.159833,0.0,1.0,2354.144775,
49.116558,-96.599426,-95.405983,2.969931,0.462026,2.969931,0.462026,-99.999855,-100.0,2.945675,19.447323,7.106928,294.558502,287.450073,-0.062683,-0.06764,18.976248,-0.006502,0.059291,0.161958,0.0,1.0,2360.129395,
49.719521,-96.577858,-95.384415,2.974299,0.467023,2.974299,0.467023,-99.999855,-100.0,2.970536,19.889906,7.203832,294.505371,287.756775,-0.064467,-0.069141,12.051372,-0.0066,0.059399,0.165507,0.0,1.0,2364.310547,
50.562481,-96.546738,-95.353287,2.980555,0.473228,2.980555,0.473228,-99.999855,-100.0,3.005909,20.512873,7.340295,294.429626,288.127319,-0.067316,-0.071163,20.122026,-0.006672,0.059486,0.168164,0.0,1.0,2370.184814,
51.139687,-96.524849,-95.331398,2.985076,0.477406,2.985076,0.477406,-99.999855,-100.0,3.030552,20.942232,7.434922,294.37738,288.339966,-0.069266,-0.072444,20.509962,-0.00676,0.059611,0.171951,0.0,1.0,2374.222656,
52.027454,-96.490242,-95.296799,2.991812,0.482587,2.991812,0.482587,-99.999855,-100.0,3.069155,21.607504,7.581869,294.300873,288.599731,-0.071228,-0.07353,13.861401,-0.00682,0.059702,0.174564,0.0,1.0,2380.455322,
52.601788,-96.467285,-95.273842,2.996298,0.485561,2.996298,0.485561,-99.999855,-100.0,3.094594,22.041122,7.676294,294.25415,288.72348,-0.071747,-0.073699,14.263558,-0.006894,0.059836,0.178389,0.0,1.0,2384.500488,
53.436699,-96.433098,-95.239655,3.002627,0.488863,3.002627,0.488863,-99.999855,-100.0,3.132247,22.676315,7.808704,294.19339,288.840851,-0.07083,-0.072766,22.019823,-0.006937,0.059926,0.180725,0.0,1.0,2390.39917,
54.031731,-96.408218,-95.214775,3.007333,0.491001,3.007333,0.491001,-99.999855,-100.0,3.159549,23.132008,7.906412,294.153473,288.879395,-0.069265,-0.071666,18.738802,-0.006984,0.060053,0.183763,0.0,1.0,2394.612061,
54.86277,-96.372734,-95.179291,3.013583,0.49308,3.013583,0.49308,-99.999855,-100.0,3.198335,23.772642,8.041535,294.101868,288.871735,-0.065313,-0.069656,14.710608,-0.007014,0.060147,0.185759,0.0,1.0,2400.508057,
55.43129,-96.347992,-95.154549,3.017102,0.495618,3.017102,0.495618,-99.999855,-100.0,3.225121,24.213665,8.029477,294.067322,288.826447,-0.061862,-0.06831,14.111574,-0.007044,0.060272,0.188339,0.0,1.0,2404.549316,
56.306328,-96.309303,-95.11586,3.023194,0.497286,3.023194,0.497286,-99.999855,-100.0,3.266768,24.896217,8.170227,294.013702,288.696167,-0.056423,-0.066601,12.946204,-0.00708,0.060342,0.190067,0.0,1.0,2410.779541,
Command_Fault: set /systems/pitot/serviceable false
56.849419,-96.284935,-95.091492,3.027295,0.498263,3.027295,0.498263,-99.999855,-100.0,3.293027,25.322063,8.258623,293.978119,288.580444,-0.052756,-0.066046,21.119352,-0.007104,0.060464,0.192748,0.0,1.0,2414.652832,
57.182053,-96.246071,-95.052628,3.038019,0.497461,3.038019,0.497461,-99.999855,-100.0,3.336404,25.990889,8.836397,293.919647,288.350037,-0.047423,-0.065752,13.010731,-0.007118,0.060546,0.194527,0.0,1.0,2420.716064,
57.187614,-96.218437,-95.024994,3.049367,0.497263,3.049367,0.497263,-99.999855,-100.0,3.368423,26.456921,9.799041,293.875641,288.157532,-0.044166,-0.066104,13.510765,-0.007107,0.06076,0.19745,0.0,1.0,2424.929443,
57.195496,-96.179222,-94.985779,3.056586,0.497182,3.056586,0.497182,-89.999855,-90.0,3.415024,27.09268,9.921134,293.813263,287.857513,-0.039367,-0.066909,13.411468,-0.007104,0.060987,0.199651,0.0,1.0,2430.656982,
57.201508,-96.149323,-94.955879,3.059842,0.496772,3.059842,0.496772,-89.999855,-90.0,3.449656,27.561531,10.017502,293.765228,287.611969,-0.036211,-0.06778,20.765673,-0.007103,0.061132,0.202769,0.0,1.0,2434.870117,
57.210445,-96.104881,-94.91143,3.064874,0.495211,3.064874,0.495211,-89.999855,-90.0,3.500139,28.238644,10.166091,293.696808,287.226807,-0.031302,-0.06874,21.151768,-0.007097,0.061197,0.205171,0.0,1.0,2440.945801,
57.216572,-96.074409,-94.880959,3.073144,0.498894,3.073144,0.498894,-89.999855,-90.0,3.535262,28.691286,10.835409,293.652679,286.952698,-0.027747,-0.068947,19.12324,-0.007074,0.061297,0.208592,0.0,1.0,2445.042969,
57.226074,-96.027115,-94.833672,3.079906,0.495653,3.079906,0.495653,-89.999855,-90.0,3.589849,29.372009,10.984634,293.592041,286.521149,-0.020968,-0.068531,19.899199,-0.007127,0.061463,0.210799,0.0,1.0,2451.252686,
57.232609,-95.994629,-94.801186,3.083436,0.492676,3.083436,0.492676,-89.999855,-90.0,3.626654,29.826952,11.087166,293.555054,286.223267,-0.01538,-0.067778,20.347698,-0.007081,0.061598,0.213831,0.0,1.0,2455.418945,
57.242657,-95.944641,-94.751198,3.088651,0.486959,3.088651,0.486959,-89.999855,-90.0,3.68251,30.510984,11.244028,293.50647,285.766998,-0.00513,-0.065706,20.941875,-0.007038,0.061669,0.21568,0.0,1.0,2461.69165,
57.249794,-95.909149,-94.715706,3.092572,0.482418,3.092572,0.482418,-89.999855,-90.0,3.721766,30.987108,11.355268,293.476135,285.447113,0.002945,-0.063945,16.178114,-0.006957,0.061773,0.218109,0.0,1.0,2466.057617,
57.259693,-95.859894,-94.666451,3.104841,0.475227,3.104841,0.475227,-89.999855,-90.0,3.777065,31.636021,12.69213,293.438965,285.013184,0.016571,-0.061187,16.734787,-0.006892,0.061851,0.219626,0.0,1.0,2472.002686,
57.267208,-95.822472,-94.629028,3.112566,0.468826,3.112566,0.468826,-89.999855,-90.0,3.821391,32.114128,12.809902,293.413666,284.698059,0.027222,-0.059151,22.59119,-0.006789,0.062097,0.221484,0.0,1.0,2476.376221,
57.278755,-95.764961,-94.571518,3.116861,0.457061,3.116861,0.457061,-89.999855,-90.0,3.887631,32.823174,12.96251,293.376068,284.243134,0.045368,-0.056578,18.486683,-0.006698,0.062251,0.222749,0.0,1.0,2482.851074,
57.286472,-95.72654,-94.533089,3.11979,0.448708,3.11979,0.448708,-89.999855,-90.0,3.93104,33.283989,13.083565,293.350189,283.958191,0.05838,-0.055377,21.262894,-0.006529,0.062337,0.224629,0.0,1.0,2487.053955,
57.298363,-95.667328,-94.473885,3.11284,0.462492,3.11284,0.462492,-89.999855,-90.0,3.998556,33.976479,13.999046,293.312073,283.550171,0.077909,-0.052898,18.955439,-0.00641,0.062396,0.225923,0.0,1.0,2493.365234,
57.305859,-95.629974,-94.436531,3.087319,0.514638,3.087319,0.514638,-89.999855,-90.0,4.042375,34.400398,14.626696,293.292694,283.31427,0.089303,-0.049834,16.127327,-0.006607,0.062257,0.227829,0.0,1.0,2497.228271,
57.319305,-95.562927,-94.369484,3.015583,0.680598,3.015583,0.680598,-89.999855,-90.0,4.122273,35.133896,15.887655,293.278015,282.935089,0.10107,-0.04035,24.412788,-0.007352,0.061746,0.228798,0.0,1.0,2503.917969,
57.328194,-95.518585,-94.325142,2.957049,0.817473,2.957049,0.817473,-89.999855,-90.0,4.176066,35.597996,16.244322,293.287048,282.716431,0.106099,-0.031414,16.783888,-0.009723,0.060312,0.229532,0.0,1.0,2508.1521,
57.341316,-95.453133,-94.259689,2.87005,1.028608,2.87005,1.028608,-89.999855,-90.0,4.253205,36.256596,16.407782,293.332489,282.437775,0.11056,-0.014635,23.80406,-0.011678,0.059141,0.22908,0.0,1.0,2514.159668,
57.350899,-95.405357,-94.211914,2.808893,1.183799,2.808893,1.183799,-89.999855,-90.0,4.30814,36.72229,16.508873,293.389954,282.265045,0.112549,5.0E-6,24.361805,-0.014694,0.057401,0.226808,0.0,1.0,2518.403076,
57.36652,-95.327492,-94.134048,2.720974,1.42694,2.720974,1.42694,-89.999855,-90.0,4.395602,37.461025,16.654112,293.518494,282.035919,0.116106,0.026075,18.727465,-0.016911,0.056178,0.223935,0.0,1.0,2525.120605,
57.376629,-95.277092,-94.083641,2.664129,1.582715,2.664129,1.582715,-89.999855,-90.0,4.451369,37.928471,16.746227,293.618225,281.921051,0.119695,0.043415,25.034315,-0.020385,0.054419,0.217508,0.0,1.0,2529.360596,
57.392086,-95.200058,-94.006615,2.585835,1.808684,2.585835,1.808684,-89.999855,-90.0,4.535302,38.630939,16.825645,293.775391,281.794647,0.126997,0.067187,24.443003,-0.02261,0.053283,0.212521,0.0,1.0,2535.719971,
57.401665,-95.152306,-93.958862,2.5376,1.943551,2.5376,1.943551,-89.999855,-90.0,4.586829,39.060993,16.857868,293.870911,281.745453,0.132967,0.079834,17.688055,-0.025838,0.051717,0.204663,0.0,1.0,2539.609375,
57.417999,-95.070862,-93.877419,2.504147,2.158703,2.504147,2.158703,-89.999855,-90.0,4.67558,39.788826,17.965786,294.014832,281.711639,0.145707,0.09561,24.939077,-0.027765,0.050752,0.199887,0.0,1.0,2546.159912,
57.429291,-95.014473,-93.82103,2.552498,2.321256,2.552498,2.321256,-89.999855,-90.0,4.7409,40.281536,19.646116,294.090881,281.723022,0.162617,0.101928,22.354769,-0.030839,0.050083,0.192691,0.0,1.0,2550.589844,
57.446365,-94.929001,-93.735558,2.699193,2.591558,2.699193,2.591558,-89.999855,-90.0,4.856737,40.992397,29.49962,294.142273,281.784119,0.196144,0.101492,20.242489,-0.033161,0.05105,0.188889,0.0,1.0,2556.973877,
Command_Fault: set /systems/pitot/serviceable true
57.465313,-94.833237,-93.639793,2.809462,2.758672,2.809462,2.758672,-89.999855,-90.0,5.045585,41.665073,50.708527,294.151001,281.883362,0.210473,0.093229,23.623718,-0.037022,0.053984,0.186319,0.0,1.0,2563.020264,
Command: fly_strait
76.937912,-94.745842,-93.552399,2.863917,2.776129,2.863917,2.776129,-89.999855,-90.0,5.242425,42.140495,66.631516,294.167664,281.973816,0.213229,0.08772,29.716444,-0.038838,0.055566,0.185995,0.0,1.0,2567.289551,
77.494637,-94.624359,-93.430908,2.944172,2.733419,2.944172,2.733419,-89.999855,-90.0,5.514957,42.655952,83.722488,294.190918,282.088135,0.223347,0.079867,38.112934,-0.039659,0.057278,0.0,0.0,1.0,2571.898193,
78.278267,-94.398354,-93.20491,3.090779,2.615737,3.090779,2.615737,-89.999855,-90.0,5.997284,43.370377,108.682983,293.72821,282.268768,0.2395,-0.011773,52.343761,-0.039049,0.058883,-0.001163,0.0,1.0,2578.293945,
79.038689,-94.102409,-92.908966,3.224059,2.09764,3.224059,2.09764,-89.999855,-90.0,6.585871,44.065521,132.445129,292.862244,282.455414,0.209909,-0.159116,68.366959,-0.037368,0.061816,0.021973,0.0,1.0,2584.576904,
79.527443,-93.862083,-92.66864,3.281795,1.485005,3.281795,1.485005,-89.999855,-90.0,7.032506,44.522476,146.251068,292.28949,282.57547,0.169946,-0.249368,79.80468,-0.033095,0.063764,0.050804,0.0,1.0,2588.715576,
80.273895,-93.409546,-92.216103,3.357379,0.241303,3.357379,0.241303,-89.999855,-90.0,7.813295,45.237534,165.258743,291.691437,282.748291,0.101204,-0.331398,98.174187,-0.021214,0.065636,0.093909,0.0,1.0,2594.901855,
80.754128,-93.055946,-91.862503,3.42622,-0.614536,3.42622,-0.614536,-89.999855,-90.0,8.386704,45.713547,178.626221,291.614136,282.849579,0.062347,-0.328612,110.355927,-0.003447,0.067148,0.123811,0.0,1.0,2598.292969,
81.455048,-92.447487,-91.254044,3.573002,-1.553411,3.573002,-1.553411,-89.999855,-90.0,9.339796,46.425682,202.635101,292.006897,282.980286,0.03093,-0.237547,128.863205,0.008779,0.068524,0.127676,0.0,1.0,2602.53125,
81.917816,-91.945717,-90.752274,3.72989,-1.836394,3.72989,-1.836394,-89.999855,-90.0,10.108754,46.938053,223.104889,292.548798,283.061615,0.033769,-0.131861,143.125748,0.022192,0.07146,0.108038,0.0,1.0,2605.138672,
82.30159,-91.432289,-90.238846,3.888294,-1.733339,3.888294,-1.733339,-89.999855,-90.0,10.889911,47.408978,245.153412,293.077301,283.129486,0.055228,-0.03284,157.179733,0.026234,0.074598,0.080943,0.0,1.0,2607.281738,
82.82383,-90.562454,-89.369003,4.081802,-1.064772,4.081802,-1.064772,-89.999855,-90.0,12.207258,48.110767,280.91037,293.610626,283.220673,0.104404,0.066416,180.234924,0.024762,0.077766,0.054518,0.0,1.0,2610.11792,
83.130913,-89.967033,-88.77359,4.171041,-0.518472,4.171041,-0.518472,-89.999855,-90.0,13.099756,48.53653,302.245087,293.681763,283.26944,0.134285,0.082159,195.414505,0.015211,0.081636,0.027852,0.0,1.0,2611.683105,
83.639229,-88.881058,-87.687607,4.247854,0.225526,4.247854,0.225526,-89.999855,-90.0,14.693521,49.227791,333.736298,293.334381,283.332245,0.15868,0.028872,221.733139,0.007407,0.083421,0.024295,0.0,1.0,2614.068848,
84.00106,-88.043709,-86.850258,4.295464,0.478571,4.295464,0.478571,-89.999855,-90.0,15.88864,49.703857,353.739044,292.84729,283.35788,0.15349,-0.047058,240.370148,-0.003222,0.084957,0.041664,0.0,1.0,2615.646973,
84.491798,-86.753799,-85.560356,4.38675,0.315436,4.38675,0.315436,-89.999855,-90.0,17.676437,50.364964,381.023895,292.123657,283.359009,0.1158,-0.156218,267.059662,-0.006837,0.085909,0.066019,0.0,1.0,2617.787598,
84.998016,-85.247772,-84.054329,4.514703,-0.326494,4.514703,-0.326494,-79.999855,-80.0,19.702759,51.056904,406.099945,291.66626,283.305573,0.064965,-0.215125,294.501923,-0.004506,0.087735,0.1022,0.0,1.0,2619.97998,
85.301796,-84.238586,-83.045143,4.590623,-0.789323,4.590623,-0.789323,-79.999855,-80.0,21.022606,51.483227,419.433197,291.661224,283.241547,0.036972,-0.203945,311.357544,0.004664,0.090294,0.12507,0.0,1.0,2621.308594,
85.747932,-82.553276,-81.359833,4.696263,-1.256908,4.696263,-1.256908,-79.999855,-80.0,23.169905,52.1441,439.236023,292.086334,283.09668,0.021675,-0.115412,336.779846,0.011276,0.091812,0.125322,0.0,1.0,2623.326416,
86.031769,-81.259804,-80.06636,4.801946,-1.271227,4.801946,-1.271227,-79.999855,-80.0,24.785358,52.616058,455.31012,292.589844,282.963531,0.033811,-0.022725,354.307098,0.017956,0.093925,0.104066,0.0,1.0,2624.717041,
86.353149,-79.474777,-78.281326,4.947788,-0.821713,4.947788,-0.821713,-79.999855,-80.0,26.994312,53.225784,480.153107,293.191345,282.762207,0.078963,0.082997,376.504547,0.01816,0.096039,0.078891,0.0,1.0,2626.421387,
86.581627,-78.037529,-76.844086,5.042775,-0.250393,5.042775,-0.250393,-79.999855,-80.0,28.766693,53.685959,500.900757,293.435333,282.591888,0.112905,0.123966,393.420441,0.011739,0.098956,0.048816,0.0,1.0,2627.637939,
86.776764,-76.770309,-75.576859,5.092985,0.248281,5.092985,0.248281,-79.999855,-80.0,30.325167,54.071098,518.240112,293.427612,282.438171,0.14191,0.120935,407.954956,0.003577,0.100855,0.036617,0.0,1.0,2628.623535,
87.113907,-74.594643,-73.401199,5.136266,0.806437,5.136266,0.806437,-69.999855,-70.0,32.98069,54.693092,542.228088,293.019653,282.167114,0.158738,0.049565,432.081329,-0.003547,0.10186,0.037003,0.0,1.0,2630.192383,
87.465134,-72.295044,-71.101601,5.187301,0.851617,5.187301,0.851617,-69.999855,-70.0,35.741451,55.30537,561.011597,292.37149,281.868164,0.137256,-0.05768,456.036041,-0.011521,0.102725,0.057401,0.0,1.0,2631.744385,
87.703804,-70.698532,-69.505089,5.226187,0.581562,5.226187,0.581562,-69.999855,-70.0,37.631168,55.708447,572.340393,291.999969,281.650909,0.107173,-0.116165,471.388824,-0.012166,0.103746,0.089809,0.0,1.0,2632.7771,
87.96064,-68.912163,-67.718719,5.268248,0.121644,5.268248,0.121644,-69.999855,-70.0,39.720764,56.140583,584.52948,291.804382,281.398529,0.074661,-0.142918,487.706482,-0.008308,0.104524,0.108385,0.0,1.0,2633.893555,
88.303505,-66.34864,-65.15519,5.35074,-0.485231,5.35074,-0.485231,-69.999855,-70.0,42.688217,56.731033,602.259338,291.981415,281.02301,0.041684,-0.104367,509.246429,-0.001738,0.105365,0.118164,0.0,1.0,2635.427734,
88.587593,-63.835083,-62.64164,5.477174,-0.718385,5.477174,-0.718385,-59.999859,-60.0,45.579136,57.279781,622.329773,292.508789,280.64917,0.044626,-0.011006,528.664795,0.006932,0.107015,0.109312,0.0,1.0,2636.833984,
88.766418,-61.853561,-60.660118,5.589611,-0.570869,5.589611,-0.570869,-59.999859,-60.0,47.860367,57.69313,640.905334,292.968262,280.357941,0.066439,0.066341,543.164734,0.010263,0.109543,0.082944,0.0,1.0,2637.85376,
88.913857,-59.974361,-58.780914,5.675736,-0.218478,5.675736,-0.218478,-59.999859,-60.0,50.028915,58.06958,659.558228,293.284271,280.0896,0.097734,0.1169,556.79718,0.008155,0.111792,0.05997,0.0,1.0,2638.74292,
89.118187,-57.227077,-56.03363,5.756592,0.410868,5.756592,0.410868,-59.999859,-60.0,53.2062,58.594311,684.940308,293.390045,279.715271,0.140387,0.128452,576.614868,0.003121,0.113515,0.04417,0.0,1.0,2639.931641,
89.286018,-55.057453,-53.86401,5.804038,0.803713,5.804038,0.803713,-49.999859,-50.0,55.712364,58.988876,702.139709,293.191528,279.435211,0.154491,0.090463,592.169312,-0.00587,0.115132,0.038881,0.0,1.0,2640.80957,
89.518219,-52.128792,-50.935349,5.851272,0.961684,5.851272,0.961684,-49.999859,-50.0,59.075657,59.496464,721.04248,292.704681,279.075867,0.1469,0.004618,612.885071,-0.011482,0.116081,0.048807,0.0,1.0,2641.94751,
89.773598,-48.921844,-47.728397,5.900069,0.661263,5.900069,0.661263,-49.999859,-50.0,62.723984,60.02412,737.453674,292.204559,278.700562,0.110448,-0.078998,634.507751,-0.013738,0.117025,0.073149,0.0,1.0,2643.156494,
89.95858,-46.539429,-45.345985,5.940604,0.248682,5.940604,0.248682,-49.999859,-50.0,65.4077,60.399178,748.523438,292.028839,278.431488,0.082321,-0.105922,649.883667,-0.009447,0.118001,0.098155,0.0,1.0,2644.032715,
90.125839,-44.293659,-43.100216,5.98463,-0.140315,5.98463,-0.140315,-39.999859,-40.0,67.920876,60.740894,759.025513,292.074158,278.185211,0.058465,-0.094957,663.718384,-0.003553,0.118812,0.106941,0.0,1.0,2644.840332,
90.350075,-40.849781,-39.656338,6.078811,-0.481484,6.078811,-0.481484,-39.999859,-40.0,71.759369,61.245136,776.342651,292.473297,277.824219,0.047315,-0.024118,683.395447,0.002005,0.119693,0.104675,0.0,1.0,2646.030518,
90.463875,-38.700779,-37.507332,6.156578,-0.475667,6.156578,-0.475667,-39.999859,-40.0,74.150909,61.548134,788.77771,292.815338,277.612305,0.059621,0.033353,695.027893,0.006878,0.121576,0.084718,0.0,1.0,2646.728271,
90.616959,-35.106472,-33.913029,6.271784,-0.106054,6.271784,-0.106054,-39.999859,-40.0,78.15258,62.035065,811.543213,293.27243,277.286774,0.096411,0.106466,714.035706,0.006795,0.123132,0.067616,0.0,1.0,2647.797607,
90.718025,-32.450108,-31.256662,6.340362,0.306676,6.340362,0.306676,-29.999857,-30.0,81.114639,62.379715,828.371948,293.403442,277.07135,0.121706,0.123748,727.794189,0.001515,0.125436,0.044762,0.0,1.0,2648.516602,
90.860847,-28.898289,-27.704844,6.386764,0.76753,6.386764,0.76753,-29.999857,-30.0,85.075859,62.82159,847.937439,293.2453,276.815948,0.146284,0.089905,745.914368,-0.004381,0.126807,0.038211,0.0,1.0,2649.416016,
91.029839,-25.041058,-23.847612,6.416685,0.913565,6.416685,0.913565,-29.999857,-30.0,89.356758,63.279099,863.204346,292.796997,276.57547,0.139117,0.009476,765.224426,-0.010965,0.127735,0.046118,0.0,1.0,2650.355713,
91.161324,-22.196459,-21.003016,6.438881,0.747962,6.438881,0.747962,-19.999857,-20.0,92.49044,63.603306,871.852417,292.4552,276.417816,0.119308,-0.048901,778.992554,-0.013051,0.128334,0.068533,0.0,1.0,2651.039307,
91.340485,-18.408541,-17.215097,6.468343,0.284315,6.468343,0.284315,-19.999857,-20.0,96.632393,64.01976,881.96405,292.217316,276.22821,0.07863,-0.087062,796.381165,-0.010685,0.128778,0.085623,0.0,1.0,2651.943115,
91.461815,-15.69192,-14.498476,6.499695,-0.074924,6.499695,-0.074924,-19.999857,-20.0,99.584595,64.308678,889.167908,292.260315,276.10498,0.058217,-0.07798,808.130188,-0.004062,0.129367,0.097517,0.0,1.0,2652.584473,
91.625549,-11.560332,-10.366888,6.571989,-0.390635,6.571989,-0.390635,-9.999858,-10.0,104.061722,64.734009,901.773254,292.615356,275.938477,0.049723,-0.016116,824.53717,0.00107,0.129994,0.095367,0.0,1.0,2653.528564,
91.710907,-8.764346,-7.570902,6.639491,-0.383449,6.639491,-0.383449,-9.999858,-10.0,107.084953,65.011986,912.078552,292.948334,275.842163,0.060906,0.039142,835.183044,0.00558,0.13144,0.077615,0.0,1.0,2654.116211,
91.786125,-5.699622,-4.506177,6.70643,-0.165197,6.70643,-0.165197,-9.999858,-10.0,110.402191,65.307877,924.831421,293.259125,275.753448,0.083833,0.088518,846.394531,0.005478,0.13279,0.060966,0.0,1.0,2654.704834,
91.881104,-1.390859,-0.197415,6.767765,0.323699,6.767765,0.323699,1.42E-4,0.0,115.071892,65.708412,942.27179,293.41687,275.659668,0.119917,0.108686,861.796326,0.00236,0.134129,0.045427,0.0,1.0,2655.445801,
91.98204,2.939947,4.133391,6.799722,0.704299,6.799722,0.704299,1.42E-4,0.0,119.556496,66.07711,956.135132,293.226471,275.601105,0.137886,0.070532,876.140259,-0.004624,0.135355,0.03754,0.0,1.0,2656.099609,
92.071449,6.306996,7.50044,6.813394,0.797013,6.813394,0.797013,10.000142,10.0,123.024902,66.353096,964.152466,292.929901,275.573059,0.133332,0.017538,887.089905,-0.010061,0.135994,0.04706,0.0,1.0,2656.591797,
92.161346,9.450337,10.643782,6.822938,0.689405,6.822938,0.689405,10.000142,10.0,126.248764,66.603531,969.701965,292.645294,275.557159,0.116881,-0.031533,897.088379,-0.011386,0.136268,0.061888,0.0,1.0,2657.049561,
92.303558,14.221837,15.415281,6.840813,0.281924,6.840813,0.281924,10.000142,10.0,131.114838,66.971771,976.399109,292.396362,275.546326,0.08144,-0.072378,911.521912,-0.009849,0.136459,0.076118,0.0,1.0,2657.747314,
92.434975,18.7817,19.975143,6.874392,-0.138339,6.874392,-0.138339,20.000143,20.0,135.741379,67.311554,983.092957,292.468079,275.54718,0.054826,-0.058047,924.191589,-0.004027,0.136816,0.088565,0.0,1.0,2658.41333,
92.522072,22.301943,23.495386,6.917902,-0.330597,6.917902,-0.330597,20.000143,20.0,139.303085,67.56604,989.577698,292.70459,275.554993,0.050534,-0.017402,933.353149,0.001976,0.137488,0.084979,0.0,1.0,2658.915039,
92.586769,25.576302,26.769747,6.965886,-0.334156,6.965886,-0.334156,30.000143,30.0,142.614227,67.796692,997.021606,292.983856,275.568634,0.058969,0.02913,941.45697,0.004723,0.138358,0.073154,0.0,1.0,2659.359375,
92.660622,30.530773,31.724218,7.031437,-0.052132,7.031437,-0.052132,30.000143,30.0,147.631882,68.13475,1009.871521,293.318756,275.602844,0.087396,0.08217,953.059326,0.004774,0.139318,0.05919,0.0,1.0,2659.976807,
92.72435,35.2598,36.453243,7.075595,0.346765,7.075595,0.346765,30.000143,30.0,152.430908,68.445206,1022.164551,293.390198,275.651001,0.115775,0.089093,963.69989,7.45E-4,0.140629,0.042445,0.0,1.0,2660.509033,
92.779167,38.911949,40.105396,7.092222,0.591407,7.092222,0.591407,40.000141,40.0,156.13739,68.676964,1030.077393,293.256226,275.696808,0.125463,0.06277,971.894043,-0.004954,0.141512,0.038873,0.0,1.0,2660.897461,
92.86525,43.733009,44.926453,7.098558,0.666514,7.098558,0.666514,40.000141,40.0,161.020554,68.973045,1037.27771,292.930481,275.764221,0.119063,0.004442,982.538208,-0.008449,0.141844,0.045572,0.0,1.0,2661.403564,
92.939209,47.451508,48.644951,7.10214,0.525063,7.10214,0.525063,50.000141,50.0,164.773361,69.194443,1040.889893,292.679321,275.817932,0.103155,-0.038511,990.493408,-0.009522,0.141971,0.061859,0.0,1.0,2661.797607,
93.005318,50.618217,51.811661,7.10729,0.304368,7.10729,0.304368,50.000141,50.0,167.958008,69.378525,1043.454346,292.544983,275.862671,0.081903,-0.06043,997.048401,-0.007501,0.142043,0.074417,0.0,1.0,2662.137451,
93.117081,56.120426,57.313869,7.129248,-0.107853,7.129248,-0.107853,60.000141,60.0,173.477585,69.689583,1048.30481,292.582367,275.93576,0.056165,-0.051824,1007.477722,-0.004348,0.142146,0.081134,0.0,1.0,2662.733887,
93.176811,59.619476,60.81292,7.15635,-0.278709,7.15635,-0.278709,60.000141,60.0,176.979187,69.881493,1052.677002,292.763336,275.978943,0.050905,-0.020681,1013.769897,0.001541,0.142585,0.079265,0.0,1.0,2663.106934,
93.24588,64.899376,66.092819,7.207897,-0.257463,7.207897,-0.257463,60.000141,60.0,182.263794,70.162491,1061.298462,293.119812,276.041351,0.063226,0.038636,1022.725647,0.003982,0.143127,0.070216,0.0,1.0,2663.639893,
93.29142,69.919533,71.112976,7.256961,0.013509,7.256961,0.013509,70.000145,70.0,187.299164,70.420105,1071.231445,293.366394,276.099945,0.089813,0.076821,1030.712402,0.003678,0.144158,0.052393,0.0,1.0,2664.099609,
93.322815,73.782143,74.975586,7.281054,0.284927,7.281054,0.284927,70.000145,70.0,191.181854,70.611969,1078.824097,293.400146,276.145203,0.106947,0.078982,1036.706909,-1.93E-4,0.145139,0.040064,0.0,1.0,2664.424561,
93.377052,79.171066,80.36451,7.289057,0.545322,7.289057,0.545322,80.000145,80.0,196.59877,70.870522,1087.128052,293.20813,276.206879,0.118785,0.041942,1045.226196,-0.00407,0.145621,0.038376,0.0,1.0,2664.856445,
93.421356,82.789413,83.982857,7.287277,0.56355,7.287277,0.56355,80.000145,80.0,200.229172,71.038567,1090.719238,292.992004,276.24527,0.113466,0.003597,1050.995605,-0.006936,0.145776,0.043509,0.0,1.0,2665.144775,
93.499802,88.248405,89.441856,7.286038,0.358476,7.286038,0.358476,90.000145,90.0,205.692429,71.284569,1094.256226,292.697754,276.294586,0.090393,-0.046142,1059.371948,-0.008051,0.145746,0.058783,0.0,1.0,2665.5896,
93.555595,91.905487,93.09893,7.289761,0.123417,7.289761,0.123417,90.000145,90.0,209.34343,71.44471,1096.261719,292.618317,276.320038,0.071165,-0.058279,1064.632568,-0.006495,0.145717,0.069434,0.0,1.0,2665.895996,
93.635651,97.417633,98.611076,7.310334,-0.200542,7.310334,-0.200542,100.000145,100.0,214.833801,71.679176,1100.024414,292.723267,276.345917,0.052534,-0.038587,1072.144287,-0.001763,0.145795,0.077467,0.0,1.0,2666.363525,
93.677483,101.109581,102.303024,7.337179,-0.304569,7.337179,-0.304569,100.000145,100.0,218.506546,71.831581,1103.655884,292.912018,276.355835,0.051448,-0.006263,1076.94519,0.002865,0.146207,0.07222,0.0,1.0,2666.670654,
93.699898,106.670105,107.863548,7.38448,-0.206934,7.38448,-0.206934,110.000145,110.0,224.04274,72.054138,1110.875977,293.223511,276.362488,0.067274,0.045205,1083.744019,0.004351,0.146744,0.062782,0.0,1.0,2667.093506,
93.700493,110.081299,111.274742,7.411916,-0.035721,7.411916,-0.035721,110.000145,110.0,227.444962,72.186478,1115.878052,293.356354,276.363159,0.083219,0.065751,1087.704102,0.002956,0.14769,0.047208,0.0,1.0,2667.31543,
93.703056,115.686226,116.879669,7.431945,0.285692,7.431945,0.285692,120.000145,120.0,233.044495,72.397087,1123.349487,293.374054,276.360138,0.105111,0.064415,1094.0177,5.1E-4,0.148238,0.040565,0.0,1.0,2667.632813,
93.710831,119.756081,120.949524,7.434388,0.448878,7.434388,0.448878,120.000145,120.0,237.108353,72.544769,1127.037109,293.238831,276.354431,0.110139,0.03906,1098.684692,-0.004081,0.148639,0.03968,0.0,1.0,2667.842773,
93.736267,125.421234,126.614677,7.426805,0.445376,7.426805,0.445376,120.000145,120.0,242.751572,72.743561,1129.70752,292.95874,276.339569,0.100598,-0.010275,1105.237915,-0.006413,0.148688,0.046442,0.0,1.0,2668.129883,
93.758385,128.896347,130.089798,7.420546,0.319765,7.420546,0.319765,130.000137,130.0,246.204422,72.862,1130.217163,292.80838,276.325195,0.086164,-0.035705,1109.076172,-0.006363,0.148536,0.060446,0.0,1.0,2668.309814,
93.801628,134.914383,136.107819,7.41839,-0.008508,7.41839,-0.008508,130.000137,130.0,252.17038,73.061401,1130.594116,292.727234,276.289276,0.061722,-0.047983,1115.106567,-0.004568,0.148411,0.067964,0.0,1.0,2668.631836,
93.826942,138.7276,139.921036,7.426597,-0.19602,7.426597,-0.19602,140.000137,140.0,255.940125,73.184006,1131.320801,292.811066,276.259705,0.052131,-0.033073,1118.696167,1.22E-4,0.148368,0.072021,0.0,1.0,2668.839844,
93.851425,144.459061,145.652496,7.454713,-0.292419,7.454713,-0.292419,140.000137,140.0,261.602722,73.362961,1134.002563,293.068176,276.207764,0.053135,0.010569,1123.538574,0.0028,0.148532,0.06783,0.0,1.0,2669.144043,
93.856865,148.286377,149.479813,7.479196,-0.22079,7.479196,-0.22079,150.000137,150.0,265.387695,73.478859,1137.01709,293.253601,276.170227,0.063316,0.040659,1126.406494,0.004177,0.149094,0.054974,0.0,1.0,2669.332275,
Command_Fault: set /systems/pitot/serviceable false
93.855988,154.040298,155.233749,7.503397,0.035462,7.503397,0.035462,150.000137,150.0,271.086334,73.647499,1142.263062,293.406555,276.112732,0.085864,0.063043,1130.482544,0.003154,0.149584,0.045703,0.0,1.0,2669.586914,
94.273018,157.885513,159.078964,7.509611,0.221495,7.509611,0.221495,160.000137,160.0,274.899292,73.7565,1145.286011,293.386322,276.074615,0.097465,0.057027,1133.106323,-5.07E-4,0.150068,0.038055,0.0,1.0,2669.74292,
94.940559,163.67276,164.866196,7.503227,0.369062,7.503227,0.369062,160.000137,160.0,280.633728,73.915123,1147.983521,293.194366,276.017731,0.101948,0.021296,1137.198364,-0.003164,0.150192,0.039067,0.0,1.0,2669.972168,
95.34713,167.217773,168.411224,7.495097,0.350692,7.495097,0.350692,170.000137,170.0,284.142365,74.009377,1148.43042,293.033295,275.982361,0.094781,-0.006773,1139.620728,-0.005272,0.150065,0.048665,0.0,1.0,2670.116699,
96.046394,173.351028,174.544479,7.483159,0.130978,7.483159,0.130978,170.000137,170.0,290.202789,74.167725,1148.026733,292.829102,275.918304,0.073679,-0.040893,1143.468628,-0.00501,0.149902,0.056718,0.0,1.0,2670.382324,
96.486115,177.231094,178.42453,7.480186,-0.062629,7.480186,-0.062629,180.000137,180.0,294.0289,74.264946,1147.665283,292.802734,275.875397,0.060112,-0.044446,1145.70105,-0.001871,0.149663,0.066928,0.0,1.0,2670.560547,
97.142784,183.059006,184.252457,7.491689,-0.278154,7.491689,-0.278154,180.000137,180.0,299.767609,74.406761,1148.096924,292.937286,275.808441,0.048687,-0.020238,1148.758179,8.95E-4,0.149604,0.068246,0.0,1.0,2670.835693,
97.578407,186.947464,188.1409,7.509164,-0.318373,7.509164,-0.318373,190.000137,190.0,303.596802,74.498543,1149.50061,293.102203,275.76355,0.050936,0.007602,1150.544312,0.003974,0.149834,0.061519,0.0,1.0,2671.015625,
98.228622,192.784485,193.977936,7.537772,-0.186649,7.537772,-0.186649,190.000137,190.0,309.352692,74.631935,1152.973022,293.329834,275.699005,0.067004,0.044463,1152.914551,0.004548,0.150183,0.053273,0.0,1.0,2671.266357,
98.660294,196.681641,197.875092,7.552644,-0.02024,7.552644,-0.02024,200.000137,200.0,313.200714,74.717957,1155.750488,293.405945,275.659363,0.080009,0.055405,1154.474609,0.002666,0.150755,0.041892,0.0,1.0,2671.418701,
99.305214,202.536652,203.730103,7.555953,0.21305,7.555953,0.21305,200.000137,200.0,318.988892,74.84272,1159.113892,293.348663,275.606079,0.094576,0.042393,1156.817505,2.89E-4,0.151053,0.038086,0.0,1.0,2671.632568,
99.733528,206.446716,207.640152,7.549964,0.292413,7.549964,0.292413,210.000137,210.0,322.854675,74.92321,1160.180664,293.217834,275.574249,0.095615,0.018807,1158.407349,-0.003044,0.151119,0.04095,0.0,1.0,2671.773193,
100.373131,212.317596,213.511047,7.535655,0.224471,7.535655,0.224471,210.000137,210.0,328.656555,75.04023,1160.301636,292.993195,275.530365,0.083503,-0.019961,1160.628174,-0.004177,0.150999,0.047491,0.0,1.0,2671.992676,
100.797676,216.23558,217.429031,7.526576,0.084472,7.526576,0.084472,220.000137,220.0,332.523315,75.115936,1159.728394,292.889832,275.502594,0.070632,-0.036922,1162.019531,-0.003207,0.150713,0.058723,0.0,1.0,2672.148682,
101.397095,221.796036,222.989487,7.524286,-0.147901,7.524286,-0.147901,220.000137,220.0,337.997955,75.220154,1159.076294,292.882935,275.464539,0.053211,-0.036568,1164.0979,-0.001207,0.150532,0.063892,0.0,1.0,2672.382568,
101.852859,226.046478,227.239929,7.53242,-0.276619,7.53242,-0.276619,230.000137,230.0,342.183807,75.29744,1159.372925,292.985809,275.43689,0.048585,-0.018386,1165.303589,0.002113,0.150486,0.064236,0.0,1.0,2672.56543,
102.446289,231.609955,232.803406,7.553013,-0.291382,7.553013,-0.291382,230.000137,230.0,347.662415,75.395241,1161.191895,293.189087,275.404419,0.054566,0.016013,1166.828613,0.003952,0.150648,0.059093,0.0,1.0,2672.798584,
102.898079,235.867798,237.061234,7.570978,-0.192088,7.570978,-0.192088,240.000137,240.0,351.859833,75.467438,1163.554688,293.328491,275.383911,0.064496,0.038491,1167.95105,0.004163,0.15106,0.048929,0.0,1.0,2672.9646,
103.521042,241.770462,242.963913,7.583811,0.029038,7.583811,0.029038,240.000137,240.0,357.687012,75.563652,1167.119385,293.396393,275.363251,0.082088,0.047323,1169.553711,0.002744,0.15142,0.041959,0.0,1.0,2673.175537,
103.934715,245.710251,246.903702,7.584242,0.162219,7.584242,0.162219,250.000137,250.0,361.580627,75.62545,1168.884766,293.343109,275.354614,0.089131,0.036645,1170.653564,-4.15E-4,0.151676,0.038564,0.0,1.0,2673.308838,
104.55275,251.626434,252.81987,7.574592,0.228492,7.574592,0.228492,250.000137,250.0,367.428833,75.714851,1170.035889,293.161438,275.348022,0.08825,0.004171,1172.312134,-0.002317,0.151685,0.041228,0.0,1.0,2673.509277,
104.963173,255.575058,256.768494,7.565451,0.171736,7.565451,0.171736,250.000137,250.0,371.328796,75.77243,1169.839722,293.02713,275.346558,0.080354,-0.018649,1173.43689,-0.003264,0.151492,0.050311,0.0,1.0,2673.649414,
105.576477,261.504944,262.698395,7.556802,-0.026329,7.556802,-0.026329,260.000153,260.0,377.175873,75.855988,1168.998047,292.915863,275.346741,0.062758,-0.036368,1175.139526,-0.002453,0.151309,0.057027,0.0,1.0,2673.873779,
105.983406,265.458984,266.652405,7.556655,-0.173231,7.556655,-0.173231,260.000153,260.0,381.071838,75.909866,1168.642456,292.931641,275.347839,0.053551,-0.032755,1176.103027,3.76E-4,0.151136,0.06259,0.0,1.0,2674.030762,
106.591064,271.392365,272.585815,7.569277,-0.297649,7.569277,-0.297649,270.000153,270.0,386.915741,75.987907,1169.168335,293.076691,275.351318,0.049106,-0.007123,1177.389771,0.002475,0.151133,0.061801,0.0,1.0,2674.269287,
106.994415,275.350006,276.543457,7.583856,-0.288536,7.583856,-0.288536,270.000153,270.0,390.815033,76.03801,1170.485596,293.210724,275.355682,0.053778,0.015363,1178.195435,0.004252,0.151386,0.054549,0.0,1.0,2674.423096,
107.596794,281.289215,282.482666,7.602356,-0.140026,7.602356,-0.140026,280.000153,280.0,396.674683,76.110138,1173.38562,293.359436,275.366882,0.068825,0.039018,1179.32666,0.004122,0.151677,0.047847,0.0,1.0,2674.637207,
107.996643,285.25058,286.444031,7.60952,-0.00134,7.60952,-0.00134,280.000153,280.0,400.589447,76.156212,1175.364258,293.383392,275.377869,0.078569,0.041646,1180.044312,0.002,0.152047,0.040411,0.0,1.0,2674.769531,
Command_Fault: set /systems/pitot/serviceable true
108.594162,291.198395,292.391846,7.606871,0.153133,7.606871,0.153133,290.000153,290.0,406.472168,76.22242,1177.391846,293.28952,275.3992,0.086589,0.023626,1181.21167,1.9E-5,0.15219,0.039214,0.0,1.0,2674.959961,
94.19355,295.16983,296.363281,7.599773,0.179785,7.599773,0.179785,290.000153,290.0,410.397675,76.264755,1177.768799,293.170685,275.415588,0.084617,0.002873,1182.156006,-0.002188,0.152137,0.043907,0.0,1.0,2675.088867,
94.210304,301.132141,302.325562,7.58842,0.077676,7.58842,0.077676,300.000153,300.0,416.285645,76.325806,1177.282471,293.006195,275.441223,0.072178,-0.024733,1183.563477,-0.002568,0.151995,0.049849,0.0,1.0,2675.291992,
94.224907,305.108124,306.301575,7.582984,-0.049043,7.582984,-0.049043,300.000153,300.0,420.208893,76.364967,1176.677856,292.952393,275.457886,0.062125,-0.03305,1184.389771,-0.00111,0.151768,0.058073,0.0,1.0,2675.435547,
94.244865,310.744263,311.937714,7.585026,-0.219569,7.585026,-0.219569,310.000153,310.0,425.764008,76.418396,1176.226318,292.992432,275.480072,0.050765,-0.024823,1185.520142,7.01E-4,0.15166,0.060764,0.0,1.0,2675.647461,
94.255028,315.052338,316.245789,7.594421,-0.289858,7.594421,-0.289858,310.000153,310.0,430.012085,76.457581,1176.674561,293.098572,275.496216,0.049654,-0.006333,1186.139038,0.003137,0.151701,0.058762,0.0,1.0,2675.810059,
94.258766,321.022369,322.21582,7.612705,-0.245556,7.612705,-0.245556,320.000153,320.0,435.899689,76.509315,1178.519897,293.270905,275.518707,0.058115,0.022481,1187.088135,0.004141,0.151888,0.053455,0.0,1.0,2676.026367,
94.255997,325.000275,326.193726,7.624022,-0.143673,7.624022,-0.143673,320.000153,320.0,439.831055,76.542122,1180.278809,293.351318,275.534515,0.067243,0.035123,1187.523071,0.003508,0.152254,0.044838,0.0,1.0,2676.160156,
94.252213,330.977234,332.170685,7.629243,0.036617,7.629243,0.036617,330.000153,330.0,445.739136,76.588821,1182.721802,293.356171,275.559998,0.080159,0.033921,1188.537476,0.002052,0.15248,0.040817,0.0,1.0,2676.348633,
Command: turn_+45
94.253059,334.965057,336.158508,7.626422,0.122469,7.626422,0.122469,330.000153,330.0,449.68335,76.618355,1183.664917,293.284119,275.577759,0.083514,0.020714,1189.254639,-5.23E-4,0.152585,0.040575,0.0,1.0,2676.470703,
94.259857,340.951691,342.145142,7.61714,0.117397,7.61714,0.117397,340.000153,340.0,455.602844,76.660423,1183.899292,293.187592,275.603973,0.068556,0.004647,1190.379761,-5.83E-4,0.152528,0.1,0.0,1.0,2676.657227,
94.261078,344.944244,346.137665,7.61701,0.071168,7.61701,0.071168,340.000153,340.0,459.548706,76.686989,1183.646973,293.285217,275.620544,0.058919,0.020482,1191.072266,-5.59E-4,0.152343,0.1,0.0,1.0,2676.782715,
94.246613,350.937714,352.131134,7.638412,0.119828,7.638412,0.119828,350.000153,350.0,465.468353,76.724556,1184.581299,293.619629,275.64563,0.062505,0.072584,1192.150391,-3.39E-4,0.15234,0.1,0.0,1.0,2676.958252,
94.222626,354.93515,356.128601,7.660214,0.275885,7.660214,0.275885,350.000153,350.0,469.420227,76.74794,1186.647705,293.893768,275.664337,0.075672,0.113341,1192.833252,-5.71E-4,0.152768,0.1,0.0,1.0,2677.055908,
94.169685,360.936157,362.129608,7.683107,0.682312,7.683107,0.682312,360.000153,360.0,475.364258,76.780312,1190.922241,294.263245,275.698761,0.104604,0.163734,1193.918823,-0.001314,0.153204,0.1,0.0,1.0,2677.161865,
94.129494,364.940552,366.134003,7.690809,1.027859,7.690809,1.027859,360.000153,360.0,479.338898,76.800026,1193.71228,294.436249,275.727539,0.124725,0.183123,1194.703857,-0.003249,0.153662,0.1,0.0,1.0,2677.206543,
94.073532,370.957306,372.150757,7.688371,1.550435,7.688371,1.550435,370.000153,370.0,485.316101,76.826889,1196.748779,294.563416,275.78064,0.148301,0.188162,1196.151123,-0.004895,0.153816,0.1,0.0,1.0,2677.248047,
94.051544,374.805206,375.998657,7.682445,1.845397,7.682445,1.845397,370.000153,370.0,489.140656,76.842499,1197.591187,294.576904,275.820709,0.156995,0.179631,1197.089966,-0.007383,0.153767,0.1,0.0,1.0,2677.267822,
94.003242,381.008636,382.202087,7.671043,2.189168,7.671043,2.189168,380.000153,380.0,495.295013,76.865395,1197.322266,294.548706,275.893921,0.158746,0.157324,1198.972168,-0.008788,0.153649,0.1,0.0,1.0,2677.303711,
93.98632,385.037109,386.23056,7.662046,2.327271,7.662046,2.327271,380.000153,380.0,499.284424,76.879005,1196.261475,294.537292,275.946259,0.154265,0.144126,1200.195923,-0.010425,0.153421,0.1,0.0,1.0,2677.334717,
93.964966,391.084747,392.278198,7.649363,2.430032,7.649363,2.430032,390.000153,390.0,505.259979,76.897896,1193.93103,294.583435,276.030548,0.143655,0.134539,1201.921021,-0.011082,0.153241,0.1,0.0,1.0,2677.395264,
93.952438,395.116516,396.309937,7.64077,2.461683,7.64077,2.461683,390.000153,390.0,509.236816,76.909599,1192.226929,294.671143,276.090271,0.136997,0.137137,1202.858643,-0.011572,0.152987,0.1,0.0,1.0,2677.443604,
93.930161,401.161407,402.354858,7.631645,2.505313,7.631645,2.505313,400.000153,400.0,515.191833,76.925934,1189.949463,294.88443,276.185638,0.131004,0.153146,1203.888062,-0.011722,0.152815,0.1,0.0,1.0,2677.522217,
93.909035,405.187286,406.380707,7.626907,2.55137,7.626907,2.55137,400.000153,400.0,519.156189,76.936035,1188.710327,295.068115,276.253693,0.129611,0.169344,1204.263916,-0.01193,0.152633,0.1,0.0,1.0,2677.571289,
93.875862,411.222809,412.41626,7.621827,2.656571,7.621827,2.656571,410.000153,410.0,525.095947,76.950035,1187.329346,295.379181,276.364166,0.131409,0.196914,1204.588501,-0.012149,0.152538,0.1,0.0,1.0,2677.635986,
93.851715,415.242737,416.436157,7.618246,2.753005,7.618246,2.753005,410.000153,410.0,529.05249,76.958611,1186.667114,295.593384,276.444397,0.134724,0.214624,1204.601074,-0.01265,0.152437,0.1,0.0,1.0,2677.672852,
93.813881,421.266998,422.460449,7.612816,2.924406,7.612816,2.924406,420.000153,420.0,534.983643,76.970345,1185.819092,295.901581,276.576111,0.141082,0.236452,1204.384766,-0.01311,0.152365,0.1,0.0,1.0,2677.719727,
93.788773,425.279602,426.473053,7.608335,3.047022,7.608335,3.047022,420.000153,420.0,538.935364,76.977448,1185.218262,296.090973,276.67218,0.145101,0.246881,1204.120361,-0.013926,0.152256,0.1,0.0,1.0,2677.746338,
93.753075,431.293335,432.486755,7.600888,3.218575,7.600888,3.218575,430.000153,430.0,544.858643,76.987129,1184.066895,296.350586,276.829315,0.149274,0.256605,1203.587646,-0.01451,0.152167,0.1,0.0,1.0,2677.783203,
93.731216,435.29892,436.492371,7.594668,3.317548,7.594668,3.317548,430.000153,430.0,548.803833,76.992989,1183.059204,296.512756,276.942871,0.150463,0.260317,1203.154907,-0.015327,0.152018,0.1,0.0,1.0,2677.807861,
93.703026,440.965729,442.15918,7.5856,3.426453,7.5856,3.426453,440.000153,440.0,554.386414,77.000595,1181.304321,296.740265,277.115692,0.150003,0.264019,1202.316895,-0.015798,0.151893,0.1,0.0,1.0,2677.845947,
93.683311,445.295868,446.489319,7.57764,3.488229,7.57764,3.488229,440.000153,440.0,558.649414,77.005943,1179.766846,296.921112,277.257172,0.148721,0.26719,1201.676392,-0.016316,0.151712,0.1,0.0,1.0,2677.878662,
93.658348,451.284668,452.478119,7.567263,3.550224,7.567263,3.550224,450.000153,450.0,564.542419,77.012779,1177.503174,297.190979,277.466125,0.146399,0.27361,1200.682617,-0.016611,0.151553,0.1,0.0,1.0,2677.929199,
93.642494,455.272736,456.466187,7.560109,3.584405,7.560109,3.584405,450.000153,450.0,568.464844,77.017021,1176.019287,297.385101,277.6138,0.14518,0.279464,1199.953979,-0.016906,0.151345,0.1,0.0,1.0,2677.966309,
93.61969,461.244873,462.438324,7.551023,3.634985,7.551023,3.634985,460.000153,460.0,574.339539,77.022964,1173.952637,297.694489,277.847809,0.144414,0.290003,1198.631104,-0.017069,0.151202,0.1,0.0,1.0,2678.025146,
93.602951,465.221588,466.415039,7.544911,3.673205,7.544911,3.673205,460.000153,460.0,578.250549,77.026672,1172.713013,297.908691,278.012115,0.144718,0.297499,1197.724243,-0.017309,0.15102,0.1,0.0,1.0,2678.065918,
93.57901,471.177795,472.371216,7.537189,3.738482,7.537189,3.738482,470.000153,470.0,584.10968,77.031876,1171.038696,298.233704,278.270874,0.146082,0.308117,1196.243408,-0.017491,0.150898,0.1,0.0,1.0,2678.128174,
93.563103,475.142822,476.336243,7.531898,3.786597,7.531898,3.786597,470.000153,470.0,588.011414,77.035126,1170.019775,298.448853,278.451447,0.147293,0.314186,1195.197144,-0.017802,0.150744,0.1,0.0,1.0,2678.170166,
93.539795,481.082001,482.275452,7.524811,3.859033,7.524811,3.859033,480.000153,480.0,593.857666,77.039719,1168.546631,298.765686,278.733917,0.148983,0.321283,1193.572754,-0.018031,0.150638,0.1,0.0,1.0,2678.234131,
93.524918,485.036072,486.229523,7.519668,3.904989,7.519668,3.904989,480.000153,480.0,597.75116,77.042618,1167.565063,298.972839,278.929565,0.149786,0.324761,1192.468506,-0.018376,0.150496,0.1,0.0,1.0,2678.278076,
93.504501,490.957031,492.150482,7.512451,3.964363,7.512451,3.964363,490.000153,490.0,603.585083,77.046768,1166.044434,299.28006,279.233246,0.150284,0.32863,1190.688599,-0.018595,0.150393,0.1,0.0,1.0,2678.346436,
93.490494,494.901154,496.094604,7.507144,3.997306,7.507144,3.997306,490.000153,490.0,607.470093,77.049446,1164.993164,299.484833,279.441895,0.15021,0.330764,1189.610107,-0.018878,0.150249,0.1,0.0,1.0,2678.394043,
93.472275,500.808289,502.00174,7.499816,4.036189,7.499816,4.036189,500.000153,500.0,613.290955,77.05336,1163.387939,299.795776,279.763184,0.149683,0.333972,1187.905762,-0.019035,0.150143,0.1,0.0,1.0,2678.46875,
93.460083,504.741119,505.93457,7.494574,4.057266,7.494574,4.057266,500.000153,500.0,617.167053,77.055939,1162.325317,300.00705,279.98233,0.149253,0.336386,1186.772583,-0.01922,0.149996,0.1,0.0,1.0,2678.520996,
93.443268,510.634674,511.828125,7.48763,4.084444,7.48763,4.084444,510.000153,510.0,622.97467,77.059792,1160.782471,300.330719,280.317535,0.148746,0.340541,1185.162109,-0.01932,0.149891,0.1,0.0,1.0,2678.602783,
93.432327,514.558533,515.752014,7.48283,4.101923,7.48283,4.101923,510.000153,510.0,626.842285,77.06237,1159.813354,300.550446,280.544739,0.148612,0.343576,1184.075439,-0.01945,0.149753,0.1,0.0,1.0,2678.658936,
93.416199,520.436768,521.630249,7.476644,4.128817,7.476644,4.128817,520.000122,520.0,632.637817,77.066284,1158.455322,300.883881,280.890289,0.148744,0.348196,1182.438721,-0.019533,0.149657,0.1,0.0,1.0,2678.745605,
93.405487,524.349609,525.54303,7.472409,4.147932,7.472409,4.147932,520.000122,520.0,636.497864,77.068924,1157.618164,301.1073,281.123291,0.149004,0.351103,1181.299438,-0.019661,0.149533,0.1,0.0,1.0,2678.804688,
93.389992,530.213745,531.407166,7.466896,4.177286,7.466896,4.177286,530.000122,530.0,642.282898,77.072968,1156.435791,301.442261,281.4758,0.149525,0.354919,1179.711792,-0.019752,0.149448,0.1,0.0,1.0,2678.89502,
93.379951,534.118591,535.312012,7.463047,4.196829,7.463047,4.196829,530.000122,530.0,646.136353,77.075729,1155.687378,301.664703,281.712311,0.149859,0.357024,1178.665771,-0.019892,0.149338,0.1,0.0,1.0,2678.956299,
93.366234,539.64447,540.837891,7.458175,4.22247,7.458175,4.22247,540.000122,540.0,651.591248,77.079742,1154.652344,301.978668,282.048584,0.150209,0.359434,1177.210693,-0.019985,0.149261,0.1,0.0,1.0,2679.044922,
93.356064,543.864441,545.057922,7.454212,4.240051,7.454212,4.240051,540.000122,540.0,655.759399,77.082916,1153.87915,302.218201,282.306122,0.150309,0.36093,1176.075562,-0.020107,0.149163,0.1,0.0,1.0,2679.114258,
93.342865,549.703064,550.896545,7.449175,4.260492,7.449175,4.260492,550.000122,550.0,661.526062,77.087479,1152.812744,302.550201,282.662415,0.150286,0.362726,1174.635376,-0.020191,0.149084,0.1,0.0,1.0,2679.212646,
93.334473,553.591492,554.784912,7.445664,4.271939,7.445664,4.271939,550.000122,550.0,665.367554,77.090645,1152.118286,302.772369,282.899231,0.150191,0.363869,1173.696167,-0.020288,0.148983,0.1,0.0,1.0,2679.279541,
93.322388,559.418274,560.611755,7.44098,4.286243,7.44098,4.286243,560.000122,560.0,671.125549,77.095596,1151.109863,303.107666,283.252716,0.15001,0.365638,1172.321045,-0.020343,0.148913,0.1,0.0,1.0,2679.38208,
93.314476,563.297913,564.491394,7.437674,4.2947,7.437674,4.2947,560.000122,560.0,674.961426,77.099037,1150.467529,303.332642,283.486786,0.149916,0.36688,1171.373413,-0.020411,0.14882,0.1,0.0,1.0,2679.451904,
93.303185,569.113953,570.307373,7.433317,4.306519,7.433317,4.306519,570.000122,570.0,680.711365,77.104439,1149.54834,303.671997,283.835022,0.149857,0.3688,1170.096802,-0.020451,0.148753,0.1,0.0,1.0,2679.558594,
93.295853,572.987732,574.181152,7.430303,4.314366,7.430303,4.314366,570.000122,570.0,684.542236,77.1082,1148.972168,303.899139,284.064972,0.149883,0.370062,1169.265015,-0.020507,0.148666,0.1,0.0,1.0,2679.630859,
93.285133,578.793213,579.986633,7.426373,4.326108,7.426373,4.326108,580.000122,580.0,690.284973,77.114098,1148.15625,304.240509,284.406219,0.149994,0.371833,1168.050049,-0.020545,0.148606,0.1,0.0,1.0,2679.740479,
93.278183,582.496216,583.689636,7.423779,4.333622,7.423779,4.333622,580.000122,580.0,693.951843,77.118027,1147.66687,304.458679,284.621735,0.150064,0.372843,1167.151123,-0.020601,0.148527,0.1,0.0,1.0,2679.811768,
93.277367,588.291443,589.484863,7.420158,4.344914,7.420158,4.344914,590.000122,590.0,699.688293,77.124451,1146.939575,304.799988,284.954865,0.150206,0.374198,1165.992676,-0.020636,0.148476,0.1,0.0,1.0,2679.924561,
