airspeed_indicator_indicated_speed_kt,altimeter_indicated_altitude_ft,altimeter_pressure_alt_ft,attitude_indicator_indicated_pitch_deg,attitude_indicator_indicated_roll_deg,attitude_indicator_internal_pitch_deg,attitude_indicator_internal_roll_deg,encoder_indicated_altitude_ft,encoder_pressure_alt_ft,gps_indicated_altitude_ft,gps_indicated_ground_speed_kt,gps_indicated_vertical_speed,indicated_heading_deg,magnetic_compass_indicated_heading_deg,slip_skid_ball_indicated_slip_skid,turn_indicator_indicated_turn_rate,vertical_speed_indicator_indicated_speed_fpm,flight_aileron,flight_elevator,flight_rudder,flight_flaps,engine_throttle,engine_rpm,
Command: takeoff
5.310309,-97.023193,-95.82975,2.975762,1.382684,2.593424,0.108225,-99.999855,-100.0,2.286345,0.0,0.005661,297.868225,277.372742,0.010123,-0.047953,-15.230446,-0.0,0.0,0.0,0.0,0.0,599.526001,
5.328347,-97.038887,-95.845444,2.974303,1.377242,2.593722,0.108641,-99.999855,-100.0,2.286366,0.0,0.005694,297.867371,279.756409,0.010055,-0.043186,-13.331061,-0.0,0.0,0.0,0.0,0.0,599.568787,
5.354432,-97.051155,-95.857712,2.853374,0.982782,2.591227,0.10896,-99.999855,-100.0,2.286371,2.0E-6,-0.004957,297.866547,282.020233,0.009933,-0.039066,-20.076637,-0.019675,0.051874,4.3E-5,0.0,1.0,632.988464,
5.405005,-97.065514,-95.87207,2.640492,0.356277,2.566002,0.107977,-99.999855,-100.0,2.286288,1.34E-4,-0.031352,297.865143,285.334167,0.009641,-0.033676,-14.550932,-0.01404,0.051825,8.4E-5,0.0,1.0,784.170837,
5.495959,-97.076172,-95.882721,2.517906,0.103066,2.517906,0.103066,-99.999855,-100.0,2.286131,7.45E-4,-0.012996,297.863434,288.504761,0.009902,-0.029176,-15.28233,-0.00509,0.05132,1.54E-4,0.0,1.0,1004.812439,
5.610194,-97.081696,-95.888252,2.505218,0.097327,2.505218,0.097327,-99.999855,-100.0,2.28616,0.002376,0.02951,297.861969,290.516632,0.01083,-0.02663,-16.864065,-0.001472,0.050358,2.4E-4,0.0,1.0,1166.729858,
5.881465,-97.08812,-95.894676,2.515959,0.085775,2.515959,0.085775,-99.999855,-100.0,2.286466,0.008925,0.092114,297.858887,293.352386,0.014655,-0.023489,-10.280217,-0.00139,0.050104,3.13E-4,0.0,1.0,1404.656372,
6.123544,-97.091263,-95.89782,2.532754,0.077221,2.532754,0.077221,-99.999855,-100.0,2.286816,0.017097,0.124069,297.855408,295.035736,0.019379,-0.02199,-13.412822,-0.001225,0.050319,4.67E-4,0.0,1.0,1543.690186,
6.624825,-97.095062,-95.901611,2.564913,0.063161,2.564913,0.063161,-99.999855,-100.0,2.287613,0.039486,0.184429,297.844574,297.511078,0.027572,-0.020724,-18.570606,-0.001103,0.050655,6.41E-4,0.0,1.0,1736.260986,
7.019371,-97.096832,-95.903389,2.585986,0.054682,2.585986,0.054682,-99.999855,-100.0,2.288283,0.061573,0.222045,297.832245,298.952393,0.03286,-0.020835,-15.425697,-9.02E-4,0.051298,0.001183,0.0,1.0,1838.993408,
7.679995,-97.098625,-95.905182,2.612825,0.044469,2.612825,0.044469,-99.999855,-100.0,2.289478,0.106496,0.270916,297.803741,300.808594,0.04177,-0.022617,-11.664162,-7.81E-4,0.05172,0.001799,0.0,1.0,1959.017578,
7.925844,-97.099052,-95.905609,2.620883,0.041763,2.620883,0.041763,-99.999855,-100.0,2.289952,0.12571,0.292957,297.790588,301.375732,0.040216,-0.023698,-13.902152,-7.81E-4,0.05172,0.001799,0.0,1.0,1992.779907,
7.925844,-97.099052,-95.905609,2.620883,0.041763,2.620883,0.041763,-99.999855,-100.0,2.289952,0.12571,0.292957,297.790588,301.375732,0.040216,-0.023698,-13.902152,-7.81E-4,0.05172,0.001799,0.0,1.0,1992.779907,
9.564365,-97.100258,-95.906815,2.655713,0.033041,2.655713,0.033041,-99.999855,-100.0,2.293548,0.286227,0.42463,297.674164,304.011688,0.03043,-0.034659,-3.81625,-5.97E-4,0.052418,0.003882,0.0,1.0,2132.781738,
10.456814,-97.099731,-95.906288,2.666189,0.031106,2.666189,0.031106,-99.999855,-100.0,2.295864,0.397271,0.498555,297.590942,304.83139,0.027087,-0.042636,7.527181,-4.72E-4,0.053114,0.009703,0.0,1.0,2173.000977,
11.094207,-97.099068,-95.905624,2.67093,0.031056,2.67093,0.031056,-99.999855,-100.0,2.297695,0.486838,0.553288,297.530609,305.206879,0.024812,-0.047856,12.07121,-4.44E-4,0.053324,0.013864,0.0,1.0,2192.97876,
12.029338,-97.09771,-95.904266,2.676167,0.032379,2.676167,0.032379,-99.999855,-100.0,2.300675,0.633808,0.635454,297.445404,305.475189,0.021827,-0.054133,18.10495,-4.44E-4,0.053419,0.016881,0.0,1.0,2213.237061,
12.634148,-97.096603,-95.90316,2.679095,0.0339,2.679095,0.0339,-99.999855,-100.0,2.302796,0.738764,0.688746,297.391876,305.48349,0.020056,-0.057518,11.647283,-4.63E-4,0.053523,0.021141,0.0,1.0,2222.148926,
13.587463,-97.094505,-95.901062,2.683028,0.036991,2.683028,0.036991,-99.999855,-100.0,2.306463,0.920127,0.774061,297.314972,305.253265,0.017864,-0.061055,8.534292,-4.84E-4,0.053582,0.023817,0.0,1.0,2231.455811,
14.226132,-97.092865,-95.899422,2.685488,0.039477,2.685488,0.039477,-99.999855,-100.0,2.309145,1.052434,0.833014,297.268127,304.943512,0.016956,-0.062432,17.119066,-5.28E-4,0.053661,0.027663,0.0,1.0,2235.683105,
15.157453,-97.090118,-95.896675,2.688854,0.043685,2.688854,0.043685,-99.999855,-100.0,2.3134,1.261367,0.915414,297.210175,304.284027,0.015861,-0.062536,17.854816,-5.64E-4,0.05371,0.030005,0.0,1.0,2241.338135,
15.824045,-97.087914,-95.89447,2.691423,0.047017,2.691423,0.047017,-99.999855,-100.0,2.316692,1.421974,0.976209,297.175171,303.673859,0.015297,-0.061614,16.48386,-6.24E-4,0.053777,0.032903,0.0,1.0,2245.019531,
16.784206,-97.084373,-95.890923,2.695273,0.051828,2.695273,0.051828,-99.999855,-100.0,2.321803,1.669487,1.064505,297.13501,302.613068,0.015109,-0.058816,7.91517,-6.72E-4,0.053828,0.034653,0.0,1.0,2249.815186,
17.451654,-97.081657,-95.888214,2.698194,0.055342,2.698194,0.055342,-99.999855,-100.0,2.325611,1.852394,1.127679,297.112671,301.764191,0.015104,-0.056263,9.064398,-7.4E-4,0.053905,0.036661,0.0,1.0,2252.828125,
18.357895,-97.077629,-95.884186,2.70227,0.0602,2.70227,0.0602,-99.999855,-100.0,2.331129,2.11528,1.208337,297.088348,300.483826,0.015378,-0.052247,16.742935,-7.91E-4,0.053964,0.037778,0.0,1.0,2256.567871,
19.051132,-97.074287,-95.880844,2.705589,0.064177,2.705589,0.064177,-99.999855,-100.0,2.335614,2.327043,1.271511,297.072174,299.422363,0.015533,-0.049182,6.340202,-8.6E-4,0.054045,0.038994,0.0,1.0,2259.192383,
19.957357,-97.069588,-95.876144,2.709988,0.069626,2.709988,0.069626,-99.999855,-100.0,2.341825,2.617629,1.354849,297.051758,297.949371,0.015593,-0.045541,18.053667,-9.17E-4,0.054112,0.039803,0.0,1.0,2262.373779,
20.623184,-97.065887,-95.872444,2.713385,0.07396,2.713385,0.07396,-99.999855,-100.0,2.346641,2.840936,1.415376,297.035339,296.819763,0.015324,-0.043419,11.378454,-9.95E-4,0.0542,0.040823,0.0,1.0,2264.564453,
21.60796,-97.060028,-95.866585,2.718458,0.080722,2.718458,0.080722,-99.999855,-100.0,2.354157,3.186005,1.505447,297.006775,295.101257,0.014364,-0.041319,14.844752,-0.001057,0.054268,0.041644,0.0,1.0,2267.624756,
22.219696,-97.05616,-95.862717,2.72177,0.085203,2.72177,0.085203,-99.999855,-100.0,2.359064,3.409055,1.561453,296.985291,294.01828,0.013261,-0.040762,6.760722,-0.001153,0.054369,0.043072,0.0,1.0,2269.439697,
23.203321,-97.049568,-95.856125,2.727122,0.092601,2.727122,0.092601,-99.999855,-100.0,2.367333,3.781225,1.655141,296.945465,292.275848,0.011091,-0.040778,15.504784,-0.001217,0.054435,0.044147,0.0,1.0,2272.250244,
23.839817,-97.045044,-95.851601,2.730798,0.097549,2.730798,0.097549,-99.999855,-100.0,2.372946,4.031212,1.710544,296.915741,291.158203,0.009331,-0.041394,12.446991,-0.001323,0.054542,0.046138,0.0,1.0,2274.016357,
24.767365,-97.038109,-95.844666,2.736223,0.104707,2.736223,0.104707,-99.999855,-100.0,2.38148,4.407521,1.795892,296.869537,289.565216,0.006265,-0.042614,7.237544,-0.001394,0.054616,0.047624,0.0,1.0,2276.530273,
25.428879,-97.032898,-95.839455,2.741673,0.110132,2.741673,0.110132,-99.999855,-100.0,2.387934,4.684621,1.968966,296.834595,288.465454,0.004237,-0.043672,7.239721,-0.001496,0.054724,0.049934,0.0,1.0,2278.291016,
26.352646,-97.025162,-95.831718,2.752261,0.122727,2.752261,0.122727,-99.999855,-100.0,2.397967,5.083835,2.16187,296.786133,286.9953,0.001439,-0.044769,7.139229,-0.001573,0.054833,0.051681,0.0,1.0,2280.718018,
26.984737,-97.019501,-95.826057,2.756645,0.127789,2.756645,0.127789,-99.999855,-100.0,2.405282,5.364977,2.221593,296.753601,286.042694,-6.89E-4,-0.045403,11.032505,-0.001753,0.055045,0.054105,0.0,1.0,2282.362061,
27.957136,-97.010208,-95.816765,2.762548,0.13458,2.762548,0.13458,-99.999855,-100.0,2.416963,5.80983,2.319402,296.70752,284.676514,-0.003071,-0.045626,18.170765,-0.001826,0.055133,0.055731,0.0,1.0,2284.87207,
28.586374,-97.003845,-95.810402,2.766748,0.138829,2.766748,0.138829,-99.999855,-100.0,2.424811,6.105589,2.383614,296.679688,283.863617,-0.004095,-0.045441,11.831531,-0.001923,0.055251,0.058035,0.0,1.0,2286.487549,
29.528219,-96.993828,-95.800385,2.773233,0.144929,2.773233,0.144929,-99.999855,-100.0,2.436985,6.559522,2.481858,296.642487,282.762054,-0.005035,-0.044483,9.92772,-0.001983,0.055335,0.059427,0.0,1.0,2288.896729,
30.128248,-96.987144,-95.793701,2.777604,0.148925,2.777604,0.148925,-99.999855,-100.0,2.445018,6.855824,2.542151,296.6203,282.136383,-0.005389,-0.04371,17.383398,-0.00207,0.055465,0.061287,0.0,1.0,2290.428711,
31.091206,-96.975929,-95.782486,2.784561,0.15533,2.784561,0.15533,-99.999855,-100.0,2.458351,7.342443,2.640897,296.586517,281.263428,-0.005799,-0.042318,7.900851,-0.002128,0.055552,0.062396,0.0,1.0,2292.884277,
31.714426,-96.968361,-95.774918,2.78922,0.159744,2.78922,0.159744,-99.999855,-100.0,2.467273,7.664469,2.705377,296.563965,280.787384,-0.006194,-0.04164,19.232527,-0.002219,0.055691,0.064085,0.0,1.0,2294.472168,
32.59557,-96.95726,-95.763817,2.795621,0.166106,2.795621,0.166106,-99.999855,-100.0,2.480277,8.128987,2.797491,296.53064,280.236145,-0.006977,-0.041003,10.952924,-0.002282,0.055784,0.065213,0.0,1.0,2296.717041,
33.267353,-96.948463,-95.75502,2.801785,0.171298,2.801785,0.171298,-99.999855,-100.0,2.49057,8.490595,2.924341,296.502594,279.911957,-0.007837,-0.040989,15.032104,-0.002373,0.055912,0.066879,0.0,1.0,2298.43042,
Command_Fault: set /instrumentation/vertical-speed-indicator/serviceable false
34.143318,-96.93644,-95.742996,2.814354,0.178005,2.814354,0.178005,-99.999855,-100.0,2.50565,8.971534,3.297487,296.462433,279.613495,-0.00984,-0.041511,8.942237,-0.002447,0.056036,0.068282,0.0,1.0,2300.667969,
34.760044,-96.927475,-95.734032,2.818968,0.183236,2.818968,0.183236,-99.999855,-100.0,2.516756,9.316358,3.360728,296.430969,279.486389,-0.011703,-0.042332,8.779251,-0.002543,0.056287,0.07029,0.0,1.0,2302.245361,
35.708733,-96.912956,-95.719513,2.825243,0.191063,2.825243,0.191063,-99.999855,-100.0,2.534305,9.856318,3.464365,296.379028,279.420624,-0.014814,-0.043955,8.779251,-0.002618,0.056379,0.071863,0.0,1.0,2304.674316,
36.348331,-96.90271,-95.709267,2.82989,0.196396,2.82989,0.196396,-99.999855,-100.0,2.546473,10.226716,3.539262,296.341797,279.461395,-0.017111,-0.045248,8.779251,-0.002729,0.056505,0.07446,0.0,1.0,2306.314453,
37.266312,-96.887383,-95.693939,2.836748,0.203618,2.836748,0.203618,-99.999855,-100.0,2.564441,10.767682,3.645076,296.28891,279.632782,-0.020409,-0.046749,8.779251,-0.002806,0.056598,0.076321,0.0,1.0,2308.674072,
37.876812,-96.876816,-95.683372,2.841554,0.208302,2.841554,0.208302,-99.999855,-100.0,2.576715,11.133146,3.718734,296.254181,279.815674,-0.022364,-0.047552,8.779251,-0.002909,0.056735,0.078966,0.0,1.0,2310.24585,
38.78878,-96.860435,-95.666992,2.848605,0.214742,2.848605,0.214742,-99.999855,-100.0,2.595556,11.688309,3.802038,296.205627,280.183197,-0.024582,-0.048058,8.779251,-0.002976,0.056831,0.080702,0.0,1.0,2312.60083,
39.394939,-96.84919,-95.655746,2.856835,0.220965,2.856835,0.220965,-99.999855,-100.0,2.608559,12.062911,4.232094,296.174896,280.484222,-0.025368,-0.048051,8.779251,-0.003068,0.056972,0.08313,0.0,1.0,2314.169434,
40.274593,-96.832047,-95.638596,2.868174,0.229055,2.868174,0.229055,-99.999855,-100.0,2.62975,12.615398,4.422352,296.133453,280.993042,-0.026447,-0.047552,8.779251,-0.003157,0.057137,0.084666,0.0,1.0,2316.453613,
40.876225,-96.819725,-95.626282,2.872731,0.233117,2.872731,0.233117,-99.999855,-100.0,2.644623,12.998351,4.493397,296.105896,281.383301,-0.026887,-0.047161,8.779251,-0.003272,0.057363,0.086739,0.0,1.0,2318.018311,
41.80069,-96.799919,-95.606476,2.87919,0.239005,2.87919,0.239005,-99.999855,-100.0,2.668025,13.595025,4.609461,296.06488,282.038727,-0.027027,-0.046405,8.779251,-0.00333,0.057455,0.088116,0.0,1.0,2320.426758,
42.398315,-96.786583,-95.59314,2.883808,0.243007,2.883808,0.243007,-99.999855,-100.0,2.683523,13.985993,4.685698,296.03772,282.49176,-0.02712,-0.046079,8.779251,-0.003414,0.057584,0.090167,0.0,1.0,2321.987061,
43.291824,-96.765938,-95.572495,2.890741,0.248999,2.890741,0.248999,-99.999855,-100.0,2.707245,14.57802,4.799819,295.99585,283.200684,-0.027489,-0.045819,8.779251,-0.003472,0.057676,0.091525,0.0,1.0,2324.464111,
43.860382,-96.752335,-95.558891,2.900889,0.253566,2.900889,0.253566,-99.999855,-100.0,2.723522,14.959632,5.355419,295.967194,283.665771,-0.028055,-0.04597,8.779251,-0.003557,0.057815,0.093619,0.0,1.0,2326.749512,
44.747799,-96.730034,-95.536591,2.909643,0.261306,2.909643,0.261306,-99.999855,-100.0,2.750666,15.561992,5.4956,295.919586,284.401733,-0.029362,-0.046595,8.779251,-0.003622,0.058018,0.095052,0.0,1.0,2331.289307,
45.337738,-96.714508,-95.521065,2.913963,0.265987,2.913963,0.265987,-99.999855,-100.0,2.769109,15.966881,5.569123,295.885101,284.89151,-0.030765,-0.047413,8.779251,-0.003733,0.058193,0.097432,0.0,1.0,2334.734131,
46.197483,-96.690994,-95.497551,2.92017,0.272373,2.92017,0.272373,-99.999855,-100.0,2.796488,16.56193,5.688303,295.832977,285.594849,-0.033111,-0.048736,8.779251,-0.0038,0.058279,0.099156,0.0,1.0,2340.116943,
46.811123,-96.673676,-95.480225,2.925005,0.277008,2.925005,0.277008,-99.999855,-100.0,2.816408,16.990196,5.776431,295.794373,286.083405,-0.034861,-0.049789,8.779251,-0.003891,0.058403,0.101762,0.0,1.0,2344.12915,
47.717449,-96.647217,-95.453773,2.932137,0.283206,2.932137,0.283206,-99.999855,-100.0,2.846445,17.628805,5.905759,295.737823,286.775665,-0.037396,-0.051045,8.779251,-0.003957,0.0585,0.103693,0.0,1.0,2350.216553,
48.547878,-96.622032,-95.428581,2.947969,0.297742,2.947969,0.297742,-99.999855,-100.0,2.876558,18.220484,6.858086,295.687622,287.370392,-0.039111,-0.051546,8.779251,-0.004046,0.058643,0.10652,0.0,1.0,2355.905762,
49.157475,-96.602585,-95.409142,2.954455,0.302079,2.954455,0.302079,-99.999855,-100.0,2.900508,18.658394,6.933988,295.653107,287.777344,-0.040119,-0.051642,8.779251,-0.004159,0.058825,0.108168,0.0,1.0,2360.121582,
49.717556,-96.584023,-95.390579,2.958748,0.305533,2.958748,0.305533,-99.999855,-100.0,2.922803,19.063341,7.015819,295.622101,288.126312,-0.040801,-0.051632,8.779251,-0.004315,0.059089,0.110756,0.0,1.0,2364.015869,
50.641609,-96.552101,-95.358658,2.965085,0.310225,2.965085,0.310225,-99.999855,-100.0,2.960228,19.736603,7.158445,295.57428,288.64447,-0.04078,-0.051085,8.779251,-0.004365,0.059175,0.112306,0.0,1.0,2370.471436,
51.491562,-96.521492,-95.328049,2.971601,0.314394,2.971601,0.314394,-99.999855,-100.0,2.995384,20.3612,7.298861,295.53183,289.052399,-0.040098,-0.050436,8.779251,-0.004432,0.059302,0.114697,0.0,1.0,2376.432129,
52.073082,-96.499893,-95.30645,2.976044,0.317015,2.976044,0.317015,-99.999855,-100.0,3.019876,20.791897,7.390271,295.503784,289.291595,-0.039189,-0.049871,8.779251,-0.004474,0.059391,0.116164,0.0,1.0,2380.524414,
52.920483,-96.467613,-95.27417,2.982702,0.320941,2.982702,0.320941,-99.999855,-100.0,3.05616,21.423374,7.52851,295.461823,289.579346,-0.037785,-0.049346,8.779251,-0.004529,0.059521,0.118222,0.0,1.0,2386.499023,
53.549252,-96.443092,-95.249641,2.987422,0.32368,2.987422,0.32368,-99.999855,-100.0,3.083547,21.894985,7.630606,295.429962,289.745361,-0.036742,-0.049106,8.779251,-0.00457,0.059617,0.119714,0.0,1.0,2390.942383,
54.128883,-96.419998,-95.226555,2.991919,0.326349,2.991919,0.326349,-99.999855,-100.0,3.109154,22.332161,7.724562,295.398712,289.862335,-0.035936,-0.049218,8.779251,-0.004624,0.059748,0.121913,0.0,1.0,2395.04541,
54.997272,-96.384689,-95.191246,2.998326,0.33001,2.998326,0.33001,-99.999855,-100.0,3.148156,22.991127,7.870504,295.349487,289.97287,-0.034916,-0.049721,8.779251,-0.004662,0.059838,0.123476,0.0,1.0,2401.206055,
55.551701,-96.361702,-95.168259,3.002514,0.332386,3.002514,0.332386,-99.999855,-100.0,3.173443,23.414083,7.956355,295.31601,290.003326,-0.034469,-0.050333,8.779251,-0.004714,0.059967,0.125937,0.0,1.0,2405.145508,
56.442219,-96.324066,-95.130623,3.008037,0.336859,3.008037,0.336859,-99.999855,-100.0,3.214475,24.097561,7.996383,295.260986,289.988586,-0.033976,-0.051341,8.779251,-0.004748,0.06005,0.127611,0.0,1.0,2411.488281,
57.283287,-96.287842,-95.094391,3.014014,0.339704,3.014014,0.339704,-99.999855,-100.0,3.253706,24.74745,8.133683,295.207825,289.905365,-0.033511,-0.052358,8.779251,-0.004812,0.060161,0.130362,0.0,1.0,2417.494873,
Command_Fault: set /instrumentation/vertical-speed-indicator/serviceable true
57.883003,-96.261589,-95.068146,3.018389,0.341314,3.018389,0.341314,-99.999855,-100.0,3.282137,25.213575,8.232028,295.171143,289.807037,-0.032923,-0.052787,8.779251,-0.00484,0.060235,0.132042,0.0,1.0,2421.78833,
58.457928,-96.236092,-95.042641,3.026625,0.341013,3.026625,0.341013,-99.999855,-100.0,3.310612,25.662508,8.774296,295.13623,289.68399,-0.032493,-0.053167,205.39032,-0.004876,0.060368,0.134854,0.0,1.0,2425.913086,
59.269855,-96.19899,-95.005547,3.035999,0.341718,3.035999,0.341718,-99.999855,-100.0,3.35251,26.300838,9.053485,295.089844,289.465057,-0.029901,-0.053101,15.140465,-0.004872,0.060532,0.1366,0.0,1.0,2431.756592,
60.150314,-96.156914,-94.96347,3.048221,0.342341,3.048221,0.342341,-89.999855,-90.0,3.403082,26.99847,9.911856,295.043152,289.173065,-0.026658,-0.052481,15.669977,-0.004882,0.06072,0.138919,0.0,1.0,2438.117188,
60.74461,-96.127312,-94.933868,3.051601,0.342026,3.051601,0.342026,-89.999855,-90.0,3.437684,27.471527,10.012042,295.013733,288.947784,-0.023504,-0.05179,22.482981,-0.004892,0.060922,0.140515,0.0,1.0,2442.449219,
61.574772,-96.084503,-94.89106,3.056719,0.34137,3.056719,0.34137,-89.999855,-90.0,3.486721,28.135992,10.156277,294.973419,288.599976,-0.018004,-0.050826,16.672091,-0.004886,0.061032,0.142725,0.0,1.0,2448.589355,
62.167068,-96.053078,-94.859634,3.060742,0.340488,3.060742,0.340488,-89.999855,-90.0,3.522215,28.612116,10.288787,294.945557,288.33194,-0.01377,-0.050079,13.705566,-0.004882,0.061096,0.144002,0.0,1.0,2453.010498,
62.710892,-96.023506,-94.830063,3.069385,0.344868,3.069385,0.344868,-89.999855,-90.0,3.556616,29.051216,10.937606,294.919678,288.073486,-0.009246,-0.049384,19.371904,-0.004864,0.061215,0.146133,0.0,1.0,2457.094727,
63.537384,-95.977036,-94.783592,3.075198,0.34252,3.075198,0.34252,-89.999855,-90.0,3.610156,29.7213,11.079294,294.879852,287.663086,-0.001629,-0.048723,14.915318,-0.004927,0.061388,0.147427,0.0,1.0,2463.330322,
Command: fly_strait
64.150818,-95.941513,-94.748062,3.078868,0.340238,3.078868,0.340238,-89.999855,-90.0,3.65039,30.220501,11.192779,294.848907,287.348602,0.00381,-0.048533,15.409393,-0.004893,0.061504,0.149419,0.0,1.0,2467.974854,
64.985909,-95.892464,-94.699013,3.082865,0.359556,3.082865,0.359556,-89.999855,-90.0,3.705199,30.894382,11.345822,294.679535,286.917877,0.003378,-0.071897,21.108192,-0.004861,0.061577,0.0,0.0,1.0,2474.248535,
65.607269,-95.856651,-94.663208,3.080988,0.362695,3.080988,0.362695,-89.999855,-90.0,3.744774,31.377089,11.437166,294.190186,286.607025,-0.015459,-0.145998,16.360867,-0.005137,0.061657,0.008469,0.0,1.0,2478.795654,
66.522614,-95.803627,-94.610184,3.085194,0.330382,3.085194,0.330382,-89.999855,-90.0,3.80712,32.074207,12.796972,293.061951,286.15152,-0.084486,-0.30462,17.284004,-0.005181,0.06162,0.032936,0.0,1.0,2485.499512,
67.415329,-95.749763,-94.55632,3.078795,0.272312,3.078795,0.272312,-89.999855,-90.0,3.869782,32.754353,12.982139,291.777191,285.690765,-0.187127,-0.463816,23.297052,-0.00472,0.061704,0.089348,0.0,1.0,2492.161133,
68.024498,-95.711685,-94.518242,3.077417,0.223965,3.077417,0.223965,-89.999855,-90.0,3.913353,33.222191,13.151127,291.009705,285.358978,-0.259099,-0.54029,23.803801,-0.004249,0.06162,0.130046,0.0,1.0,2496.7771,
68.606415,-95.674377,-94.480934,3.079932,0.181905,3.079932,0.181905,-89.999855,-90.0,3.955667,33.671707,13.329192,290.453796,285.026367,-0.320612,-0.5773,18.507917,-0.0032,0.061548,0.19196,0.0,1.0,2501.221436,
69.511238,-95.614449,-94.421005,3.089265,0.113856,3.089265,0.113856,-89.999855,-90.0,4.024192,34.37748,14.334845,290.141876,284.475952,-0.375833,-0.539247,19.200863,-0.002599,0.061599,0.219756,0.0,1.0,2508.191895,
70.442787,-95.550148,-94.356705,3.055317,7.66E-4,3.055317,7.66E-4,-89.999855,-90.0,4.100519,35.105656,15.071892,290.603302,283.880707,-0.370192,-0.386065,19.560045,-0.001627,0.061785,0.235352,0.0,1.0,2515.378906,
71.048027,-95.50499,-94.311546,3.036503,-0.043013,3.036503,-0.043013,-89.999855,-90.0,4.152992,35.599277,15.026505,291.288239,283.472534,-0.328305,-0.237044,22.596384,-5.72E-4,0.061415,0.223886,0.0,1.0,2520.213623,
71.595589,-95.460594,-94.267143,3.047694,-0.009759,3.047694,-0.009759,-89.999855,-90.0,4.202841,36.074181,15.291559,292.113129,283.086212,-0.258928,-0.081087,23.414476,6.14E-4,0.06073,0.178033,0.0,1.0,2524.765625,
72.347221,-95.393646,-94.200203,3.006684,0.35563,3.006684,0.35563,-89.999855,-90.0,4.284875,36.768101,18.324259,293.291199,282.550873,-0.127648,0.120222,17.49469,1.39E-4,0.060954,0.136789,0.0,1.0,2531.158203,
73.115944,-95.319855,-94.126411,2.824192,1.129708,2.824192,1.129708,-89.999855,-90.0,4.3799,37.482964,21.439226,294.110107,282.057831,7.46E-4,0.243253,20.912645,-0.00508,0.060134,0.077885,0.0,1.0,2537.476807,
73.681976,-95.264694,-94.071251,2.625211,1.636305,2.625211,1.636305,-89.999855,-90.0,4.453548,37.981091,20.249245,294.259644,281.760071,0.070887,0.250112,18.434704,-0.012045,0.057856,0.047096,0.0,1.0,2541.833252,
74.552864,-95.181572,-93.988129,2.435142,2.054841,2.435142,2.054841,-89.999855,-90.0,4.543165,38.700871,15.644173,293.871735,281.402344,0.130627,0.158268,25.283068,-0.023376,0.052504,0.029463,0.0,1.0,2548.260498,
75.152573,-95.12677,-93.933327,2.466491,2.024379,2.466491,2.024379,-89.999855,-90.0,4.590802,39.181583,13.264311,293.322815,281.209229,0.140856,0.052884,25.327963,-0.028227,0.049352,0.038872,0.0,1.0,2552.684814,
76.053787,-95.048264,-93.85482,2.639209,1.589559,2.639209,1.589559,-89.999855,-90.0,4.659145,39.904381,17.093044,292.342773,280.977722,0.131361,-0.116976,19.187815,-0.02892,0.04933,0.076305,0.0,1.0,2559.484131,
76.647186,-94.995377,-93.801933,2.728191,1.03933,2.728191,1.03933,-89.999855,-90.0,4.736008,40.387505,29.21678,291.796112,280.854706,0.104192,-0.20364,18.660933,-0.025529,0.051564,0.109152,0.0,1.0,2564.084229,
77.51918,-94.8992,-93.705757,2.809414,-0.016734,2.809414,-0.016734,-89.999855,-90.0,4.938916,41.113914,51.739399,291.402252,280.708099,0.057482,-0.254855,22.911329,-0.014848,0.054564,0.15264,0.0,1.0,2571.031738,
78.082184,-94.813538,-93.620094,2.875347,-0.67465,2.875347,-0.67465,-89.999855,-90.0,5.13886,41.599052,67.723358,291.515625,280.634064,0.034094,-0.223895,29.250616,-0.004918,0.055723,0.169385,0.0,1.0,2575.664307,
78.870667,-94.637016,-93.443573,3.077794,-1.287654,3.077794,-1.287654,-89.999855,-90.0,5.547637,42.327274,96.297913,292.161163,280.56131,0.02907,-0.101554,42.007744,0.009638,0.057507,0.166664,0.0,1.0,2582.511719,
79.344505,-94.477707,-93.284264,3.259055,-1.300167,3.259055,-1.300167,-89.999855,-90.0,5.908995,42.812481,120.079819,292.751251,280.541046,0.047743,0.002784,52.915581,0.016525,0.05995,0.147545,0.0,1.0,2586.92041,
79.979858,-94.15699,-92.963547,3.531666,-0.762868,3.531666,-0.762868,-89.999855,-90.0,6.613966,43.538605,161.570358,293.556396,280.555939,0.098018,0.137988,73.322121,0.018574,0.065181,0.104883,0.0,1.0,2593.093262,
80.378082,-93.876747,-92.683304,3.648687,-0.151725,3.648687,-0.151725,-89.999855,-90.0,7.201224,44.02087,189.114075,293.847504,280.595367,0.13757,0.182592,89.525093,0.014405,0.069034,0.076257,0.0,1.0,2596.476074,
80.95752,-93.358528,-92.165077,3.757264,0.770907,3.757264,0.770907,-89.999855,-90.0,8.208903,44.720768,223.460068,293.796967,280.689606,0.181596,0.165842,115.451363,0.002168,0.072974,0.05007,0.0,1.0,2600.505371,
81.379745,-92.903999,-91.710556,3.809241,1.237308,3.809241,1.237308,-89.999855,-90.0,9.0225,45.217987,243.805618,293.440704,280.777191,0.191758,0.101045,134.858887,-0.011013,0.075145,0.052597,0.0,1.0,2602.946289,
81.987434,-92.127342,-90.933899,3.884652,1.364195,3.884652,1.364195,-89.999855,-90.0,10.303835,45.929989,267.106293,292.697693,280.91922,0.17427,-0.026898,162.315125,-0.017676,0.076185,0.07041,0.0,1.0,2606.058594,
82.385704,-91.532806,-90.339363,3.943471,1.094391,3.943471,1.094391,-89.999855,-90.0,11.217732,46.402077,280.492249,292.246216,281.016296,0.14498,-0.10117,179.89975,-0.01998,0.077157,0.094788,0.0,1.0,2607.950439,
82.969002,-90.533493,-89.34005,4.043085,0.371103,4.043085,0.371103,-89.999855,-90.0,12.67042,47.106262,300.094757,291.894043,281.154785,0.094888,-0.153765,204.879837,-0.015634,0.078869,0.130135,0.0,1.0,2610.596191,
83.343307,-89.799454,-88.60601,4.112012,-0.134069,4.112012,-0.134069,-89.999855,-90.0,13.693645,47.572849,313.338074,291.973083,281.239075,0.068236,-0.134921,220.701141,-0.009069,0.080208,0.144823,0.0,1.0,2612.260498,
83.862061,-88.600967,-87.407524,4.257021,-0.618898,4.257021,-0.618898,-89.999855,-90.0,15.321312,48.267715,338.384674,292.501984,281.353485,0.057109,-0.04083,243.602036,0.001915,0.08224,0.143791,0.0,1.0,2614.623779,
84.167,-87.736374,-86.542931,4.381038,-0.620593,4.381038,-0.620593,-89.999855,-90.0,16.485035,48.727058,359.504303,292.991669,281.423828,0.070876,0.041806,258.891388,0.007371,0.084064,0.128246,0.0,1.0,2616.104248,
84.565102,-86.333931,-85.140488,4.592776,-0.172408,4.592776,-0.172408,-89.999855,-90.0,18.376509,49.409164,396.288849,293.645844,281.523834,0.112791,0.146124,282.960205,0.008866,0.087621,0.092862,0.0,1.0,2618.168701,
84.812462,-85.322769,-84.129326,4.694375,0.319611,4.694375,0.319611,-79.999855,-80.0,19.73752,49.858807,418.722687,293.859802,281.587189,0.14621,0.175176,300.107666,0.005354,0.090529,0.069402,0.0,1.0,2619.449219,
85.191399,-83.686974,-82.493523,4.774809,1.035019,4.774809,1.035019,-79.999855,-80.0,21.901642,50.525253,444.823975,293.75354,281.674072,0.180727,0.146029,326.848663,-0.004566,0.093888,0.049455,0.0,1.0,2621.275146,
85.457855,-82.518829,-81.325386,4.7852,1.30541,4.7852,1.30541,-79.999855,-80.0,23.40831,50.964268,457.989868,293.437469,281.722961,0.185864,0.086179,344.644348,-0.011785,0.095206,0.050163,0.0,1.0,2622.459229,
85.868553,-80.65873,-79.465286,4.814126,1.271865,4.814126,1.271865,-79.999855,-80.0,25.737318,51.61528,472.620087,292.82016,281.775177,0.16327,-0.022931,370.215759,-0.018649,0.095704,0.070572,0.0,1.0,2624.217285,
86.143333,-79.353355,-78.159912,4.850013,0.960605,4.850013,0.960605,-79.999855,-80.0,27.328255,52.044506,481.598206,292.492371,281.791595,0.133436,-0.078573,386.114532,-0.019256,0.096015,0.091258,0.0,1.0,2625.380127,
86.549622,-77.307259,-76.113815,4.921584,0.289998,4.921584,0.289998,-79.999855,-80.0,29.773808,52.681301,496.68042,292.329376,281.784088,0.088771,-0.103927,408.156006,-0.013723,0.097,0.117827,0.0,1.0,2627.10791,
Command_Fault: set /instrumentation/vertical-speed-indicator/serviceable false
86.80864,-75.888206,-74.694763,4.979236,-0.109406,4.979236,-0.109406,-79.999855,-80.0,31.449427,53.101002,508.400116,292.491547,281.75766,0.068989,-0.074735,421.868958,-0.007426,0.097933,0.125964,0.0,1.0,2628.241943,
87.157959,-73.679688,-72.486244,5.102971,-0.39684,5.102971,-0.39684,-69.999855,-70.0,34.042999,53.722836,529.172729,293.029785,281.690247,0.068053,0.015511,428.515411,0.001563,0.099585,0.117868,0.0,1.0,2629.891357,
87.360001,-72.153442,-70.959991,5.202426,-0.305383,5.202426,-0.305383,-69.999855,-70.0,35.834576,54.13187,545.47644,293.437988,281.630737,0.085868,0.081097,428.515411,0.00513,0.101174,0.101117,0.0,1.0,2630.937744,
87.632584,-69.7799,-68.586456,5.326377,0.174899,5.326377,0.174899,-69.999855,-70.0,38.631668,54.73653,572.804565,293.875641,281.525391,0.127104,0.146197,428.515411,0.004363,0.104049,0.070546,0.0,1.0,2632.414551,
87.812859,-68.136459,-66.943016,5.374115,0.586418,5.374115,0.586418,-69.999855,-70.0,40.571766,55.133526,590.170837,293.933441,281.44632,0.152826,0.148617,428.515411,2.7E-4,0.105869,0.053925,0.0,1.0,2633.349121,
88.097366,-65.577698,-64.384254,5.434169,1.05801,5.434169,1.05801,-69.999855,-70.0,43.581921,55.71994,612.614014,293.665741,281.31427,0.170127,0.093616,428.515411,-0.008377,0.107482,0.045773,0.0,1.0,2634.714355,
88.296097,-63.809803,-62.616356,5.472852,1.14914,5.472852,1.14914,-59.999859,-60.0,45.646706,56.105061,625.553345,293.331512,281.215271,0.163695,0.032726,428.515411,-0.015114,0.108683,0.059158,0.0,1.0,2635.61792,
88.599754,-61.068192,-59.874744,5.526235,0.876531,5.526235,0.876531,-59.999859,-60.0,48.819855,56.674454,642.857361,292.851685,281.045837,0.130327,-0.05135,428.515411,-0.016416,0.109457,0.07587,0.0,1.0,2636.975342,
88.802124,-59.1833,-57.989857,5.568435,0.512517,5.568435,0.512517,-59.999859,-60.0,50.981686,57.048721,653.847778,292.673035,280.917236,0.102895,-0.081441,428.515411,-0.012522,0.110525,0.099861,0.0,1.0,2637.881592,
89.09523,-56.275097,-55.081654,5.644379,-0.049345,5.644379,-0.049345,-59.999859,-60.0,54.294941,57.602177,671.212769,292.752533,280.701416,0.069127,-0.066397,428.515411,-0.007322,0.111369,0.108794,0.0,1.0,2639.234863,
89.273109,-54.283047,-53.089603,5.716891,-0.296379,5.716891,-0.296379,-49.999859,-50.0,56.554337,57.965694,684.183533,293.013,280.5448,0.061936,-0.022523,428.515411,7.05E-4,0.112888,0.104819,0.0,1.0,2640.12085,
89.50132,-51.215855,-50.022408,5.83847,-0.290889,5.83847,-0.290889,-49.999859,-50.0,60.031235,58.502308,706.430725,293.526459,280.297699,0.077035,0.061326,428.515411,0.004234,0.114338,0.091795,0.0,1.0,2641.395508,
89.63105,-49.116802,-47.923355,5.922496,-0.064143,5.922496,-0.064143,-49.999859,-50.0,62.414009,58.853973,722.803589,293.820709,280.129028,0.098324,0.106728,428.515411,0.004156,0.116769,0.066122,0.0,1.0,2642.196777,
89.816025,-45.882832,-44.689388,6.008498,0.443154,6.008498,0.443154,-49.999859,-50.0,66.091949,59.372036,747.287231,293.983032,279.875275,0.134111,0.125322,428.515411,9.16E-4,0.11845,0.05141,0.0,1.0,2643.330322,
89.944565,-43.668106,-42.474663,6.051553,0.749466,6.051553,0.749466,-39.999859,-40.0,68.608505,59.711136,761.848633,293.876251,279.706726,0.148085,0.101631,428.515411,-0.006331,0.12017,0.043294,0.0,1.0,2644.057129,
90.150711,-40.257935,-39.064487,6.097115,0.922546,6.097115,0.922546,-39.999859,-40.0,72.466904,60.210712,780.222778,293.488007,279.453857,0.146155,0.029294,428.515411,-0.010707,0.121031,0.048633,0.0,1.0,2645.132813,
90.294525,-37.927677,-36.73423,6.128306,0.816361,6.128306,0.816361,-39.999859,-40.0,75.085571,60.53801,790.412476,293.189484,279.2836,0.130004,-0.023199,428.515411,-0.013179,0.121942,0.068045,0.0,1.0,2645.850098,
90.513458,-34.352432,-33.158989,6.174463,0.390296,6.174463,0.390296,-29.999857,-30.0,79.07399,61.020718,804.420166,292.914978,279.023499,0.093023,-0.069606,428.515411,-0.011662,0.122566,0.082971,0.0,1.0,2646.93042,
90.656548,-31.918905,-30.72546,6.213989,0.050476,6.213989,0.050476,-29.999857,-30.0,81.771553,61.337135,813.833801,292.919556,278.847046,0.072086,-0.068065,428.515411,-0.005576,0.123489,0.096696,0.0,1.0,2647.650879,
90.852608,-28.19771,-27.004265,6.289937,-0.289721,6.289937,-0.289721,-29.999857,-30.0,85.879539,61.803558,829.229248,293.206604,278.581146,0.05795,-0.018722,428.515411,-7.21E-4,0.12428,0.096468,0.0,1.0,2648.71582,
90.962883,-25.670839,-24.477394,6.357652,-0.328024,6.357652,-0.328024,-29.999857,-30.0,88.663483,62.108837,840.92511,293.505615,278.406464,0.064099,0.030484,428.515411,0.004139,0.125799,0.082115,0.0,1.0,2649.400879,
91.100487,-21.81105,-20.617605,6.450832,-0.068293,6.450832,-0.068293,-19.999857,-20.0,92.917488,62.557858,860.298828,293.892853,278.15451,0.091969,0.09115,428.515411,0.004686,0.127153,0.067165,0.0,1.0,2650.370361,
91.183868,-19.190378,-17.996935,6.503827,0.22642,6.503827,0.22642,-19.999857,-20.0,95.807823,62.851124,873.390076,294.013153,277.995972,0.11274,0.106965,428.515411,9.76E-4,0.129017,0.047803,0.0,1.0,2650.977295,
91.315704,-15.186505,-13.993061,6.548811,0.623414,6.548811,0.623414,-19.999857,-20.0,100.221756,63.281937,891.014771,293.905731,277.774109,0.134596,0.081438,428.515411,-0.003235,0.130077,0.041788,0.0,1.0,2651.849609,
91.412506,-12.468984,-11.275539,6.570888,0.753799,6.570888,0.753799,-9.999858,-10.0,103.208641,63.563297,900.490112,293.682648,277.6362,0.13517,0.040197,428.515411,-0.008906,0.130976,0.047159,0.0,1.0,2652.420166,
91.568665,-8.3238,-7.130355,6.597564,0.636168,6.597564,0.636168,-9.999858,-10.0,107.741951,63.977058,912.034729,293.302185,277.441345,0.11486,-0.026847,428.515411,-0.010769,0.131418,0.058313,0.0,1.0,2653.255859,
91.677132,-5.517513,-4.324069,6.618297,0.395849,6.618297,0.395849,-9.999858,-10.0,110.793694,64.247643,918.697754,293.125031,277.317749,0.094074,-0.056799,428.515411,-0.009088,0.131951,0.077336,0.0,1.0,2653.805908,
91.838081,-1.249378,-0.055934,6.657415,-0.031676,6.657415,-0.031676,1.42E-4,0.0,115.412636,64.645844,928.682434,293.114624,277.140686,0.064463,-0.057007,428.515411,-0.005655,0.132366,0.086194,0.0,1.0,2654.623779,
91.936256,1.771575,2.96502,6.697868,-0.246631,6.697868,-0.246631,1.42E-4,0.0,118.520805,64.906181,936.090271,293.277527,277.029053,0.055648,-0.02904,428.515411,4.53E-4,0.133148,0.086714,0.0,1.0,2655.158936,
92.058975,6.362226,7.55567,6.771616,-0.29448,6.771616,-0.29448,10.000142,10.0,123.233696,65.288712,948.993652,293.651917,276.874908,0.06328,0.033169,428.515411,0.003523,0.133957,0.078569,0.0,1.0,2655.927246,
92.124451,9.459273,10.652718,6.826792,-0.149009,6.826792,-0.149009,10.000142,10.0,126.413429,65.538239,958.63855,293.886688,276.783386,0.078929,0.070307,428.515411,0.004207,0.135432,0.05985,0.0,1.0,2656.406982,
92.212761,14.161057,15.354502,6.884319,0.225847,6.884319,0.225847,10.000142,10.0,131.244995,65.904091,973.357605,294.040131,276.665741,0.108073,0.090497,428.515411,0.002129,0.136536,0.048111,0.0,1.0,2657.075439,
Command_Fault: set /instrumentation/vertical-speed-indicator/serviceable true
92.274712,17.333792,18.527235,6.909804,0.468091,6.909804,0.468091,20.000143,20.0,134.504822,66.142403,982.032288,293.976746,276.600586,0.120721,0.075963,428.515411,-0.003226,0.137686,0.040439,0.0,1.0,2657.497314,
92.379295,22.14949,23.342936,6.927596,0.624351,6.927596,0.624351,20.000143,20.0,139.4431,66.491837,992.423889,293.691833,276.520386,0.121911,0.023163,3412.65625,-0.006687,0.138196,0.043608,0.0,1.0,2658.117188,
92.456627,25.395885,26.589331,6.935365,0.558692,6.935365,0.558692,30.000143,30.0,142.760681,66.719719,997.749023,293.461121,276.476379,0.11028,-0.017128,3259.429199,-0.008919,0.138552,0.057854,0.0,1.0,2658.531006,
92.579865,30.314648,31.508093,6.948359,0.245462,6.948359,0.245462,30.000143,30.0,147.767044,67.054359,1004.453125,293.240326,276.420654,0.081524,-0.054097,3036.22876,-0.007981,0.138707,0.069389,0.0,1.0,2659.160889,
92.662064,33.623684,34.817127,6.965583,-0.01175,6.965583,-0.01175,30.000143,30.0,151.122849,67.272797,1008.910767,293.236694,276.38913,0.064778,-0.053847,2892.187988,-0.003507,0.138967,0.080429,0.0,1.0,2659.585693,
92.7733,38.628174,39.821617,7.008949,-0.270687,7.008949,-0.270687,40.000141,40.0,156.187073,67.59346,1016.877747,293.450714,276.35025,0.053142,-0.016581,2683.907959,1.68E-4,0.139312,0.080611,0.0,1.0,2660.218262,
92.833221,41.990738,43.184185,7.050127,-0.298118,7.050127,-0.298118,40.000141,40.0,159.58783,67.802452,1023.508789,293.677795,276.331146,0.057979,0.021091,2550.671631,0.003867,0.140179,0.06991,0.0,1.0,2660.625488,
92.903328,47.074432,48.267879,7.106374,-0.094253,7.106374,-0.094253,50.000141,50.0,164.734344,68.108482,1034.918457,293.968628,276.315094,0.080302,0.067085,2360.081787,0.004259,0.141003,0.058556,0.0,1.0,2661.197998,
92.944199,50.491192,51.684635,7.13701,0.133124,7.13701,0.133124,50.000141,50.0,168.19751,68.307465,1042.669312,294.05307,276.313568,0.096841,0.07826,2239.732422,0.001346,0.142127,0.044014,0.0,1.0,2661.553223,
93.010719,55.659294,56.852741,7.158615,0.430686,7.158615,0.430686,60.000141,60.0,173.438156,68.598473,1052.812988,293.955597,276.324341,0.113765,0.056736,2070.200684,-0.001902,0.14274,0.039792,0.0,1.0,2662.060059,
93.062393,59.133228,60.326672,7.166049,0.519824,7.166049,0.519824,60.000141,60.0,176.95668,68.787697,1057.910522,293.776337,276.33847,0.113603,0.024177,1965.009277,-0.006153,0.143172,0.044666,0.0,1.0,2662.39209,
93.150047,64.384384,65.577827,7.172766,0.409187,7.172766,0.409187,60.000141,60.0,182.261719,69.064796,1063.610352,293.484436,276.365753,0.096523,-0.026591,1819.681763,-0.007426,0.143321,0.053629,0.0,1.0,2662.895264,
93.21286,67.909691,69.103142,7.179574,0.215137,7.179574,0.215137,70.000145,70.0,185.8125,69.245262,1066.696533,293.358215,276.385651,0.079917,-0.047553,1731.415405,-0.005846,0.143455,0.068224,0.0,1.0,2663.237549,
93.305984,73.2304,74.423843,7.199765,-0.109551,7.199765,-0.109551,70.000145,70.0,191.158081,69.509735,1071.525269,293.373901,276.415619,0.057459,-0.043286,1612.278442,-0.003073,0.143591,0.074535,0.0,1.0,2663.758057,
93.360825,76.7976,77.991043,7.224616,-0.259477,7.224616,-0.259477,80.000145,80.0,194.736511,69.681892,1075.518677,293.51358,276.435486,0.05186,-0.019193,1541.767822,0.001565,0.143995,0.07375,0.0,1.0,2664.103271,
93.424469,82.177269,83.37072,7.271222,-0.261731,7.271222,-0.261731,80.000145,80.0,200.132919,69.933701,1083.122681,293.806458,276.466644,0.060312,0.029591,1449.277954,0.003707,0.144492,0.066766,0.0,1.0,2664.600586,
93.455582,85.78334,86.976784,7.304071,-0.12887,7.304071,-0.12887,90.000145,90.0,203.75351,70.097168,1089.104614,293.975647,276.48941,0.073681,0.056325,1396.276001,0.003739,0.145424,0.052122,0.0,1.0,2664.910889,
93.49688,91.222641,92.416084,7.333812,0.169409,7.333812,0.169409,90.000145,90.0,209.222504,70.33567,1098.028931,294.059326,276.527557,0.096542,0.066325,1329.133179,0.001841,0.146081,0.043663,0.0,1.0,2665.343506,
93.527939,94.871178,96.064621,7.344294,0.344803,7.344294,0.344803,90.000145,90.0,212.891434,70.490288,1102.988037,293.98468,276.555084,0.105228,0.051136,1292.148804,-0.00242,0.146676,0.039479,0.0,1.0,2665.618164,
93.584625,100.373749,101.5672,7.347398,0.424758,7.347398,0.424758,100.000145,100.0,218.421417,70.715958,1108.402466,293.7435,276.596893,0.102973,0.007492,1247.01001,-0.004926,0.146886,0.043211,0.0,1.0,2666.025879,
93.629227,104.063782,105.257225,7.347974,0.345115,7.347974,0.345115,100.000145,100.0,222.120407,70.862473,1110.789185,293.568848,276.623016,0.092311,-0.022527,1223.134277,-0.006068,0.146948,0.05527,0.0,1.0,2666.301758,
93.70163,109.625046,110.818489,7.353306,0.08037,7.353306,0.08037,110.000145,110.0,227.681992,71.076683,1113.72168,293.428619,276.656403,0.06913,-0.0453,1195.018188,-0.00493,0.146959,0.064003,0.0,1.0,2666.726807,
93.7491,113.34803,114.541481,7.363934,-0.113554,7.363934,-0.113554,110.000145,110.0,231.398056,71.215866,1115.893311,293.454193,276.673889,0.057138,-0.040084,1180.578979,-0.001148,0.147066,0.071014,0.0,1.0,2667.015381,
93.809509,118.953445,120.146889,7.393229,-0.27584,7.393229,-0.27584,120.000145,120.0,236.98819,71.419174,1120.31543,293.65094,276.693451,0.051497,-0.005912,1164.134399,0.001622,0.147279,0.069736,0.0,1.0,2667.445068,
93.838852,122.703941,123.897385,7.420558,-0.262291,7.420558,-0.262291,120.000145,120.0,240.729279,71.550957,1124.320068,293.830078,276.703186,0.057637,0.023769,1156.052002,0.003941,0.147865,0.059898,0.0,1.0,2667.720215,
93.869972,128.350967,129.544418,7.454751,-0.065046,7.454751,-0.065046,130.000137,130.0,246.368652,71.742851,1131.296631,294.028564,276.714966,0.077225,0.0548,1147.446899,0.003747,0.148411,0.050941,0.0,1.0,2668.104736,
93.888199,132.130859,133.32431,7.470875,0.118084,7.470875,0.118084,130.000137,130.0,250.147614,71.866898,1135.859009,294.061646,276.721741,0.089836,0.058139,1143.679932,9.29E-4,0.149095,0.041017,0.0,1.0,2668.343506,
93.921654,137.824631,139.018082,7.477599,0.321552,7.477599,0.321552,140.000137,140.0,255.84201,72.047295,1141.355225,293.940277,276.729828,0.100114,0.034238,1140.415405,-0.001687,0.149418,0.039363,0.0,1.0,2668.687256,
93.950539,141.636215,142.829666,7.476748,0.356347,7.476748,0.356347,140.000137,140.0,259.650909,72.163971,1143.728394,293.785339,276.732788,0.09741,0.006804,1139.511719,-0.004594,0.149552,0.045431,0.0,1.0,2668.915527,
94.002533,147.375061,148.568512,7.474283,0.220985,7.474283,0.220985,150.000137,150.0,265.375793,72.333961,1145.970459,293.570526,276.731018,0.080968,-0.029789,1139.537598,-0.005091,0.149535,0.053178,0.0,1.0,2669.266357,
94.040482,151.213516,152.406967,7.475621,0.052915,7.475621,0.052915,150.000137,150.0,269.197723,72.444099,1147.119995,293.500458,276.724609,0.067669,-0.040957,1140.204834,-0.003157,0.149486,0.063919,0.0,1.0,2669.507813,
94.094826,156.987259,158.180695,7.48874,-0.184737,7.48874,-0.184737,160.000137,160.0,274.938599,72.604645,1149.346069,293.5625,276.706726,0.052535,-0.028958,1141.823486,-7.56E-4,0.149512,0.067422,0.0,1.0,2669.877197,
94.124168,160.8461,162.039551,7.50652,-0.269525,7.50652,-0.269525,160.000137,160.0,278.773529,72.708519,1151.653931,293.694885,276.690094,0.050919,-0.006271,1143.182129,0.002639,0.149775,0.06432,0.0,1.0,2670.121338,
94.153992,166.648758,167.842209,7.537784,-0.213662,7.537784,-0.213662,170.000137,170.0,284.543579,72.859467,1156.441162,293.92337,276.660645,0.061659,0.031508,1145.53894,0.00385,0.15013,0.057701,0.0,1.0,2670.470703,
94.166809,170.527481,171.720917,7.557531,-0.081753,7.557531,-0.081753,170.000137,170.0,288.404816,72.956757,1160.206665,294.031555,276.639435,0.073381,0.048258,1147.315186,0.003052,0.150756,0.046277,0.0,1.0,2670.687988,
94.185135,176.36264,177.556076,7.5712,0.153631,7.5712,0.153631,180.000137,180.0,294.219971,73.097702,1165.482666,294.043121,276.606812,0.090133,0.047099,1150.300171,0.001168,0.151151,0.040868,0.0,1.0,2670.99292,
94.201546,180.264709,181.45816,7.573034,0.266705,7.573034,0.266705,180.000137,180.0,298.109619,73.188438,1168.068848,293.952026,276.584473,0.094544,0.030034,1152.489014,-0.002195,0.151424,0.040289,0.0,1.0,2671.189209,
94.235268,186.135208,187.328644,7.568667,0.273313,7.568667,0.273313,190.000137,190.0,303.956757,73.32,1170.423462,293.74469,276.548767,0.088427,-0.006451,1155.973633,-0.00381,0.151461,0.044844,0.0,1.0,2671.486084,
94.263077,190.059311,191.252747,7.56526,0.175684,7.56526,0.175684,190.000137,190.0,307.85965,73.404869,1171.212402,293.620911,276.522491,0.07807,-0.027266,1158.34668,-0.003904,0.151373,0.055211,0.0,1.0,2671.689941,
94.308052,195.958527,197.151978,7.566829,-0.051322,7.566829,-0.051322,200.000137,200.0,313.71814,73.528145,1172.198975,293.558716,276.478271,0.059814,-0.036518,1161.836914,-0.00251,0.151305,0.0614,0.0,1.0,2672.00708,
94.335884,199.898727,201.092178,7.574904,-0.189415,7.574904,-0.189415,200.000137,200.0,317.627197,73.607681,1173.274048,293.615173,276.445801,0.052377,-0.026207,1164.061646,7.33E-4,0.151337,0.06451,0.0,1.0,2672.222656,
94.367165,205.817932,207.011383,7.597329,-0.263379,7.597329,-0.263379,210.000137,210.0,323.500092,73.722923,1176.052856,293.800812,276.394348,0.052661,0.005654,1167.184204,0.002706,0.151498,0.061687,0.0,1.0,2672.541504,
94.379791,209.771713,210.965149,7.616295,-0.211919,7.616295,-0.211919,210.000137,210.0,327.424805,73.796967,1178.754639,293.937683,276.359772,0.060102,0.028099,1169.225586,0.003763,0.151947,0.052405,0.0,1.0,2672.743652,
94.391441,215.713806,216.907257,7.635958,-0.021207,7.635958,-0.021207,220.000137,220.0,333.330292,73.903748,1183.287964,294.052948,276.309753,0.076995,0.045363,1172.248047,0.003027,0.152326,0.045561,0.0,1.0,2673.026367,
94.399422,219.683762,220.877213,7.642654,0.12069,7.642654,0.12069,220.000137,220.0,337.279358,73.972099,1185.973145,294.040222,276.278351,0.08575,0.041547,1174.286987,3.03E-4,0.152719,0.039798,0.0,1.0,2673.203857,
94.418152,225.652222,226.845657,7.640928,0.238012,7.640928,0.238012,230.000137,230.0,343.217133,74.070557,1188.753174,293.90036,276.233948,0.089629,0.015745,1177.40625,-0.001724,0.152853,0.040434,0.0,1.0,2673.464111,
94.436348,229.639816,230.833267,7.636375,0.224453,7.636375,0.224453,230.000137,230.0,347.181366,74.133659,1189.637329,293.770233,276.205383,0.084607,-0.006765,1179.499512,-0.0034,0.152819,0.047427,0.0,1.0,2673.640137,
94.470177,235.632324,236.825775,7.631471,0.070651,7.631471,0.070651,230.000137,230.0,353.131195,74.224762,1190.188965,293.627594,276.162567,0.069075,-0.030389,1182.564575,-0.003206,0.152727,0.053934,0.0,1.0,2673.914551,
Command_Fault: set /instrumentation/vertical-speed-indicator/serviceable false
94.494247,239.633408,240.826859,7.632149,-0.070966,7.632149,-0.070966,240.000137,240.0,357.09903,74.283234,1190.529297,293.607666,276.133545,0.059037,-0.032987,1184.504028,-0.001009,0.152629,0.061066,0.0,1.0,2674.104492,
Command: turn_+45
94.52565,245.641357,246.834793,7.643803,-0.228602,7.643803,-0.228602,240.000137,240.0,363.054352,74.367584,1191.762451,293.706757,276.089874,0.050699,-0.015042,1185.369385,0.001014,0.152643,0.062062,0.0,1.0,2674.393311,
94.539726,249.652039,250.845474,7.658208,-0.263383,7.658208,-0.263383,250.000137,250.0,367.029541,74.421516,1193.384155,293.838593,276.061584,0.048431,0.00768,1185.369385,0.001089,0.152876,0.1,0.0,1.0,2674.58252,
94.54007,255.675354,256.868805,7.687273,-0.191635,7.687273,-0.191635,260.000153,260.0,373.005005,74.498688,1196.915894,294.203125,276.023041,0.053501,0.066817,1185.369385,0.001254,0.153164,0.1,0.0,1.0,2674.844727,
94.523338,259.696716,260.890167,7.712675,-0.008823,7.712675,-0.008823,260.000153,260.0,377.000122,74.547501,1200.185669,294.494446,276.002258,0.069051,0.111427,1185.369385,9.13E-4,0.153745,0.1,0.0,1.0,2674.993896,
94.47921,265.740051,266.933502,7.741257,0.452837,7.741257,0.452837,270.000153,270.0,383.015991,74.616463,1206.043213,294.873383,275.982422,0.102003,0.164634,1185.369385,4.2E-5,0.154253,0.1,0.0,1.0,2675.167725,
94.44487,269.778168,270.971619,7.751995,0.838463,7.751995,0.838463,270.000153,270.0,387.042786,74.659538,1209.839233,295.039307,275.978485,0.124336,0.183629,1185.369385,-0.002156,0.154825,0.1,0.0,1.0,2675.25293,
94.398094,275.851257,277.044708,7.751381,1.411675,7.751381,1.411675,280.000153,280.0,393.104065,74.719849,1214.165405,295.139282,275.987793,0.14974,0.185385,1185.369385,-0.003993,0.15504,0.1,0.0,1.0,2675.350586,
94.373825,279.910767,281.104218,7.746373,1.741509,7.746373,1.741509,280.000153,280.0,397.154236,74.757355,1215.702759,295.128448,276.003845,0.158577,0.173292,1185.369385,-0.006722,0.155028,0.1,0.0,1.0,2675.407471,
94.348633,286.014496,287.207947,7.738283,2.090383,7.738283,2.090383,290.000153,290.0,403.235138,74.809959,1216.329224,295.065552,276.041168,0.159299,0.147318,1185.369385,-0.008293,0.154927,0.1,0.0,1.0,2675.49585,
94.337967,290.091553,291.284973,7.732269,2.229478,7.732269,2.229478,290.000153,290.0,407.288971,74.842827,1215.895142,295.036499,276.07373,0.153674,0.132357,1185.369385,-0.009954,0.154766,0.1,0.0,1.0,2675.562256,
94.327583,296.215363,297.408783,7.723905,2.326984,7.723905,2.326984,300.000153,300.0,413.365234,74.889168,1214.560425,295.068512,276.132477,0.141483,0.122247,1185.369385,-0.010617,0.154645,0.1,0.0,1.0,2675.674805,
94.321915,300.301361,301.494781,7.718427,2.355464,7.718427,2.355464,300.000153,300.0,417.412018,74.918228,1213.556274,295.154816,276.177917,0.134198,0.125789,1185.369385,-0.011081,0.154478,0.1,0.0,1.0,2675.757324,
94.311127,306.432678,307.626099,7.713573,2.401301,7.713573,2.401301,310.000153,310.0,423.476563,74.959198,1212.393555,295.373596,276.255768,0.128295,0.144352,1185.369385,-0.011216,0.154369,0.1,0.0,1.0,2675.88623,
94.300674,310.52063,311.714081,7.712001,2.459687,7.712001,2.459687,310.000153,310.0,427.517181,74.984779,1212.046265,295.56012,276.314819,0.128541,0.162089,1185.369385,-0.011435,0.154271,0.1,0.0,1.0,2675.971436,
94.279472,316.652344,317.845795,7.711828,2.605036,7.711828,2.605036,320.000153,320.0,433.577423,75.020561,1212.1604,295.859131,276.415527,0.134201,0.189516,1185.369385,-0.011713,0.15424,0.1,0.0,1.0,2676.091553,
94.262627,320.73996,321.933411,7.711786,2.736572,7.711786,2.736572,320.000153,320.0,437.618561,75.042679,1212.530762,296.049377,276.491516,0.140008,0.204791,1185.369385,-0.012405,0.154237,0.1,0.0,1.0,2676.164795,
94.23613,326.870392,328.063812,7.710334,2.956666,7.710334,2.956666,330.000153,330.0,443.682831,75.073273,1213.12207,296.298401,276.619598,0.148754,0.219697,1185.369385,-0.013031,0.154236,0.1,0.0,1.0,2676.265625,
94.219505,330.958496,332.151917,7.70821,3.102472,7.70821,3.102472,330.000153,330.0,447.72702,75.09201,1213.328857,296.437561,276.714508,0.153178,0.224209,1185.369385,-0.014079,0.154207,0.1,0.0,1.0,2676.328613,
94.197769,337.090942,338.284393,7.703685,3.288158,7.703685,3.288158,340.000153,340.0,453.793518,75.11776,1213.166016,296.617279,276.870667,0.156328,0.225016,1185.369385,-0.014774,0.154164,0.1,0.0,1.0,2676.421875,
94.18573,341.179169,342.37262,7.699605,3.384306,7.699605,3.384306,340.000153,340.0,457.8367,75.133469,1212.711548,296.729584,276.98349,0.156154,0.223795,1185.369385,-0.015658,0.154074,0.1,0.0,1.0,2676.48584,
94.170845,347.310577,348.503998,7.693081,3.48275,7.693081,3.48275,350.000153,350.0,463.897644,75.155006,1211.634033,296.907928,277.164856,0.153469,0.222858,1185.369385,-0.016116,0.153992,0.1,0.0,1.0,2676.58667,
94.162346,351.396912,352.590363,7.688057,3.526456,7.688057,3.526456,350.000153,350.0,467.934937,75.168114,1210.759277,297.042542,277.293304,0.151045,0.224361,1185.369385,-0.016585,0.153862,0.1,0.0,1.0,2676.657715,
94.15033,357.523468,358.716919,7.681334,3.574473,7.681334,3.574473,360.000153,360.0,473.985291,75.186028,1209.432617,297.274506,277.496613,0.147946,0.230667,1185.369385,-0.016793,0.153761,0.1,0.0,1.0,2676.768555,
94.141121,361.604248,362.797699,7.676946,3.605736,7.676946,3.605736,360.000153,360.0,478.01535,75.196846,1208.64563,297.447357,277.639008,0.146867,0.237193,1185.369385,-0.017021,0.153627,0.1,0.0,1.0,2676.844727,
94.128433,367.723297,368.916748,7.671838,3.66271,7.671838,3.66271,370.000153,370.0,484.056061,75.211472,1207.704102,297.724396,277.862488,0.147074,0.24874,1185.369385,-0.01717,0.153539,0.1,0.0,1.0,2676.959229,
94.118599,371.799744,372.993195,7.668627,3.710751,7.668627,3.710751,370.000153,370.0,488.080902,75.220177,1207.237183,297.913727,278.017975,0.148238,0.256417,1185.369385,-0.017441,0.153437,0.1,0.0,1.0,2677.034912,
94.10305,377.910126,379.103577,7.664758,3.794038,7.664758,3.794038,380.000153,380.0,494.115631,75.231712,1206.691162,298.194153,278.260529,0.150767,0.26619,1185.369385,-0.01767,0.153373,0.1,0.0,1.0,2677.146973,
94.092598,381.981049,383.174469,7.662073,3.853597,7.662073,3.853597,380.000153,380.0,498.137421,75.238419,1206.372314,298.374969,278.428162,0.152477,0.271026,1185.369385,-0.018067,0.153295,0.1,0.0,1.0,2677.220459,
94.077553,388.083588,389.277039,7.658214,3.9382,7.658214,3.9382,390.000153,390.0,504.167969,75.247086,1205.844971,298.635834,278.687744,0.15436,0.27571,1185.369385,-0.01835,0.153241,0.1,0.0,1.0,2677.330322,
94.068237,392.149536,393.342987,7.655211,3.988278,7.655211,3.988278,390.000153,390.0,508.186737,75.251984,1205.419922,298.80481,278.865662,0.154968,0.277562,1185.369385,-0.018753,0.153164,0.1,0.0,1.0,2677.404053,
94.060219,398.244812,399.438263,7.650708,4.048217,7.650708,4.048217,400.000153,400.0,514.211914,75.258102,1204.658569,299.056671,279.138824,0.154874,0.27947,1185.369385,-0.018992,0.153104,0.1,0.0,1.0,2677.51709,
Command_Fault: set /instrumentation/vertical-speed-indicator/serviceable true
94.072174,402.305847,403.499298,7.647194,4.077003,7.647194,4.077003,400.000153,400.0,518.226624,75.261414,1204.173706,299.228058,279.324524,0.153765,0.280943,1185.369385,-0.019277,0.153014,0.1,0.0,1.0,2677.607422,
94.051682,408.393616,409.587067,7.642642,4.099531,7.642642,4.099531,410.000153,410.0,524.245605,75.265327,1203.311157,299.501251,279.607483,0.150895,0.285032,4562.152832,-0.019414,0.152944,0.1,0.0,1.0,2677.753174,
94.015495,412.449463,413.642914,7.640122,4.103386,7.640122,4.103386,410.000153,410.0,528.254944,75.267296,1202.313721,299.69931,279.798645,0.148537,0.289736,4406.488281,-0.019522,0.152853,0.1,0.0,1.0,2677.819336,
93.96209,418.528595,419.722046,7.635081,4.102373,7.635081,4.102373,420.000153,420.0,534.262085,75.269379,1200.552124,300.023438,280.088745,0.145743,0.300037,4176.860352,-0.01954,0.152802,0.1,0.0,1.0,2677.880371,
93.92662,422.577728,423.771149,7.629699,4.105295,7.629699,4.105295,420.000153,420.0,538.261719,75.270226,1199.231689,300.254639,280.284302,0.144928,0.308518,4026.522461,-0.019535,0.152702,0.1,0.0,1.0,2677.902832,
93.873375,428.645081,429.838531,7.620954,4.12447,7.620954,4.12447,430.000153,430.0,544.25238,75.270729,1197.083984,300.614136,280.580963,0.145449,0.321964,3805.452148,-0.019549,0.152594,0.1,0.0,1.0,2677.917969,
93.83799,432.685303,433.878754,7.614591,4.148464,7.614591,4.148464,430.000153,430.0,548.240112,75.270584,1195.593872,300.855347,280.781067,0.146697,0.330304,3661.227783,-0.01964,0.152419,0.1,0.0,1.0,2677.918457,
93.785713,438.737793,439.931244,7.605854,4.196604,7.605854,4.196604,440.000153,440.0,554.212219,75.269684,1193.313721,301.210297,281.084808,0.149133,0.340473,3449.994873,-0.019755,0.152292,0.1,0.0,1.0,2677.910156,
93.751854,442.767212,443.960663,7.599168,4.232435,7.599168,4.232435,440.000153,440.0,558.187256,75.268661,1191.734741,301.439423,281.289642,0.150652,0.345328,3312.80835,-0.019984,0.152117,0.1,0.0,1.0,2677.900635,
93.70327,448.802399,449.99585,7.589089,4.281958,7.589089,4.281958,450.000153,450.0,564.139465,75.266556,1189.188721,301.772095,281.600159,0.152157,0.349955,3112.910645,-0.020154,0.151983,0.1,0.0,1.0,2677.884033,
93.6726,452.81955,454.01297,7.581291,4.308934,7.581291,4.308934,450.000153,450.0,568.100281,75.264824,1187.356079,301.988861,281.809113,0.152505,0.351778,2983.832275,-0.02039,0.151782,0.1,0.0,1.0,2677.873047,
93.629234,458.835052,460.028473,7.569939,4.33636,7.569939,4.33636,460.000153,460.0,574.029602,75.261818,1184.431152,302.312622,282.125092,0.152123,0.353725,2796.973389,-0.020519,0.151626,0.1,0.0,1.0,2677.859619,
93.601967,462.838165,464.031616,7.561434,4.347009,7.561434,4.347009,460.000153,460.0,577.974243,75.25959,1182.405396,302.530731,282.337189,0.151487,0.355082,2677.196777,-0.020649,0.151399,0.1,0.0,1.0,2677.853027,
93.56308,468.831451,470.024872,7.549552,4.354779,7.549552,4.354779,470.000153,470.0,583.878296,75.255974,1179.329224,302.865143,282.657196,0.150397,0.35785,2505.236572,-0.0207,0.151229,0.1,0.0,1.0,2677.848145,
93.538246,472.819,474.012421,7.540999,4.357605,7.540999,4.357605,470.000153,470.0,587.805908,75.253418,1177.306152,303.093414,282.871643,0.149821,0.360265,2396.033936,-0.020737,0.150991,0.1,0.0,1.0,2677.8479,
93.50222,478.787994,479.981445,7.529577,4.36273,7.529577,4.36273,480.000153,480.0,593.684814,75.24942,1174.36438,303.442596,283.194794,0.149417,0.364522,2240.895996,-0.020751,0.15082,0.1,0.0,1.0,2677.852051,
93.478889,482.759003,483.952454,7.521589,4.368438,7.521589,4.368438,480.000153,480.0,597.59613,75.246666,1172.493408,303.678009,283.411194,0.149479,0.367475,2143.531006,-0.020775,0.150592,0.1,0.0,1.0,2677.857422,
93.444878,488.703003,489.896454,7.511071,4.381111,7.511071,4.381111,490.000153,490.0,603.451599,75.242447,1169.808716,304.031952,283.737122,0.149943,0.371571,2007.016113,-0.020802,0.150432,0.1,0.0,1.0,2677.869141,
93.422913,492.657379,493.85083,7.503703,4.391708,7.503703,4.391708,490.000153,490.0,607.348022,75.239594,1168.098511,304.266754,283.955261,0.150369,0.373829,1922.577637,-0.020862,0.150221,0.1,0.0,1.0,2677.879395,
93.391159,498.576691,499.770142,7.493858,4.408332,7.493858,4.408332,500.000153,500.0,613.182007,75.235291,1165.605347,304.615936,284.283508,0.150949,0.376355,1806.051147,-0.020913,0.150074,0.1,0.0,1.0,2677.898438,
Command_Fault: set /instrumentation/vertical-speed-indicator/serviceable false
93.37088,502.514862,503.708313,7.486861,4.418636,7.486861,4.418636,500.000153,500.0,617.064575,75.23243,1163.984131,304.846619,284.50296,0.151197,0.377493,1735.207642,-0.020992,0.149877,0.1,0.0,1.0,2677.913818,
93.341866,508.410309,509.60376,7.47738,4.430742,7.47738,4.430742,510.000153,510.0,622.878296,75.228195,1161.584717,305.190765,284.832764,0.151284,0.378644,1701.842896,-0.021041,0.149737,0.1,0.0,1.0,2677.941162,
93.323448,512.332886,513.526306,7.470602,4.43628,7.470602,4.43628,510.000153,510.0,626.747559,75.224556,1160.013184,305.419861,285.052917,0.151172,0.379215,1701.842896,-0.021099,0.149548,0.1,0.0,1.0,2677.962402,
93.297112,518.205322,519.398743,7.461446,4.440857,7.461446,4.440857,520.000122,520.0,632.541626,75.217987,1157.697266,305.764648,285.383301,0.150844,0.380085,1701.842896,-0.021125,0.149412,0.1,0.0,1.0,2677.998779,
93.280327,522.112793,523.306274,7.454961,4.442159,7.454961,4.442159,520.000122,520.0,636.39801,75.213776,1156.198608,305.99585,285.603577,0.150596,0.380769,1701.842896,-0.021147,0.149229,0.1,0.0,1.0,2678.025879,
93.256134,527.963013,529.156494,7.446337,4.442885,7.446337,4.442885,530.000122,530.0,642.17334,75.207733,1154.026123,306.345062,285.933868,0.150294,0.382024,1701.842896,-0.021153,0.149099,0.1,0.0,1.0,2678.071045,
93.240601,531.856018,533.049438,7.440308,4.443336,7.440308,4.443336,530.000122,530.0,646.0177,75.203903,1152.643677,306.579132,286.153839,0.150179,0.382959,1701.842896,-0.021157,0.148927,0.1,0.0,1.0,2678.10376,
93.218079,537.684998,538.878479,7.43238,4.444842,7.43238,4.444842,540.000122,540.0,651.775757,75.198486,1150.662231,306.931458,286.48349,0.15015,0.384394,1701.842896,-0.021159,0.148806,0.1,0.0,1.0,2678.156494,
93.203575,541.564209,542.757629,7.426865,4.446533,7.426865,4.446533,540.000122,540.0,655.609131,75.195091,1149.408691,307.166473,286.702942,0.150205,0.38527,1701.842896,-0.021166,0.148648,0.1,0.0,1.0,2678.194092,
93.182571,547.373169,548.56665,7.419599,4.449811,7.419599,4.449811,550.000122,550.0,661.351501,75.190353,1147.608643,307.518555,287.031616,0.150337,0.386369,1701.842896,-0.021174,0.148537,0.1,0.0,1.0,2678.253906,
93.16909,551.239502,552.432922,7.414518,4.452136,7.414518,4.452136,550.000122,550.0,665.174866,75.187447,1146.462402,307.752655,287.250336,0.150419,0.386917,1701.842896,-0.02119,0.148392,0.1,0.0,1.0,2678.295898,
93.149666,557.029785,558.223206,7.407767,4.455103,7.407767,4.455103,560.000122,560.0,670.902893,75.183464,1144.802002,308.102936,287.577698,0.150482,0.387497,1701.842896,-0.021201,0.14829,0.1,0.0,1.0,2678.362061,
93.13726,560.884033,562.077515,7.403018,4.456451,7.403018,4.456451,560.000122,560.0,674.717041,75.181076,1143.736328,308.335999,287.79541,0.150472,0.387754,1701.842896,-0.021215,0.148155,0.1,0.0,1.0,2678.408447,
93.119438,566.656921,567.850403,7.396683,4.457258,7.396683,4.457258,570.000122,570.0,680.431702,75.17791,1142.187378,308.685455,288.121155,0.150385,0.38805,1701.842896,-0.021221,0.14806,0.1,0.0,1.0,2678.480957,
93.108063,570.5,571.69342,7.392226,4.457044,7.392226,4.457044,570.000122,570.0,684.237305,75.176086,1141.194214,308.918549,288.337708,0.150295,0.388229,1701.842896,-0.021225,0.147934,0.1,0.0,1.0,2678.531494,
93.09169,576.256592,577.450012,7.386307,4.455923,7.386307,4.455923,580.000122,580.0,689.939514,75.17379,1139.75769,309.268799,288.661621,0.150151,0.38854,1701.842896,-0.021224,0.147845,0.1,0.0,1.0,2678.610352,
93.081207,580.089111,581.282593,7.382167,4.454872,7.382167,4.454872,580.000122,580.0,693.737122,75.172569,1138.843262,309.502655,288.876892,0.150066,0.388775,1701.842896,-0.021219,0.147726,0.1,0.0,1.0,2678.664795,
93.066055,585.830505,587.023987,7.376704,4.453282,7.376704,4.453282,590.000122,590.0,699.427917,75.171196,1137.530151,309.854004,289.198883,0.149978,0.389171,1701.842896,-0.021214,0.147643,0.1,0.0,1.0,2678.749512,
93.056328,589.65332,590.846741,7.372899,4.452332,7.372899,4.452332,590.000122,590.0,703.218262,75.170593,1136.699341,310.088409,289.412903,0.149947,0.389431,1701.842896,-0.021206,0.147534,0.1,0.0,1.0,2678.807617,
93.042274,595.380554,596.573975,7.367886,4.451213,7.367886,4.451213,590.000122,590.0,708.898682,75.170166,1135.509521,310.440063,289.733032,0.149934,0.389787,1701.842896,-0.021202,0.147458,0.1,0.0,1.0,2678.897217,
