airspeed_indicator_indicated_speed_kt,altimeter_indicated_altitude_ft,altimeter_pressure_alt_ft,attitude_indicator_indicated_pitch_deg,attitude_indicator_indicated_roll_deg,attitude_indicator_internal_pitch_deg,attitude_indicator_internal_roll_deg,encoder_indicated_altitude_ft,encoder_pressure_alt_ft,gps_indicated_altitude_ft,gps_indicated_ground_speed_kt,gps_indicated_vertical_speed,indicated_heading_deg,magnetic_compass_indicated_heading_deg,slip_skid_ball_indicated_slip_skid,turn_indicator_indicated_turn_rate,vertical_speed_indicator_indicated_speed_fpm,flight_aileron,flight_elevator,flight_rudder,flight_flaps,engine_throttle,engine_rpm,
Command: takeoff
4.092687,-97.011917,-95.818474,2.987228,1.423072,2.594991,0.115616,-99.999855,-100.0,2.286546,0.0,0.007972,297.86908,275.929993,0.009053,-0.050979,-13.360954,-0.0,0.0,0.0,0.0,0.0,598.290222,
4.070936,-97.02906,-95.835617,2.985378,1.417149,2.595132,0.116331,-99.999855,-100.0,2.286574,0.0,0.007905,297.868286,278.224457,0.00893,-0.046095,-17.570955,-0.0,0.0,0.0,0.0,0.0,598.310181,
4.090685,-97.049103,-95.855659,2.78632,0.778596,2.587842,0.117003,-99.999855,-100.0,2.286577,2.9E-5,-0.009312,297.867004,281.637177,0.008626,-0.039662,-12.283112,-0.020245,0.051903,4.0E-5,0.0,1.0,670.929016,
4.131647,-97.063942,-95.870499,2.589282,0.236579,2.552846,0.115128,-99.999855,-100.0,2.286459,2.13E-4,-0.0343,297.865509,284.964325,0.008129,-0.034226,-19.295254,-0.011123,0.051757,1.04E-4,0.0,1.0,851.967224,
4.194705,-97.071648,-95.878197,2.5259,0.11166,2.525885,0.111611,-99.999855,-100.0,2.286387,7.56E-4,-0.004589,297.864349,287.109161,0.008152,-0.031109,-18.741835,-0.005233,0.051347,1.53E-4,0.0,1.0,1005.200806,
4.377707,-97.08065,-95.887207,2.522235,0.102497,2.522235,0.102497,-99.999855,-100.0,2.286529,0.003987,0.060762,297.861908,290.182373,0.008969,-0.027162,-12.997708,-0.001595,0.050518,2.37E-4,0.0,1.0,1249.649414,
4.569405,-97.085266,-95.891823,2.538609,0.094422,2.538609,0.094422,-99.999855,-100.0,2.286798,0.009134,0.101091,297.859497,292.117188,0.010808,-0.025038,-9.867279,-0.001514,0.050375,3.11E-4,0.0,1.0,1407.411377,
4.969884,-97.090561,-95.897118,2.57588,0.080622,2.57588,0.080622,-99.999855,-100.0,2.287441,0.023983,0.157499,297.852814,294.821167,0.020173,-0.02276,-11.070126,-0.001349,0.050772,4.79E-4,0.0,1.0,1619.89502,
5.326553,-97.093285,-95.899841,2.604121,0.070913,2.604121,0.070913,-99.999855,-100.0,2.288042,0.040982,0.186506,297.844025,296.54422,0.027377,-0.022037,-11.982171,-0.001219,0.051253,6.65E-4,0.0,1.0,1745.425659,
5.924256,-97.096054,-95.902611,2.641223,0.058408,2.641223,0.058408,-99.999855,-100.0,2.289094,0.076347,0.245828,297.823181,298.724121,0.038452,-0.022493,-13.116894,-0.001013,0.052082,0.001253,0.0,1.0,1889.178345,
6.392067,-97.097366,-95.903923,2.662801,0.051264,2.662801,0.051264,-99.999855,-100.0,2.289957,0.109577,0.277079,297.800903,300.053009,0.045668,-0.024015,-18.657364,-8.34E-4,0.052824,0.002295,0.0,1.0,1967.518188,
6.392067,-97.097366,-95.903923,2.662801,0.051264,2.662801,0.051264,-99.999855,-100.0,2.289957,0.109577,0.277079,297.800903,300.053009,0.045668,-0.024015,-18.657364,-8.34E-4,0.052824,0.002295,0.0,1.0,1967.518188,
7.745995,-97.099327,-95.905876,2.699825,0.04116,2.699825,0.04116,-99.999855,-100.0,2.292737,0.231531,0.376965,297.712402,302.788696,0.034592,-0.03194,-16.405825,-7.32E-4,0.053256,0.003409,0.0,1.0,2105.796875,
8.621766,-97.099274,-95.90583,2.71203,0.039652,2.71203,0.039652,-99.999855,-100.0,2.294797,0.330804,0.446201,297.635742,303.957184,0.029961,-0.039334,-16.201702,-5.88E-4,0.053996,0.007834,0.0,1.0,2156.454102,
9.228848,-97.09893,-95.905487,2.716324,0.040698,2.716324,0.040698,-99.999855,-100.0,2.296369,0.408733,0.495407,297.578918,304.550293,0.027195,-0.044514,-14.699954,-5.68E-4,0.054174,0.01022,0.0,1.0,2181.043457,
10.137557,-97.098015,-95.904572,2.72003,0.044733,2.72003,0.044733,-99.999855,-100.0,2.298971,0.539439,0.572682,297.486084,305.150726,0.023643,-0.052694,-9.667889,-5.81E-4,0.054326,0.014508,0.0,1.0,2206.964355,
10.771904,-97.097122,-95.903679,2.721322,0.048973,2.721322,0.048973,-99.999855,-100.0,2.300976,0.640777,0.62708,297.417206,305.384155,0.021281,-0.058422,5.143686,-6.39E-4,0.054401,0.01915,0.0,1.0,2219.46582,
11.735092,-97.09539,-95.901947,2.722095,0.057313,2.722095,0.057313,-99.999855,-100.0,2.304333,0.810515,0.712763,297.310883,305.470703,0.017275,-0.066397,16.075794,-7.0E-4,0.054426,0.022594,0.0,1.0,2232.27002,
12.381899,-97.093987,-95.900536,2.722226,0.063937,2.722226,0.063937,-99.999855,-100.0,2.306808,0.935352,0.769706,297.237,305.359344,0.014558,-0.071536,10.176919,-8.19E-4,0.054442,0.02791,0.0,1.0,2237.786865,
13.356261,-97.091499,-95.898048,2.72213,0.075206,2.72213,0.075206,-99.999855,-100.0,2.310884,1.139795,0.857064,297.127563,304.952728,0.010644,-0.078036,9.844381,-9.13E-4,0.054445,0.031604,0.0,1.0,2242.75708,
14.007019,-97.089592,-95.896149,2.722081,0.083539,2.722081,0.083539,-99.999855,-100.0,2.313845,1.287321,0.915247,297.054291,304.531494,0.008051,-0.081911,18.775221,-0.001074,0.054443,0.037076,0.0,1.0,2244.47998,
15.010405,-97.086273,-95.89283,2.722122,0.097683,2.722122,0.097683,-99.999855,-100.0,2.318794,1.531901,1.009036,296.945435,303.66629,0.003998,-0.086452,10.503071,-0.001193,0.054442,0.040739,0.0,1.0,2247.333496,
15.633492,-97.083984,-95.890541,2.722409,0.107138,2.722409,0.107138,-99.999855,-100.0,2.322108,1.694174,1.066582,296.880493,303.007874,0.002233,-0.088498,8.674969,-0.001326,0.054441,0.044452,0.0,1.0,2249.354004,
16.635506,-97.07991,-95.886467,2.723533,0.122172,2.723533,0.122172,-99.999855,-100.0,2.327822,1.971247,1.158696,296.776581,301.777374,-0.002149,-0.09133,16.692001,-0.001531,0.054448,0.049429,0.0,1.0,2252.724121,
17.28433,-97.077026,-95.883583,2.724905,0.129977,2.724905,0.129977,-99.999855,-100.0,2.331784,2.16128,1.218922,296.714569,300.879822,-0.004482,-0.092079,17.844545,-0.001676,0.05446,0.052835,0.0,1.0,2254.904297,
18.228611,-97.072464,-95.879021,2.727749,0.139488,2.727749,0.139488,-99.999855,-100.0,2.337919,2.452544,1.306213,296.633667,299.453461,-0.006745,-0.091582,15.461772,-0.001857,0.054498,0.057726,0.0,1.0,2258.005859,
18.847013,-97.069244,-95.875801,2.730023,0.145091,2.730023,0.145091,-99.999855,-100.0,2.342181,2.652853,1.360309,296.588684,298.453156,-0.00777,-0.090012,18.050543,-0.001993,0.054555,0.061771,0.0,1.0,2259.978271,
19.866438,-97.063538,-95.870094,2.734204,0.153511,2.734204,0.153511,-99.999855,-100.0,2.349621,2.998829,1.454332,296.531677,296.717499,-0.007903,-0.085016,7.018567,-0.002073,0.0546,0.06402,0.0,1.0,2263.115479,
20.508255,-97.059677,-95.866226,2.737116,0.158663,2.737116,0.158663,-99.999855,-100.0,2.354575,3.226741,1.513252,296.50531,295.583069,-0.007189,-0.080761,14.877328,-0.002149,0.054652,0.065944,0.0,1.0,2265.022705,
21.442047,-97.053696,-95.860252,2.741621,0.166327,2.741621,0.166327,-99.999855,-100.0,2.362151,3.571771,1.599236,296.474396,293.899139,-0.005935,-0.074152,18.114254,-0.002267,0.054742,0.068189,0.0,1.0,2267.713623,
22.080755,-97.049355,-95.855911,2.744744,0.17184,2.744744,0.17184,-99.999855,-100.0,2.367587,3.816821,1.657185,296.45636,292.737549,-0.004981,-0.069666,14.75811,-0.002342,0.054804,0.06929,0.0,1.0,2269.504883,
23.064327,-97.04229,-95.848846,2.749771,0.181104,2.749771,0.181104,-99.999855,-100.0,2.376351,4.207682,1.751409,296.426361,290.959534,-0.00427,-0.063976,11.268141,-0.002455,0.054895,0.070636,0.0,1.0,2272.195801,
23.674059,-97.037666,-95.844223,2.752896,0.187316,2.752896,0.187316,-99.999855,-100.0,2.382032,4.458431,1.803663,296.40387,289.873993,-0.004478,-0.061472,7.355018,-0.00254,0.05496,0.071577,0.0,1.0,2273.833252,
24.627661,-97.030045,-95.836601,2.762094,0.20152,2.762094,0.20152,-99.999855,-100.0,2.391691,4.862513,2.022124,296.358307,288.224701,-0.005886,-0.059554,7.158183,-0.002676,0.055058,0.073261,0.0,1.0,2276.35376,
25.289234,-97.024399,-95.830956,2.767917,0.211866,2.767917,0.211866,-99.999855,-100.0,2.399076,5.151225,2.175235,296.31778,287.12619,-0.009119,-0.059786,10.69306,-0.002879,0.055242,0.075539,0.0,1.0,2278.07959,
26.213717,-97.015953,-95.82251,2.772538,0.223287,2.772538,0.223287,-99.999855,-100.0,2.409873,5.566215,2.263798,296.251373,285.668457,-0.013859,-0.061621,14.158141,-0.003027,0.055358,0.077565,0.0,1.0,2280.470215,
26.847193,-97.009819,-95.816376,2.77587,0.231122,2.77587,0.231122,-99.999855,-100.0,2.417536,5.857854,2.329719,296.199402,284.731018,-0.017927,-0.063744,18.278891,-0.00319,0.055451,0.080885,0.0,1.0,2282.095947,
27.795036,-97.000137,-95.806686,2.781258,0.242252,2.781258,0.242252,-99.999855,-100.0,2.429435,6.305758,2.425986,296.117004,283.431732,-0.024164,-0.067192,15.543972,-0.003302,0.055517,0.083484,0.0,1.0,2284.518799,
28.451694,-96.993073,-95.799629,2.785364,0.249746,2.785364,0.249746,-99.999855,-100.0,2.437987,6.623961,2.494151,296.058411,282.611176,-0.028676,-0.069501,11.798234,-0.003461,0.055625,0.087604,0.0,1.0,2286.192383,
29.394781,-96.982445,-95.789001,2.791446,0.259564,2.791446,0.259564,-99.999855,-100.0,2.450715,7.092135,2.595878,295.979431,281.555603,-0.033637,-0.071548,12.572262,-0.003568,0.055707,0.090533,0.0,1.0,2288.591553,
29.994284,-96.975372,-95.781929,2.795599,0.265496,2.795599,0.265496,-99.999855,-100.0,2.459103,7.397223,2.653425,295.932709,280.962433,-0.035713,-0.07212,8.02979,-0.003708,0.055829,0.094482,0.0,1.0,2290.118408,
30.956089,-96.963554,-95.770111,2.8023,0.273962,2.8023,0.273962,-99.999855,-100.0,2.473011,7.897459,2.754918,295.867828,280.145447,-0.037875,-0.07132,16.827377,-0.003793,0.055912,0.096819,0.0,1.0,2292.56665,
31.577215,-96.955605,-95.762161,2.806767,0.279108,2.806767,0.279108,-99.999855,-100.0,2.482305,8.227978,2.819029,295.832489,279.707397,-0.037993,-0.069813,17.343056,-0.003872,0.055998,0.099001,0.0,1.0,2294.14917,
32.453342,-96.943939,-95.750488,2.818849,0.285918,2.818849,0.285918,-99.999855,-100.0,2.496308,8.70407,3.249621,295.788391,279.211243,-0.03714,-0.067029,10.65998,-0.003987,0.056135,0.10183,0.0,1.0,2296.38501,
33.095024,-96.934914,-95.74147,2.825344,0.29139,2.825344,0.29139,-99.999855,-100.0,2.507719,9.05983,3.313833,295.758453,278.938812,-0.03633,-0.06486,16.436625,-0.004085,0.056377,0.104034,0.0,1.0,2298.024414,
34.04155,-96.920792,-95.727348,2.831506,0.299658,2.831506,0.299658,-99.999855,-100.0,2.525018,9.594888,3.413551,295.7146,278.676239,-0.034997,-0.061977,20.142719,-0.004163,0.056507,0.105531,0.0,1.0,2300.44458,
34.653835,-96.911217,-95.717773,2.835591,0.305473,2.835591,0.305473,-99.999855,-100.0,2.536523,9.947224,3.482419,295.68457,278.593079,-0.03469,-0.060595,17.031214,-0.004238,0.056588,0.106949,0.0,1.0,2302.011719,
35.544624,-96.89666,-95.703217,2.841932,0.314634,2.841932,0.314634,-99.999855,-100.0,2.553715,10.46821,3.583778,295.634125,278.589203,-0.035396,-0.059872,11.575078,-0.004364,0.056712,0.109225,0.0,1.0,2304.293213,
36.179459,-96.88588,-95.692436,2.846558,0.32166,2.846558,0.32166,-99.999855,-100.0,2.566298,10.845379,3.656699,295.59198,278.667267,-0.037241,-0.060379,14.185113,-0.004495,0.056839,0.111748,0.0,1.0,2305.921143,
37.0914,-96.86982,-95.676376,2.853091,0.332033,2.853091,0.332033,-99.999855,-100.0,2.584863,11.395594,3.761609,295.523529,278.889435,-0.041136,-0.062212,14.97893,-0.004595,0.056931,0.113855,0.0,1.0,2308.263184,
37.672741,-96.859245,-95.665802,2.85725,0.338746,2.85725,0.338746,-99.999855,-100.0,2.596993,11.751354,3.812389,295.475922,279.093872,-0.043817,-0.063842,14.32828,-0.004689,0.057015,0.115997,0.0,1.0,2309.758301,
38.604122,-96.841583,-95.64814,2.867899,0.34867,2.867899,0.34867,-99.999855,-100.0,2.618393,12.330314,4.321294,295.393616,279.514221,-0.049921,-0.067036,9.56886,-0.004839,0.057145,0.119658,0.0,1.0,2312.161621,
39.155792,-96.830582,-95.637138,2.874019,0.356931,2.874019,0.356931,-99.999855,-100.0,2.631747,12.67831,4.409758,295.342682,279.811859,-0.053128,-0.068976,12.49172,-0.004981,0.057358,0.123773,0.0,1.0,2313.589355,
40.080566,-96.811279,-95.617836,2.881891,0.367949,2.881891,0.367949,-99.999855,-100.0,2.654768,13.269629,4.541531,295.259918,280.380676,-0.058438,-0.071401,17.815186,-0.005099,0.05748,0.12632,0.0,1.0,2315.987549,
40.702686,-96.797707,-95.604263,2.88685,0.374316,2.88685,0.374316,-99.999855,-100.0,2.670689,13.673309,4.624367,295.206512,280.806,-0.06169,-0.072463,18.441925,-0.005256,0.057638,0.130458,0.0,1.0,2317.605469,
41.594128,-96.777466,-95.584023,2.893692,0.381823,2.893692,0.381823,-99.999855,-100.0,2.69411,14.260226,4.738019,295.138336,281.463928,-0.064176,-0.072445,11.641396,-0.005347,0.057737,0.133128,0.0,1.0,2319.931152,
42.13644,-96.764717,-95.571274,2.898097,0.386054,2.898097,0.386054,-99.999855,-100.0,2.708723,14.622041,4.924961,295.100922,281.886322,-0.064678,-0.071793,20.407349,-0.005455,0.057874,0.136537,0.0,1.0,2321.349365,
43.043888,-96.742485,-95.549042,2.912484,0.394162,2.912484,0.394162,-99.999855,-100.0,2.73577,15.235684,5.43869,295.046265,282.61969,-0.063956,-0.069504,13.612163,-0.005515,0.057962,0.138408,0.0,1.0,2323.737549,
43.628578,-96.727333,-95.53389,2.917345,0.398265,2.917345,0.398265,-99.999855,-100.0,2.754013,15.637032,5.505481,295.013031,283.104095,-0.062704,-0.067918,10.313821,-0.005631,0.05825,0.141141,0.0,1.0,2325.811523,
44.503559,-96.70369,-95.510246,2.923258,0.404247,2.923258,0.404247,-99.999855,-100.0,2.78185,16.24371,5.622684,294.965027,283.832458,-0.06011,-0.065534,11.24077,-0.005689,0.058347,0.142802,0.0,1.0,2330.041504,
45.110096,-96.686684,-95.49324,2.927809,0.408938,2.927809,0.408938,-99.999855,-100.0,2.801535,16.668182,5.713994,294.930084,284.333069,-0.058466,-0.064363,15.240843,-0.005775,0.058465,0.145203,0.0,1.0,2333.479248,
45.956432,-96.662109,-95.468658,2.934226,0.415616,2.934226,0.415616,-99.999855,-100.0,2.829589,17.26663,5.826507,294.877045,285.017181,-0.05725,-0.063555,12.71618,-0.005842,0.058556,0.14695,0.0,1.0,2338.701172,
46.560745,-96.644066,-95.450623,2.93918,0.420812,2.93918,0.420812,-99.999855,-100.0,2.850019,17.696985,5.949873,294.834473,285.488281,-0.057103,-0.063797,18.968454,-0.005937,0.058685,0.149602,0.0,1.0,2342.616699,
47.404167,-96.617836,-95.424393,2.956438,0.438426,2.956438,0.438426,-99.999855,-100.0,2.882304,18.303366,6.862809,294.769897,286.115021,-0.05818,-0.064621,16.293093,-0.006012,0.058784,0.15173,0.0,1.0,2348.25293,
47.981888,-96.598946,-95.405502,2.961051,0.443598,2.961051,0.443598,-99.999855,-100.0,2.905323,18.721697,6.94062,294.7211,286.518158,-0.059943,-0.065992,15.869128,-0.006263,0.059129,0.154959,0.0,1.0,2352.183838,
48.871639,-96.568634,-95.375191,2.966549,0.451082,2.966549,0.451082,-99.999855,-100.0,2.94135,19.370499,7.073231,294.642944,287.089996,-0.063732,-0.068286,18.985514,-0.006337,0.059221,0.157399,0.0,1.0,2358.310059,
49.44788,-96.548141,-95.354698,2.970664,0.45576,2.970664,0.45576,-99.999855,-100.0,2.965098,19.793774,7.166015,294.591522,287.425232,-0.066183,-0.069701,16.041473,-0.006396,0.059279,0.1595,0.0,1.0,2362.306885,
50.263149,-96.51825,-95.324806,2.97692,0.461769,2.97692,0.461769,-99.999855,-100.0,2.999275,20.396564,7.29809,294.517609,287.847565,-0.069233,-0.071635,19.900057,-0.006511,0.059413,0.163878,0.0,1.0,2367.990967,
50.88522,-96.494743,-95.3013,2.981781,0.465879,2.981781,0.465879,-99.999855,-100.0,3.025832,20.859932,7.400555,294.463196,288.126434,-0.071293,-0.072606,17.112041,-0.006597,0.059538,0.167574,0.0,1.0,2372.347412,
51.744484,-96.46138,-95.267937,2.988356,0.470416,2.988356,0.470416,-99.999855,-100.0,3.063208,21.504831,7.543181,294.395203,288.446503,-0.072313,-0.072618,17.677309,-0.006655,0.059636,0.170294,0.0,1.0,2378.387207,
52.315643,-96.438652,-95.245209,2.992926,0.473163,2.992926,0.473163,-99.999855,-100.0,3.088516,21.936825,7.636769,294.354095,288.616119,-0.071879,-0.071988,18.047653,-0.00672,0.059767,0.173694,0.0,1.0,2382.415527,
53.146091,-96.404785,-95.211342,2.999292,0.476091,2.999292,0.476091,-99.999855,-100.0,3.125977,22.569654,7.768878,294.301208,288.800018,-0.069715,-0.070076,14.633593,-0.006759,0.059859,0.175749,0.0,1.0,2388.288818,
53.737831,-96.380112,-95.186661,3.003969,0.478054,3.003969,0.478054,-99.999855,-100.0,3.153138,23.023666,7.865346,294.266418,288.885376,-0.066713,-0.068442,18.939137,-0.006801,0.059986,0.178394,0.0,1.0,2392.482666,
54.588131,-96.343895,-95.150452,3.010386,0.480314,3.010386,0.480314,-99.999855,-100.0,3.192834,23.680239,8.002814,294.218597,288.942047,-0.061679,-0.066045,18.141701,-0.006829,0.060079,0.180133,0.0,1.0,2398.519531,
55.131168,-96.320389,-95.126945,3.013886,0.482858,3.013886,0.482858,-99.999855,-100.0,3.218427,24.101379,8.027534,294.186859,288.938385,-0.058689,-0.064885,21.724045,-0.006862,0.060208,0.182524,0.0,1.0,2402.376465,
56.001945,-96.282028,-95.088585,3.019712,0.485195,3.019712,0.485195,-99.999855,-100.0,3.259857,24.781477,8.12752,294.132263,288.869934,-0.052953,-0.063839,19.18586,-0.006898,0.060278,0.184111,0.0,1.0,2408.582031,
56.542973,-96.257858,-95.064415,3.023762,0.48661,3.023762,0.48661,-99.999855,-100.0,3.285979,25.205805,8.215782,294.09436,288.790314,-0.050478,-0.063906,15.340463,-0.006931,0.060394,0.186841,0.0,1.0,2412.441162,
57.411613,-96.2183,-95.024857,3.034518,0.486625,3.034518,0.486625,-99.999855,-100.0,3.330062,25.890816,8.798815,294.028656,288.606445,-0.046409,-0.064772,17.740099,-0.006952,0.060475,0.188736,0.0,1.0,2418.652588,
57.950676,-96.193108,-94.999664,3.043211,0.486882,3.043211,0.486882,-99.999855,-100.0,3.358765,26.318062,9.518779,293.984283,288.459747,-0.045242,-0.065796,19.403538,-0.006952,0.06069,0.192021,0.0,1.0,2422.515869,
58.81493,-96.150993,-94.95755,3.053416,0.487444,3.053416,0.487444,-89.999855,-90.0,3.409234,27.007547,9.883886,293.911987,288.176331,-0.041928,-0.067354,20.04406,-0.006955,0.060864,0.19424,0.0,1.0,2428.732422,
59.374905,-96.122597,-94.929153,3.056669,0.487345,3.056669,0.487345,-89.999855,-90.0,3.44235,27.456158,9.975397,293.86438,287.964111,-0.039658,-0.068357,22.483425,-0.006963,0.061068,0.197855,0.0,1.0,2432.766357,
60.189674,-96.07991,-94.886467,3.061437,0.486287,3.061437,0.486287,-89.999855,-90.0,3.491213,28.112238,10.118526,293.799011,287.61969,-0.036152,-0.068992,14.28654,-0.006962,0.061133,0.200235,0.0,1.0,2438.651367,
60.770439,-96.048531,-94.855087,3.069131,0.48904,3.069131,0.48904,-89.999855,-90.0,3.527151,28.582159,10.625154,293.755646,287.351685,-0.032259,-0.068765,19.630529,-0.006947,0.061229,0.203503,0.0,1.0,2442.889893,
61.580029,-96.00309,-94.809647,3.076827,0.487645,3.076827,0.487645,-89.999855,-90.0,3.580017,29.241768,10.938979,293.702026,286.951172,-0.026424,-0.067518,14.47677,-0.006986,0.061383,0.205672,0.0,1.0,2448.89209,
62.157333,-95.969612,-94.776169,3.080444,0.484926,3.080444,0.484926,-89.999855,-90.0,3.618199,29.714094,11.042683,293.667603,286.650635,-0.019757,-0.066176,20.160095,-0.006966,0.061537,0.208353,0.0,1.0,2453.209717,
62.987091,-95.920128,-94.726685,3.085514,0.479855,3.085514,0.479855,-89.999855,-90.0,3.673827,30.395895,11.201354,293.623901,286.20285,-0.009195,-0.063576,20.71759,-0.006928,0.061609,0.210074,0.0,1.0,2459.453369,
63.538738,-95.886337,-94.692894,3.089232,0.476012,3.089232,0.476012,-89.999855,-90.0,3.71135,30.851469,11.303751,293.596771,285.89798,-0.001032,-0.061767,21.122194,-0.006855,0.06171,0.212259,0.0,1.0,2463.625488,
Command: fly_strait
64.342567,-95.836136,-94.642693,3.098799,0.468574,3.098799,0.468574,-89.999855,-90.0,3.767256,31.517277,12.329133,293.55899,285.44986,0.00998,-0.059201,16.464899,-0.0068,0.061785,0.213615,0.0,1.0,2469.720459,
Command_Fault: set /instrumentation/airspeed-indicator/serviceable false
64.920105,-95.799141,-94.605698,3.108524,0.480219,3.108524,0.480219,-89.999855,-90.0,3.811362,31.993856,12.75671,293.483276,285.130585,0.016067,-0.067857,22.329584,-0.006694,0.061976,0.0,0.0,1.0,2474.080811,
65.21196,-95.745399,-94.551956,3.104069,0.49299,3.104069,0.49299,-89.999855,-90.0,3.873684,32.662628,12.863496,292.665497,284.6875,-0.007499,-0.193904,18.172348,-0.00686,0.06217,0.003786,0.0,1.0,2480.331055,
65.21196,-95.707436,-94.513992,3.095862,0.462481,3.095862,0.462481,-89.999855,-90.0,3.916716,33.122276,12.950418,291.679901,284.383331,-0.05772,-0.339811,18.70141,-0.007043,0.062081,0.044675,0.0,1.0,2484.797119,
65.21196,-95.647507,-94.454063,3.085379,0.373227,3.085379,0.373227,-89.999855,-90.0,3.983792,33.832634,13.156452,289.87381,283.90097,-0.194697,-0.583408,15.417988,-0.006607,0.061917,0.093954,0.0,1.0,2491.923096,
65.21196,-95.611046,-94.417603,3.081569,0.309179,3.081569,0.309179,-89.999855,-90.0,4.02425,34.256058,13.314889,288.812531,283.598663,-0.274389,-0.707249,18.369226,-0.005332,0.061708,0.184259,0.0,1.0,2496.227051,
65.21196,-95.546768,-94.353325,3.088512,0.197565,3.088512,0.197565,-89.999855,-90.0,4.096059,34.989418,14.086203,287.444885,283.035767,-0.41586,-0.811033,16.114496,-0.004417,0.061631,0.237323,0.0,1.0,2503.681152,
65.21196,-95.504997,-94.311546,3.100585,0.137252,3.100585,0.137252,-89.999855,-90.0,4.145208,35.453781,15.473375,287.069427,282.649841,-0.472624,-0.788932,19.3776,-0.002822,0.06177,0.305705,0.0,1.0,2508.368408,
65.21196,-95.439354,-94.245911,3.053819,-0.030159,3.053819,-0.030159,-89.999855,-90.0,4.226207,36.152008,16.377602,287.431305,282.03064,-0.49411,-0.615794,22.905878,-0.001961,0.062012,0.324478,0.0,1.0,2515.393799,
65.21196,-95.393555,-94.200111,3.023223,-0.095914,3.023223,-0.095914,-89.999855,-90.0,4.279262,36.618862,15.291425,288.237274,281.600677,-0.454885,-0.425449,23.439039,4.31E-4,0.061076,0.306384,0.0,1.0,2520.074463,
65.21196,-95.323624,-94.130173,3.06527,0.08151,3.06527,0.08151,-89.999855,-90.0,4.354502,37.321049,16.097742,289.870728,280.955444,-0.32278,-0.095921,23.748634,0.00137,0.060464,0.266086,0.0,1.0,2526.874023,
65.21196,-95.275795,-94.082352,3.036831,0.525811,3.036831,0.525811,-89.999855,-90.0,4.413387,37.792076,19.042616,291.036346,280.541534,-0.206473,0.115132,24.503952,-0.001164,0.061305,0.184413,0.0,1.0,2531.12915,
65.21196,-95.197487,-94.004044,2.738155,1.617311,2.738155,1.617311,-89.999855,-90.0,4.534115,38.49966,26.666454,292.422485,279.972839,-0.036895,0.336038,25.453127,-0.007512,0.060737,0.126132,0.0,1.0,2537.108398,
65.21196,-95.138054,-93.944611,2.495312,2.418008,2.495312,2.418008,-89.999855,-90.0,4.622241,38.971767,25.84627,292.892365,279.642151,0.061786,0.392146,19.64229,-0.023104,0.054763,0.056825,0.0,1.0,2540.979736,
65.21196,-95.04113,-93.847687,2.383209,3.331002,2.383209,3.331002,-89.999855,-90.0,4.744283,39.680752,22.954689,292.728912,279.231262,0.164139,0.323212,20.604574,-0.034543,0.049906,0.033331,0.0,1.0,2546.948486,
65.21196,-94.974007,-93.780563,2.471983,3.654122,2.471983,3.654122,-89.999855,-90.0,4.817493,40.154228,20.663927,292.120819,279.012573,0.199465,0.199025,20.935383,-0.047586,0.047664,0.041504,0.0,1.0,2551.162598,
65.21196,-94.872643,-93.679199,2.694076,3.496328,2.694076,3.496328,-89.999855,-90.0,4.930216,40.866261,27.611179,290.818756,278.753326,0.197431,-0.037356,21.32593,-0.052202,0.04944,0.071909,0.0,1.0,2557.825195,
65.21196,-94.800606,-93.607162,2.785509,2.88432,2.785509,2.88432,-89.999855,-90.0,5.041178,41.342365,38.89463,289.954895,278.615784,0.162766,-0.184299,23.322123,-0.049948,0.053882,0.137012,0.0,1.0,2562.404785,
65.21196,-94.672546,-93.479103,2.802862,1.420099,2.802862,1.420099,-89.999855,-90.0,5.278611,42.058628,55.081806,289.180542,278.448425,0.090935,-0.305046,29.343815,-0.041205,0.05571,0.180205,0.0,1.0,2569.349365,
65.21196,-94.567413,-93.37397,2.823156,0.356205,2.823156,0.356205,-89.999855,-90.0,5.479506,42.537346,65.215874,289.169037,278.359741,0.052335,-0.297273,34.693848,-0.020287,0.056057,0.218922,0.0,1.0,2573.994385,
65.21196,-94.371788,-93.178345,2.981397,-0.77635,2.981397,-0.77635,-89.999855,-90.0,5.855049,43.256489,86.115509,289.912018,278.264038,0.03016,-0.158153,44.585556,-0.005089,0.056463,0.219498,0.0,1.0,2580.90332,
65.21196,-94.209351,-93.015907,3.178576,-1.050804,3.178576,-1.050804,-89.999855,-90.0,6.176713,43.73595,107.115334,290.748138,278.229828,0.047417,-0.013883,53.116905,0.011091,0.059628,0.182349,0.0,1.0,2585.356201,
65.21196,-93.898872,-92.705429,3.484531,-0.583016,3.484531,-0.583016,-89.999855,-90.0,6.814939,44.453808,148.472031,292.017242,278.231049,0.111804,0.194728,70.332085,0.015011,0.063572,0.140543,0.0,1.0,2591.587891,
65.21196,-93.633408,-92.439964,3.647071,0.165893,3.647071,0.165893,-89.999855,-90.0,7.362495,44.930679,179.040405,292.619171,278.269379,0.165046,0.286302,85.027992,0.008329,0.069691,0.077087,0.0,1.0,2595.170898,
65.21196,-93.125237,-91.931793,3.747924,1.482516,3.747924,1.482516,-89.999855,-90.0,8.367985,45.642483,220.324615,292.817413,278.380981,0.234316,0.299094,111.054939,-0.00237,0.072941,0.046991,0.0,1.0,2599.452637,
Command_Fault: set /instrumentation/airspeed-indicator/serviceable true
65.21196,-92.705231,-91.511787,3.780009,2.198219,3.780009,2.198219,-89.999855,-90.0,9.140773,46.114464,241.673233,292.470856,278.486084,0.255068,0.227917,129.835007,-0.021179,0.074958,0.037079,0.0,1.0,2601.84082,
81.715546,-91.951431,-90.757988,3.84919,2.566998,3.84919,2.566998,-89.999855,-90.0,10.412634,46.818745,264.935272,291.49292,278.674683,0.238891,0.048884,158.0224,-0.031403,0.0756,0.054407,0.0,1.0,2605.011963,
82.124405,-91.370308,-90.176865,3.91609,2.294023,3.91609,2.294023,-89.999855,-90.0,11.317227,47.28598,277.147522,290.776825,278.810577,0.199803,-0.075578,175.960907,-0.036671,0.076984,0.103303,0.0,1.0,2606.939941,
82.722359,-90.39325,-89.199806,3.995732,1.258275,3.995732,1.258275,-89.999855,-90.0,12.746545,47.98349,293.868408,290.088135,279.013397,0.122412,-0.190028,200.606766,-0.032772,0.078322,0.139108,0.0,1.0,2609.635742,
83.096931,-89.706131,-88.512688,4.04201,0.450926,4.04201,0.450926,-89.999855,-90.0,13.702375,48.426865,304.169922,290.037231,279.136902,0.085695,-0.195368,215.61113,-0.017975,0.079915,0.173543,0.0,1.0,2611.264893,
83.66552,-88.502289,-87.308846,4.156001,-0.517801,4.156001,-0.517801,-89.999855,-90.0,15.317839,49.135685,325.350342,290.629486,279.323883,0.049134,-0.090355,238.589508,-0.006442,0.08084,0.176088,0.0,1.0,2613.76001,
83.982933,-87.660172,-86.466728,4.294395,-0.748721,4.294395,-0.748721,-89.999855,-90.0,16.434145,49.591915,344.551208,291.314972,279.440155,0.060653,0.024101,252.88501,0.007397,0.08312,0.146475,0.0,1.0,2615.283936,
84.371391,-86.299995,-85.106552,4.539506,-0.345024,4.539506,-0.345024,-89.999855,-90.0,18.250893,50.269775,382.199585,292.335236,279.613586,0.114938,0.187132,275.237671,0.010696,0.085888,0.112201,0.0,1.0,2617.387207,
84.596748,-85.321037,-84.127586,4.684135,0.281003,4.684135,0.281003,-79.999855,-80.0,19.569868,50.716713,408.075562,292.784332,279.73053,0.16057,0.252464,291.489319,0.004929,0.09079,0.061188,0.0,1.0,2618.665039,
84.952286,-83.733475,-82.540031,4.76458,1.326867,4.76458,1.326867,-79.999855,-80.0,21.697226,51.379116,439.740143,292.836273,279.906219,0.217188,0.24214,317.85083,-0.004014,0.093683,0.038733,0.0,1.0,2620.456055,
85.216423,-82.594444,-81.400993,4.769993,1.840876,4.769993,1.840876,-79.999855,-80.0,23.189602,51.81546,454.407379,292.473053,280.019592,0.229684,0.169901,335.999695,-0.018955,0.095292,0.036136,0.0,1.0,2621.617188,
85.624077,-80.82534,-79.631889,4.782866,1.977902,4.782866,1.977902,-79.999855,-80.0,25.437046,52.444798,468.687408,291.636841,280.169769,0.209583,0.017652,361.662506,-0.026298,0.0954,0.054297,0.0,1.0,2623.310547,
85.906418,-79.545631,-78.352188,4.810496,1.651383,4.810496,1.651383,-79.999855,-80.0,27.012409,52.871902,476.162598,291.070374,280.255646,0.172899,-0.080722,378.104584,-0.028256,0.095657,0.096107,0.0,1.0,2624.475586,
86.341812,-77.476234,-76.282791,4.859525,0.693146,4.859525,0.693146,-79.999855,-80.0,29.490631,53.523571,488.325256,290.624054,280.35083,0.095419,-0.154306,401.566254,-0.023591,0.09621,0.124431,0.0,1.0,2626.269043,
86.620094,-76.079277,-74.885826,4.903511,0.022711,4.903511,0.022711,-79.999855,-80.0,31.134418,53.941795,497.84549,290.71817,280.386261,0.062072,-0.136332,415.3255,-0.009902,0.09719,0.146747,0.0,1.0,2627.427246,
86.998878,-73.908287,-72.714844,5.016312,-0.585483,5.016312,-0.585483,-69.999855,-70.0,33.667671,54.561985,515.798035,291.365387,280.4039,0.048885,-0.025521,434.516541,-3.24E-4,0.09807,0.142041,0.0,1.0,2629.130127,
87.207382,-72.410919,-71.217476,5.131215,-0.609349,5.131215,-0.609349,-69.999855,-70.0,35.412979,54.970211,531.348206,291.969727,280.396576,0.068464,0.073472,446.815308,0.008364,0.100326,0.10968,0.0,1.0,2630.212402,
87.466576,-70.08519,-68.891747,5.287126,-0.050572,5.287126,-0.050572,-69.999855,-70.0,38.140919,55.573906,559.736572,292.716614,280.365509,0.124949,0.189212,465.449249,0.008705,0.102624,0.079463,0.0,1.0,2631.716309,
87.630188,-68.476753,-67.28331,5.363562,0.539538,5.363562,0.539538,-69.999855,-70.0,40.041523,55.970284,579.873352,292.93631,280.334656,0.163308,0.216806,478.469452,7.22E-4,0.105743,0.042119,0.0,1.0,2632.645996,
87.901428,-65.969376,-64.775932,5.414733,1.319832,5.414733,1.319832,-69.999855,-70.0,43.012272,56.555706,606.424072,292.714386,280.273743,0.198988,0.164045,499.217621,-0.007708,0.107271,0.031134,0.0,1.0,2633.986572,
88.100853,-64.232933,-63.039486,5.440825,1.578948,5.440825,1.578948,-59.999859,-60.0,45.05777,56.94017,619.895935,292.277527,280.221008,0.19628,0.082838,513.645142,-0.018855,0.108295,0.04223,0.0,1.0,2634.876465,
88.40377,-61.614933,-60.42149,5.482803,1.38324,5.482803,1.38324,-59.999859,-60.0,48.112019,57.49313,635.661987,291.54306,280.119965,0.161535,-0.046997,534.366577,-0.022556,0.108816,0.064073,0.0,1.0,2636.190674,
88.629959,-59.698257,-58.50481,5.516875,0.90972,5.516875,0.90972,-59.999859,-60.0,50.337357,57.882816,645.735901,291.157013,280.026306,0.115954,-0.112385,547.438232,-0.019761,0.109656,0.100796,0.0,1.0,2637.14209,
88.939178,-56.83197,-55.638523,5.572231,0.059025,5.572231,0.059025,-59.999859,-60.0,53.603825,58.436378,660.650818,291.079987,279.8573,0.061486,-0.122224,568.512573,-0.012996,0.110338,0.120099,0.0,1.0,2638.518799,
89.131523,-54.864902,-53.671459,5.635441,-0.400344,5.635441,-0.400344,-49.999859,-50.0,55.82515,58.800297,671.983765,291.356812,279.72403,0.045169,-0.074143,582.269165,-8.43E-4,0.111445,0.12395,0.0,1.0,2639.432129,
89.369728,-51.927155,-50.733707,5.767553,-0.593705,5.767553,-0.593705,-49.999859,-50.0,59.140594,59.323112,692.332214,292.0401,279.507568,0.054533,0.040282,600.935181,0.005719,0.112709,0.110109,0.0,1.0,2640.720215,
89.503105,-49.77319,-48.579746,5.879444,-0.370584,5.879444,-0.370584,-49.999859,-50.0,61.575752,59.69038,710.141296,292.540497,279.342773,0.086379,0.120389,614.211304,0.008481,0.115351,0.075944,0.0,1.0,2641.580322,
89.669357,-46.588341,-45.394897,5.99142,0.319187,5.99142,0.319187,-49.999859,-50.0,65.198067,60.209652,737.865784,292.932678,279.098907,0.139941,0.175996,633.411865,0.005294,0.117589,0.050925,0.0,1.0,2642.719971,
89.786812,-44.406147,-43.2127,6.038041,0.817409,6.038041,0.817409,-39.999859,-40.0,67.687378,60.54948,754.777954,292.88797,278.934448,0.165442,0.160762,646.620117,-0.00456,0.119828,0.031316,0.0,1.0,2643.435791,
89.987564,-41.041351,-39.847908,6.073403,1.240242,6.073403,1.240242,-39.999859,-40.0,71.51638,61.050068,775.040466,292.412659,278.684662,0.173178,0.070386,667.027039,-0.011677,0.120761,0.033551,0.0,1.0,2644.491455,
90.133293,-38.738499,-37.545055,6.096177,1.213176,6.096177,1.213176,-39.999859,-40.0,74.117729,61.378075,785.049377,291.963623,278.513824,0.154341,-0.008826,680.763672,-0.017718,0.121468,0.057317,0.0,1.0,2645.201172,
90.360802,-35.201252,-34.007809,6.12946,0.709643,6.12946,0.709643,-39.999859,-40.0,78.07576,61.862106,797.480713,291.439331,278.246674,0.103613,-0.097676,700.967529,-0.017331,0.121924,0.079768,0.0,1.0,2646.281494,
90.515625,-32.794834,-31.601391,6.157362,0.217707,6.157362,0.217707,-29.999857,-30.0,80.747627,62.179653,805.373108,291.327148,278.06015,0.070314,-0.11485,713.690735,-0.010138,0.122589,0.105983,0.0,1.0,2647.011475,
90.733841,-29.110319,-27.916876,6.223063,-0.389588,6.223063,-0.389588,-29.999857,-30.0,84.807266,62.648163,818.498352,291.600891,277.770111,0.041345,-0.065218,732.299072,-0.00311,0.123147,0.111592,0.0,1.0,2648.106934,
90.850822,-26.723438,-25.529993,6.292273,-0.556743,6.292273,-0.556743,-29.999857,-30.0,87.438484,62.942364,828.769104,291.978516,277.582031,0.044132,-0.001351,742.895691,0.005566,0.124461,0.097905,0.0,1.0,2648.791016,
90.97406,-22.928551,-21.735106,6.411612,-0.339839,6.411612,-0.339839,-19.999857,-20.0,91.630898,63.394279,848.172424,292.594971,277.29184,0.075607,0.099088,758.578308,0.007953,0.125845,0.079024,0.0,1.0,2649.775879,
91.00032,-20.228313,-19.034868,6.486083,0.053999,6.486083,0.053999,-19.999857,-20.0,94.602539,63.701687,863.077209,292.876129,277.098175,0.110899,0.141181,771.01062,0.004855,0.128232,0.048201,0.0,1.0,2650.375,
91.072624,-16.377266,-15.183821,6.535329,0.664703,6.535329,0.664703,-19.999857,-20.0,98.847725,64.123131,882.179321,292.881073,276.842255,0.145646,0.132411,788.239746,-7.71E-4,0.129722,0.034143,0.0,1.0,2651.128906,
91.140282,-13.575623,-12.382177,6.550808,0.962959,6.550808,0.962959,-9.999858,-10.0,101.930016,64.41803,892.379395,292.622437,276.670624,0.155126,0.083032,800.460632,-0.009496,0.130707,0.033896,0.0,1.0,2651.638916,
91.258087,-9.474401,-8.280956,6.561529,0.958289,6.561529,0.958289,-9.999858,-10.0,106.41967,64.834358,902.362915,292.075623,276.436798,0.134355,-0.014409,817.453735,-0.013757,0.131016,0.046828,0.0,1.0,2652.353027,
91.383286,-5.533559,-4.340115,6.571418,0.532558,6.571418,0.532558,-9.999858,-10.0,110.696663,65.219215,908.626587,291.666626,276.225983,0.095289,-0.083674,832.734741,-0.01369,0.131231,0.074168,0.0,1.0,2653.016846,
91.500397,-2.483541,-1.290097,6.584806,0.082459,6.584806,0.082459,1.42E-4,0.0,113.985855,65.508301,912.927124,291.599091,276.069641,0.060506,-0.093274,843.509521,-0.01006,0.13136,0.089621,0.0,1.0,2653.524902,
91.612366,1.940969,3.134414,6.633098,-0.417553,6.633098,-0.417553,1.42E-4,0.0,118.568176,65.901093,920.240356,291.88089,275.861847,0.03984,-0.043935,857.830566,-0.001178,0.131696,0.097995,0.0,1.0,2654.2229,
91.680344,4.831814,6.025258,6.683111,-0.515738,6.683111,-0.515738,1.42E-4,0.0,121.518143,66.147301,926.661682,292.211761,275.737122,0.044011,0.011729,865.896301,0.004147,0.132252,0.090715,0.0,1.0,2654.650635,
91.741959,9.413176,10.60662,6.772801,-0.293471,6.772801,-0.293471,10.000142,10.0,126.184166,66.524849,939.940063,292.730438,275.560577,0.073728,0.095026,878.717834,0.007368,0.133662,0.067361,0.0,1.0,2655.263916,
91.777542,12.627036,13.82048,6.814832,0.05888,6.814832,0.05888,10.000142,10.0,129.466263,66.781219,950.027649,292.925751,275.454529,0.106126,0.122831,887.184448,0.005951,0.134908,0.049089,0.0,1.0,2655.644043,
91.808914,15.611993,16.805437,6.840189,0.411499,6.840189,0.411499,20.000143,20.0,132.515488,67.012871,958.570557,292.932281,275.370026,0.124647,0.118789,895.051575,-8.41E-4,0.136297,0.031662,0.0,1.0,2655.969971,
91.879471,20.197767,21.391211,6.848041,0.757698,6.848041,0.757698,20.000143,20.0,137.20166,67.357971,968.362976,292.635132,275.264282,0.138398,0.061335,906.619751,-0.005879,0.136804,0.031335,0.0,1.0,2656.448975,
91.976425,24.968851,26.162294,6.845054,0.714515,6.845054,0.714515,20.000143,20.0,142.059113,67.704277,973.877075,292.146271,275.17926,0.119019,-0.024556,918.09491,-0.010824,0.136961,0.046193,0.0,1.0,2656.95166,
92.054314,28.31065,29.504095,6.842932,0.439298,6.842932,0.439298,30.000143,30.0,145.445053,67.940018,976.233643,291.883667,275.130676,0.091888,-0.068692,925.679993,-0.01105,0.136922,0.063907,0.0,1.0,2657.314941,
92.163689,33.165325,34.358772,6.849813,-0.099448,6.849813,-0.099448,30.000143,30.0,150.334167,68.272964,979.433105,291.79303,275.07196,0.054098,-0.081785,936.263855,-0.006276,0.136859,0.083766,0.0,1.0,2657.859375,
92.235207,36.555824,37.749268,6.872029,-0.396757,6.872029,-0.396757,40.000141,40.0,153.740311,68.499649,982.590088,291.96228,275.038696,0.037989,-0.051379,942.829956,-9.19E-4,0.136907,0.089069,0.0,1.0,2658.244385,
92.290207,39.831207,41.024651,6.91088,-0.535388,6.91088,-0.535388,40.000141,40.0,157.023041,68.713638,987.14032,292.251221,275.013733,0.040205,-0.002402,949.046265,0.005668,0.137441,0.079835,0.0,1.0,2658.607666,
92.343285,44.628944,45.822392,6.977458,-0.386014,6.977458,-0.386014,40.000141,40.0,161.84404,69.019051,996.544678,292.697357,274.992645,0.062943,0.070508,957.155701,0.007648,0.138218,0.065388,0.0,1.0,2659.100586,
92.374557,49.46772,50.661167,7.03018,0.042282,7.03018,0.042282,50.000141,50.0,166.716019,69.316246,1007.692261,292.940002,274.993042,0.098548,0.105978,965.295349,0.005514,0.139549,0.043082,0.0,1.0,2659.537842,
92.408035,52.945435,54.138878,7.042078,0.36052,7.042078,0.36052,50.000141,50.0,170.22821,69.523514,1014.731323,292.895142,275.006744,0.118033,0.093597,970.912292,0.001338,0.140388,0.032719,0.0,1.0,2659.825439,
92.465897,57.976456,59.169903,7.042103,0.618202,7.042103,0.618202,60.000141,60.0,175.320786,69.815048,1021.481689,292.564636,275.043121,0.12389,0.032878,978.332886,-0.00515,0.140842,0.033192,0.0,1.0,2660.231689,
92.517166,61.50515,62.698597,7.036058,0.563469,7.036058,0.563469,60.000141,60.0,178.872757,70.013023,1024.124634,292.265198,275.076447,0.108646,-0.019239,984.226074,-0.008032,0.140877,0.041969,0.0,1.0,2660.522461,
92.602562,66.620934,67.814377,7.027206,0.209159,7.027206,0.209159,70.000145,70.0,183.999527,70.292183,1026.339722,291.942291,275.130127,0.073695,-0.072652,992.575989,-0.00805,0.140721,0.06469,0.0,1.0,2660.96167,
92.662933,69.905449,71.0989,7.028893,-0.094724,7.028893,-0.094724,70.000145,70.0,187.280197,70.467003,1027.645996,291.905426,275.165619,0.054102,-0.076892,997.546692,-0.005078,0.140587,0.07695,0.0,1.0,2661.254883,
92.746872,75.212227,76.40567,7.056852,-0.474283,7.056852,-0.474283,70.000145,70.0,192.569656,70.742447,1031.282715,292.138458,275.223541,0.036032,-0.035176,1004.952454,0.001353,0.140578,0.082678,0.0,1.0,2661.73584,
92.78862,78.522606,79.716049,7.090294,-0.52979,7.090294,-0.52979,80.000145,80.0,195.870132,70.909935,1035.14978,292.398132,275.260956,0.040557,0.009025,1009.093994,0.005485,0.140876,0.076492,0.0,1.0,2662.0271,
92.823479,83.868828,85.062271,7.151319,-0.311804,7.151319,-0.311804,80.000145,80.0,201.212097,71.173019,1044.091187,292.797424,275.326172,0.069436,0.073841,1015.380493,0.007568,0.141806,0.058043,0.0,1.0,2662.458008,
92.835693,87.355698,88.549141,7.176186,-0.03264,7.176186,-0.03264,90.000145,90.0,204.703705,71.339371,1050.516968,292.921661,275.372986,0.092188,0.091513,1019.552673,0.006011,0.142671,0.043607,0.0,1.0,2662.70874,
92.866394,92.611847,93.80529,7.191163,0.37258,7.191163,0.37258,90.000145,90.0,209.978271,71.582634,1058.67041,292.834229,275.449371,0.113947,0.071567,1025.78064,4.66E-4,0.143524,0.031866,0.0,1.0,2663.05835,
92.894463,96.135956,97.329399,7.186861,0.504274,7.186861,0.504274,100.000145,100.0,213.51384,71.740852,1062.213135,292.622772,275.502594,0.114842,0.033051,1030.082397,-0.003667,0.143796,0.032967,0.0,1.0,2663.287354,
92.950584,101.444458,102.637901,7.175675,0.417312,7.175675,0.417312,100.000145,100.0,218.832428,71.97274,1064.730591,292.239136,275.580963,0.094933,-0.032955,1036.272461,-0.007204,0.143737,0.046811,0.0,1.0,2663.643555,
93.000305,104.998055,106.191498,7.170476,0.190634,7.170476,0.190634,100.000145,100.0,222.382889,72.123955,1065.468262,292.062286,275.629333,0.073235,-0.061902,1040.237549,-0.007011,0.143592,0.059384,0.0,1.0,2663.893799,
93.069794,110.204727,111.39817,7.173705,-0.214295,7.173705,-0.214295,110.000145,110.0,227.564941,72.339844,1066.67041,292.028839,275.691284,0.047965,-0.065012,1046.051147,-0.002723,0.14341,0.074835,0.0,1.0,2664.276855,
93.114708,113.936668,115.130112,7.191263,-0.423565,7.191263,-0.423565,110.000145,110.0,231.271576,72.490654,1068.473755,292.181824,275.728973,0.037436,-0.037347,1049.958618,0.001147,0.143404,0.077663,0.0,1.0,2664.555908,
93.157555,119.324364,120.517807,7.237018,-0.479272,7.237018,-0.479272,120.000145,120.0,236.625656,72.702606,1073.501831,292.544189,275.775726,0.047195,0.024009,1055.047729,0.006051,0.143825,0.068858,0.0,1.0,2664.944092,
93.171875,122.926628,124.120071,7.26806,-0.329808,7.26806,-0.329808,120.000145,120.0,240.212036,72.840332,1078.228027,292.762817,275.803772,0.064976,0.059457,1058.245728,0.007158,0.144411,0.057048,0.0,1.0,2665.181641,
Command_Fault: set /instrumentation/airspeed-indicator/serviceable false
93.185036,128.348785,129.542221,7.300837,0.041906,7.300837,0.041906,130.000137,130.0,245.623123,73.041405,1085.96106,292.907776,275.843353,0.09342,0.079932,1062.98584,0.004712,0.145361,0.039809,0.0,1.0,2665.502197,
93.185036,131.977829,133.17128,7.304421,0.272506,7.304421,0.272506,130.000137,130.0,249.250748,73.171837,1090.195557,292.836853,275.868195,0.106085,0.064852,1066.211548,0.001273,0.145876,0.033344,0.0,1.0,2665.700684,
93.185036,137.443787,138.637238,7.296958,0.431216,7.296958,0.431216,140.000137,140.0,254.712402,73.362427,1093.862549,292.54425,275.901062,0.104966,0.012559,1071.171631,-0.003893,0.146088,0.036107,0.0,1.0,2665.996582,
93.185036,141.101654,142.29509,7.288486,0.356417,7.288486,0.356417,140.000137,140.0,258.360504,73.486366,1094.802002,292.320007,275.917938,0.09154,-0.025796,1074.484985,-0.005916,0.146012,0.04511,0.0,1.0,2666.20166,
93.185036,146.605698,147.799149,7.278719,0.048663,7.278719,0.048663,150.000137,150.0,263.83548,73.667976,1095.085205,292.100739,275.932434,0.063494,-0.061253,1079.275879,-0.005092,0.14577,0.061949,0.0,1.0,2666.528076,
93.185036,150.284286,151.477722,7.281115,-0.194705,7.281115,-0.194705,150.000137,150.0,267.486206,73.786278,1095.418091,292.104553,275.933868,0.047038,-0.058703,1082.255371,-0.00241,0.145614,0.070579,0.0,1.0,2666.756836,
93.185036,155.81192,157.005371,7.303975,-0.441512,7.303975,-0.441512,160.000137,160.0,272.96756,73.959503,1097.425659,292.322021,275.924561,0.039251,-0.020086,1086.264038,0.002782,0.145622,0.072722,0.0,1.0,2667.10498,
93.185036,159.505035,160.698471,7.329893,-0.44582,7.329893,-0.44582,160.000137,160.0,276.630066,74.072052,1100.149414,292.539215,275.912415,0.046788,0.016792,1088.788696,0.005543,0.145874,0.066577,0.0,1.0,2667.328613,
93.185036,165.056458,166.249893,7.370188,-0.231115,7.370188,-0.231115,160.000137,160.0,282.145447,74.236214,1106.095581,292.816803,275.888947,0.070506,0.061563,1092.384766,0.006369,0.146598,0.050989,0.0,1.0,2667.635498,
93.185036,168.766953,169.960403,7.384078,-0.004107,7.384078,-0.004107,170.000137,170.0,285.839813,74.342491,1110.264038,292.881042,275.871368,0.087988,0.069899,1094.772217,0.004684,0.147176,0.04081,0.0,1.0,2667.81958,
93.185036,174.349503,175.542953,7.388049,0.289117,7.388049,0.289117,170.000137,170.0,291.404327,74.497299,1115.040649,292.762451,275.842896,0.101997,0.046321,1098.467896,5.9E-5,0.147682,0.033897,0.0,1.0,2668.079346,
93.185036,178.081558,179.275009,7.380845,0.357597,7.380845,0.357597,180.000137,180.0,295.124451,74.597626,1116.732056,292.578949,275.821777,0.099803,0.013668,1100.94751,-0.003018,0.147785,0.036528,0.0,1.0,2668.252197,
93.185036,183.697327,184.890762,7.366714,0.23726,7.366714,0.23726,180.000137,180.0,300.710205,74.744202,1117.267822,292.285706,275.784485,0.080972,-0.035957,1104.787476,-0.005109,0.147617,0.049002,0.0,1.0,2668.524414,
93.185036,187.449585,188.643036,7.361004,0.040364,7.361004,0.040364,190.000137,190.0,304.434052,74.839485,1117.029663,292.173889,275.754608,0.06338,-0.05363,1107.23938,-0.004386,0.147421,0.059262,0.0,1.0,2668.717773,
93.185036,193.08725,194.280701,7.365448,-0.276346,7.365448,-0.276346,190.000137,190.0,310.018768,74.978889,1117.03772,292.204773,275.701782,0.044109,-0.046089,1110.621948,-5.77E-4,0.14722,0.069255,0.0,1.0,2669.022705,
93.185036,196.849213,198.042648,7.380815,-0.401431,7.380815,-0.401431,200.000137,200.0,313.743652,75.069427,1118.010864,292.348816,275.66217,0.040821,-0.020479,1112.578247,0.002583,0.14723,0.069623,0.0,1.0,2669.22876,
93.185036,202.501328,203.694763,7.415784,-0.383381,7.415784,-0.383381,200.000137,200.0,319.341736,75.201424,1121.499878,292.640015,275.599335,0.052697,0.028543,1115.386108,0.005735,0.147616,0.060509,0.0,1.0,2669.523438,
93.185036,206.274902,207.468353,7.435913,-0.234999,7.435913,-0.234999,210.000137,210.0,323.085663,75.286758,1124.779419,292.790741,275.557312,0.068142,0.052631,1117.156494,0.006008,0.148079,0.050748,0.0,1.0,2669.702637,
93.185036,211.946167,213.139618,7.452273,0.06758,7.452273,0.06758,210.000137,210.0,328.722809,75.410721,1129.820923,292.850433,275.496582,0.089469,0.059589,1119.828613,0.003357,0.148718,0.038412,0.0,1.0,2669.946289,
93.185036,215.735565,216.929001,7.44977,0.227143,7.44977,0.227143,220.000137,220.0,332.493408,75.490746,1132.236816,292.760345,275.458099,0.096896,0.042196,1121.684082,4.68E-4,0.148997,0.035081,0.0,1.0,2670.099609,
93.185036,221.431763,222.625198,7.437531,0.29477,7.437531,0.29477,220.000137,220.0,338.159393,75.607185,1133.737549,292.505524,275.402252,0.091557,-0.002431,1124.522705,-0.003245,0.148995,0.039932,0.0,1.0,2670.332764,
93.185036,225.237808,226.431259,7.428515,0.198742,7.428515,0.198742,220.000137,220.0,341.938629,75.682617,1133.719604,292.338928,275.365051,0.078811,-0.030438,1126.460327,-0.004312,0.148842,0.048085,0.0,1.0,2670.496582,
93.185036,230.955566,232.149017,7.419642,-0.071145,7.419642,-0.071145,230.000137,230.0,347.605835,75.792732,1133.157104,292.212128,275.307617,0.056599,-0.050133,1129.214111,-0.002839,0.14857,0.061003,0.0,1.0,2670.759277,
Command: turn_+45
93.185036,234.770401,235.963837,7.42288,-0.252206,7.42288,-0.252206,230.000137,230.0,351.382813,75.864159,1133.130615,292.25174,275.268127,0.045646,-0.04185,1130.82666,-3.85E-4,0.148422,0.066403,0.0,1.0,2670.942871,
Command_Fault: set /instrumentation/airspeed-indicator/serviceable true
93.185036,240.498383,241.691833,7.443863,-0.417743,7.443863,-0.417743,240.000137,240.0,357.051392,75.968208,1134.58374,292.500092,275.20874,0.036475,0.001556,1133.057373,0.001201,0.148458,0.1,0.0,1.0,2671.21875,
93.775223,244.321091,245.514542,7.469078,-0.402841,7.469078,-0.402841,240.000137,240.0,360.836853,76.035316,1136.775757,292.800385,275.171051,0.043371,0.05078,1134.449341,0.001813,0.148693,0.1,0.0,1.0,2671.390137,
93.745964,250.061874,251.25531,7.515782,-0.120889,7.515782,-0.120889,250.000137,250.0,366.533752,76.132248,1142.237061,293.300781,275.122437,0.072856,0.128168,1136.467285,0.001918,0.149382,0.1,0.0,1.0,2671.602539,
93.711662,253.895676,255.089127,7.537913,0.218066,7.537913,0.218066,250.000137,250.0,370.348969,76.194183,1146.705322,293.580902,275.098145,0.098913,0.167884,1137.884399,0.001186,0.150024,0.1,0.0,1.0,2671.707031,
93.654434,259.659119,260.85257,7.5541,0.84584,7.5541,0.84584,260.000153,260.0,376.099243,76.282944,1153.054321,293.833527,275.077484,0.135683,0.196421,1140.235107,-0.001038,0.150758,0.1,0.0,1.0,2671.813721,
93.620865,263.513275,264.706726,7.551485,1.260046,7.551485,1.260046,260.000153,260.0,379.948517,76.339417,1156.158569,293.882843,275.075104,0.15325,0.194351,1142.0896,-0.003005,0.151039,0.1,0.0,1.0,2671.86377,
93.583641,269.31131,270.50473,7.541622,1.775915,7.541622,1.775915,270.000153,270.0,385.736328,76.420418,1158.463135,293.827576,275.088196,0.164792,0.169573,1145.151611,-0.006,0.15103,0.1,0.0,1.0,2671.93042,
93.56749,273.186737,274.380188,7.53467,2.007035,7.53467,2.007035,270.000153,270.0,389.598511,76.472206,1158.695557,293.754242,275.106934,0.163039,0.147182,1147.286621,-0.007738,0.150902,0.1,0.0,1.0,2671.979004,
93.553177,279.010529,280.203979,7.523328,2.193709,7.523328,2.193709,280.000153,280.0,395.389832,76.546982,1157.631348,293.676575,275.147888,0.151168,0.11967,1150.376099,-0.009557,0.150693,0.1,0.0,1.0,2672.066895,
93.547974,282.899536,284.092987,7.516306,2.233688,7.516306,2.233688,280.000153,280.0,399.246521,76.595116,1156.40625,293.683655,275.182678,0.140965,0.111155,1152.343262,-0.010246,0.15054,0.1,0.0,1.0,2672.136719,
93.541756,288.737335,289.930786,7.506547,2.241452,7.506547,2.241452,290.000153,290.0,405.023529,76.664978,1154.465698,293.808685,275.245361,0.128484,0.116684,1154.920166,-0.010637,0.150326,0.1,0.0,1.0,2672.254395,
93.535408,292.628967,293.822418,7.503088,2.251339,7.503088,2.251339,290.000153,290.0,408.869904,76.710052,1153.478027,293.961273,275.294373,0.124355,0.130828,1156.283447,-0.010672,0.150185,0.1,0.0,1.0,2672.336914,
93.520683,298.464569,299.65802,7.501364,2.322014,7.501364,2.322014,300.000153,300.0,414.635223,76.775429,1152.826416,294.255219,275.380035,0.125556,0.160592,1157.841919,-0.010721,0.150062,0.1,0.0,1.0,2672.45874,
93.506119,302.357269,303.55072,7.502221,2.416679,7.502221,2.416679,300.000153,300.0,418.478088,76.817497,1152.948364,294.465698,275.446167,0.130382,0.181173,1158.80542,-0.010901,0.150028,0.1,0.0,1.0,2672.534668,
93.480026,308.19519,309.388611,7.503376,2.619446,7.503376,2.619446,310.000153,310.0,424.244507,76.878319,1153.665894,294.760132,275.560333,0.140519,0.206129,1159.929077,-0.011508,0.150044,0.1,0.0,1.0,2672.63623,
93.461601,312.086792,313.280243,7.502863,2.775154,7.502863,2.775154,310.000153,310.0,428.091034,76.917351,1154.201416,294.927216,275.646942,0.147167,0.216541,1160.52832,-0.012124,0.150064,0.1,0.0,1.0,2672.696777,
93.438545,317.918365,319.111786,7.499967,3.005239,7.499967,3.005239,320.000153,320.0,433.863464,76.973709,1154.65564,295.129456,275.792664,0.154247,0.222704,1160.982056,-0.013215,0.150057,0.1,0.0,1.0,2672.780518,
93.420341,321.811462,323.004913,7.496745,3.135017,7.496745,3.135017,320.000153,320.0,437.712311,77.009918,1154.596924,295.240082,275.900055,0.156255,0.222066,1161.521606,-0.013962,0.150024,0.1,0.0,1.0,2672.835693,
93.402527,327.650757,328.844208,7.49019,3.281467,7.49019,3.281467,330.000153,330.0,443.483765,77.062363,1153.891602,295.393463,276.075409,0.155399,0.21838,1162.177979,-0.014929,0.149935,0.1,0.0,1.0,2672.921631,
93.393082,331.542877,332.736328,7.485406,3.344145,7.485406,3.344145,330.000153,330.0,447.328766,77.096184,1153.10437,295.501953,276.20108,0.153015,0.216533,1162.509644,-0.015429,0.149849,0.1,0.0,1.0,2672.98291,
93.384094,337.374054,338.567505,7.477297,3.401727,7.477297,3.401727,340.000153,340.0,453.090637,77.145363,1151.650146,295.692352,276.401642,0.148617,0.217711,1162.587646,-0.015925,0.149708,0.1,0.0,1.0,2673.081055,
93.373192,341.26239,342.455841,7.472475,3.426346,7.472475,3.426346,340.000153,340.0,456.927765,77.177185,1150.668823,295.842194,276.542847,0.146154,0.221726,1162.70459,-0.016126,0.149598,0.1,0.0,1.0,2673.150146,
93.361694,347.09256,348.286011,7.465571,3.463944,7.465571,3.463944,350.000153,350.0,462.677673,77.223541,1149.368774,296.098083,276.765228,0.144321,0.231861,1162.754761,-0.016316,0.149449,0.1,0.0,1.0,2673.25708,
93.353065,350.976135,352.169586,7.462196,3.497293,7.462196,3.497293,350.000153,350.0,466.50769,77.253571,1148.695068,296.282959,276.920349,0.144519,0.240183,1162.643677,-0.01643,0.149352,0.1,0.0,1.0,2673.328857,
93.3386,356.796631,357.990082,7.457656,3.565945,7.457656,3.565945,360.000153,360.0,472.249207,77.297318,1147.978027,296.567505,277.162872,0.14653,0.252628,1162.304688,-0.016654,0.149244,0.1,0.0,1.0,2673.435303,
93.327988,360.671509,361.86496,7.455302,3.621846,7.455302,3.621846,360.000153,360.0,476.075195,77.325645,1147.640625,296.75473,277.330872,0.148488,0.259715,1161.880005,-0.016861,0.14918,0.1,0.0,1.0,2673.504395,
93.312256,366.483704,367.677155,7.451535,3.713411,7.451535,3.713411,370.000153,370.0,481.812317,77.366928,1147.212891,297.024109,277.591705,0.151364,0.267432,1161.388062,-0.017247,0.149106,0.1,0.0,1.0,2673.606689,
93.302124,370.355804,371.549225,7.449055,3.772367,7.449055,3.772367,370.000153,370.0,485.635834,77.393684,1146.898682,297.19519,277.770996,0.152769,0.270577,1161.015137,-0.017537,0.149055,0.1,0.0,1.0,2673.674316,
93.288071,376.157745,377.351196,7.444637,3.850331,7.444637,3.850331,380.000153,380.0,491.368866,77.432732,1146.288696,297.442627,278.046906,0.153719,0.273105,1160.297363,-0.017964,0.148981,0.1,0.0,1.0,2673.775879,
93.279381,380.022888,381.216339,7.441584,3.89132,7.441584,3.89132,380.000153,380.0,495.188965,77.458099,1145.780029,297.605377,278.234833,0.153597,0.274033,1159.802856,-0.018221,0.148922,0.1,0.0,1.0,2673.844971,
93.26786,385.820923,387.014374,7.436318,3.937635,7.436318,3.937635,390.000153,390.0,500.915619,77.495232,1144.885864,297.85321,278.521484,0.152668,0.275557,1159.253906,-0.01853,0.148832,0.1,0.0,1.0,2673.950928,
93.260963,389.683502,390.876953,7.432621,3.960255,7.432621,3.960255,390.000153,390.0,504.730804,77.519424,1144.2323,298.024017,278.715118,0.15185,0.277166,1158.846191,-0.018751,0.148726,0.1,0.0,1.0,2674.023682,
93.251099,395.471741,396.665192,7.427841,3.986837,7.427841,3.986837,390.000153,390.0,510.449463,77.554939,1143.27832,298.290863,279.008331,0.150836,0.280803,1158.111816,-0.018858,0.148652,0.1,0.0,1.0,2674.134766,
93.244041,399.326263,400.519714,7.424533,4.003609,7.424533,4.003609,400.000153,400.0,514.259399,77.578125,1142.693481,298.475311,279.20517,0.150445,0.283942,1157.535522,-0.018985,0.148557,0.1,0.0,1.0,2674.209961,
93.233139,405.107758,406.301178,7.420356,4.024825,7.420356,4.024825,400.000153,400.0,519.970459,77.612221,1141.736816,298.762177,279.501678,0.148869,0.289626,1156.856934,-0.019065,0.148491,0.1,0.0,1.0,2674.323242,
93.226624,408.958893,410.152344,7.417221,4.033279,7.417221,4.033279,410.000153,410.0,523.775085,77.634544,1141.085815,298.963165,279.699829,0.147562,0.294401,1156.361816,-0.019166,0.148407,0.1,0.0,1.0,2674.39917,
93.216644,414.728394,415.921814,7.412496,4.042401,7.412496,4.042401,410.000153,410.0,529.478088,77.667442,1140.140747,299.280792,279.997437,0.146166,0.303156,1155.442627,-0.019206,0.148344,0.1,0.0,1.0,2674.513672,
93.212456,418.568695,419.762146,7.409208,4.050834,7.409208,4.050834,420.000153,420.0,533.277527,77.689003,1139.565308,299.501282,280.195953,0.145883,0.309713,1154.678101,-0.01925,0.14825,0.1,0.0,1.0,2674.590088,
93.199333,424.332977,425.526428,7.405381,4.071444,7.405381,4.071444,420.000153,420.0,538.97345,77.720818,1138.850098,299.839325,280.493866,0.146312,0.319655,1153.981567,-0.01929,0.148184,0.1,0.0,1.0,2674.705566,
93.192085,428.172577,429.365997,7.403018,4.091177,7.403018,4.091177,430.000153,430.0,542.768982,77.741692,1138.473511,300.065704,280.692505,0.147071,0.325758,1153.471924,-0.019388,0.148108,0.1,0.0,1.0,2674.782227,
93.183403,433.924866,435.118317,7.40012,4.12703,7.40012,4.12703,430.000153,430.0,548.460083,77.772491,1137.998047,300.40155,280.99054,0.148504,0.333358,1152.536011,-0.019482,0.14806,0.1,0.0,1.0,2674.895996,
93.175629,437.755463,438.948914,7.398067,4.152916,7.398067,4.152916,440.000153,440.0,552.25293,77.792709,1137.703247,300.621277,281.189178,0.149373,0.337201,1151.853271,-0.019653,0.148002,0.1,0.0,1.0,2674.970947,
93.162552,443.503876,444.697327,7.395076,4.188609,7.395076,4.188609,440.000153,440.0,557.940247,77.822586,1137.235229,300.944885,281.486908,0.150138,0.341292,1151.197266,-0.019776,0.147961,0.1,0.0,1.0,2675.085205,
93.156189,447.333557,448.527008,7.39279,4.208563,7.39279,4.208563,450.000153,450.0,561.730408,77.842224,1136.880615,301.158142,281.685089,0.150275,0.343232,1150.741455,-0.019946,0.147902,0.1,0.0,1.0,2675.161865,
93.147522,452.908569,454.10202,7.389565,4.230319,7.389565,4.230319,450.000153,450.0,567.255493,77.870514,1136.295654,301.468628,281.97348,0.150132,0.345519,1149.754517,-0.020041,0.147856,0.1,0.0,1.0,2675.274414,
93.14167,456.729767,457.923218,7.387069,4.240886,7.387069,4.240886,460.000153,460.0,571.042419,77.889687,1135.868164,301.682953,282.170685,0.149819,0.347042,1149.155273,-0.020144,0.147791,0.1,0.0,1.0,2675.352783,
93.133072,462.621613,463.815063,7.383488,4.251797,7.383488,4.251797,460.000153,460.0,576.877747,77.918922,1135.199951,302.017914,282.473694,0.149142,0.349714,1148.508057,-0.020195,0.147741,0.1,0.0,1.0,2675.476563,
93.128426,466.443634,467.637085,7.381036,4.257157,7.381036,4.257157,470.000153,470.0,580.661011,77.937691,1134.785645,302.238586,282.669556,0.148806,0.351742,1148.203247,-0.020247,0.14767,0.1,0.0,1.0,2675.55835,
93.123512,472.166595,473.360046,7.377985,4.265602,7.377985,4.265602,470.000153,470.0,586.333435,77.965584,1134.210815,302.573853,282.962402,0.148674,0.355078,1147.375244,-0.020272,0.147621,0.1,0.0,1.0,2675.681152,
93.116135,475.983063,477.176514,7.375943,4.272583,7.375943,4.272583,480.000153,480.0,590.113586,77.984009,1133.88269,302.798981,283.157043,0.148725,0.35732,1147.027832,-0.020312,0.14756,0.1,0.0,1.0,2675.764404,
93.108879,481.702332,482.895782,7.373376,4.285112,7.373376,4.285112,480.000153,480.0,595.781799,78.011421,1133.448975,303.13739,283.448212,0.149042,0.360425,1146.376587,-0.020346,0.147519,0.1,0.0,1.0,2675.889404,
93.104424,485.515472,486.708923,7.371617,4.294581,7.371617,4.294581,480.000153,480.0,599.55957,78.029549,1133.197144,303.362518,283.641876,0.149285,0.362192,1146.067139,-0.020405,0.147468,0.1,0.0,1.0,2675.973877,
93.097786,491.231476,492.424927,7.369325,4.308989,7.369325,4.308989,490.000153,490.0,605.224609,78.056534,1132.840942,303.69873,283.931732,0.149632,0.3643,1145.546875,-0.02045,0.147432,0.1,0.0,1.0,2676.101074,
93.095871,495.035004,496.228455,7.367723,4.318268,7.367723,4.318268,490.000153,490.0,609.000366,78.074394,1132.605835,303.921783,284.124634,0.149845,0.365359,1144.927612,-0.020519,0.147387,0.1,0.0,1.0,2676.185303,
93.086327,500.741333,501.934784,7.365504,4.330301,7.365504,4.330301,500.000153,500.0,614.662476,78.101013,1132.256836,304.255157,284.413513,0.149947,0.366537,1144.284546,-0.020563,0.147354,0.1,0.0,1.0,2676.312988,
93.082771,504.54715,505.74057,7.363869,4.336601,7.363869,4.336601,500.000153,500.0,618.436279,78.11866,1132.026001,304.477295,284.605804,0.149868,0.367179,1144.041748,-0.02062,0.14731,0.1,0.0,1.0,2676.399902,
Command_Fault: set /instrumentation/airspeed-indicator/serviceable false
93.077538,510.252563,511.446014,7.361654,4.343462,7.361654,4.343462,510.000153,510.0,624.09552,78.144997,1131.674683,304.811432,284.89389,0.149679,0.368126,1143.62207,-0.02065,0.147277,0.1,0.0,1.0,2676.531006,
93.077538,514.050415,515.243896,7.360105,4.347,7.360105,4.347,510.000153,510.0,627.867371,78.162468,1131.442993,305.035126,285.085785,0.149594,0.368808,1143.121948,-0.020683,0.147233,0.1,0.0,1.0,2676.618408,
93.077538,519.746399,520.93988,7.358048,4.351667,7.358048,4.351667,520.000122,520.0,633.523743,78.188568,1131.117676,305.372101,285.373444,0.149487,0.369915,1142.530151,-0.0207,0.147202,0.1,0.0,1.0,2676.750732,
93.077538,523.545593,524.739075,7.356603,4.354589,7.356603,4.354589,520.000122,520.0,637.293823,78.20591,1130.926025,305.597595,285.565216,0.149414,0.370695,1142.333496,-0.020722,0.147161,0.1,0.0,1.0,2676.840332,
93.077538,529.241394,530.434875,7.354757,4.359063,7.354757,4.359063,530.000122,530.0,642.947754,78.231834,1130.663208,305.936829,285.852936,0.149406,0.371881,1141.982544,-0.020736,0.147132,0.1,0.0,1.0,2676.975342,
93.077538,533.035461,534.228943,7.353519,4.362411,7.353519,4.362411,530.000122,530.0,646.71637,78.249062,1130.508301,306.163269,286.044922,0.14947,0.372629,1141.653809,-0.020757,0.147095,0.1,0.0,1.0,2677.065918,
93.077538,538.719421,539.912842,7.35193,4.368081,7.35193,4.368081,540.000122,540.0,652.368347,78.274841,1130.2948,306.502686,286.333221,0.149647,0.37359,1140.947144,-0.020773,0.14707,0.1,0.0,1.0,2677.200928,
93.077538,542.513,543.706421,7.350799,4.371926,7.350799,4.371926,540.000122,540.0,656.135803,78.291985,1130.173828,306.728638,286.525726,0.149691,0.374101,1140.817261,-0.0208,0.147039,0.1,0.0,1.0,2677.292236,
93.077538,548.200684,549.394165,7.349291,4.376971,7.349291,4.376971,550.000122,550.0,661.786194,78.317657,1130.000732,307.06723,286.815033,0.149727,0.374716,1140.56311,-0.020819,0.147016,0.1,0.0,1.0,2677.43042,
93.077538,551.988403,553.181885,7.348254,4.379961,7.348254,4.379961,550.000122,550.0,665.552673,78.33474,1129.88623,307.292847,287.008301,0.14977,0.375049,1140.237793,-0.020843,0.146986,0.1,0.0,1.0,2677.522217,
93.077538,557.668518,558.862,7.346862,4.383823,7.346862,4.383823,560.000122,560.0,671.201721,78.358429,1129.724121,307.631165,287.29892,0.149773,0.375461,1139.802002,-0.020857,0.146965,0.1,0.0,1.0,2677.6604,
93.077538,561.455811,562.649231,7.345855,4.385938,7.345855,4.385938,560.000122,560.0,674.967285,78.373886,1129.624756,307.856781,287.493134,0.149726,0.375707,1139.634399,-0.020875,0.146937,0.1,0.0,1.0,2677.753418,
93.077538,567.136475,568.329895,7.344501,4.388173,7.344501,4.388173,570.000122,570.0,680.615051,78.397148,1129.487305,308.19574,287.785278,0.149633,0.376097,1139.446533,-0.020885,0.146917,0.1,0.0,1.0,2677.894287,
