airspeed_indicator_indicated_speed_kt,altimeter_indicated_altitude_ft,altimeter_pressure_alt_ft,attitude_indicator_indicated_pitch_deg,attitude_indicator_indicated_roll_deg,attitude_indicator_internal_pitch_deg,attitude_indicator_internal_roll_deg,encoder_indicated_altitude_ft,encoder_pressure_alt_ft,gps_indicated_altitude_ft,gps_indicated_ground_speed_kt,gps_indicated_vertical_speed,indicated_heading_deg,magnetic_compass_indicated_heading_deg,slip_skid_ball_indicated_slip_skid,turn_indicator_indicated_turn_rate,vertical_speed_indicator_indicated_speed_fpm,flight_aileron,flight_elevator,flight_rudder,flight_flaps,engine_throttle,engine_rpm,
Command: takeoff
4.073675,-97.063988,-95.870544,2.98294,1.411391,2.594405,0.116275,-99.999855,-100.0,2.286571,0.0,0.008207,297.868927,277.939392,0.008932,-0.05086,-11.607164,-0.0,0.0,0.0,0.0,0.0,599.197021,
4.055193,-97.078789,-95.885345,2.981316,1.406257,2.594549,0.117033,-99.999855,-100.0,2.2866,0.0,0.008106,297.868103,280.318542,0.00881,-0.045795,-18.217314,-0.0,0.0,0.0,0.0,0.0,599.21875,
4.045894,-97.095329,-95.901886,2.777635,0.752865,2.587125,0.117829,-99.999855,-100.0,2.28661,2.9E-5,-0.008106,297.866821,283.685303,0.008504,-0.039398,-8.494168,-0.020089,0.051891,4.1E-5,0.0,1.0,672.08728,
4.064668,-97.103569,-95.910126,2.64674,0.377377,2.568707,0.117267,-99.999855,-100.0,2.286557,1.22E-4,-0.026596,297.865936,285.777374,0.008269,-0.035831,-11.11845,-0.010755,0.051743,1.05E-4,0.0,1.0,779.27478,
4.157764,-97.114174,-95.920731,2.525038,0.11264,2.525038,0.11264,-99.999855,-100.0,2.286436,8.22E-4,-9.38E-4,297.864105,289.093506,0.008559,-0.030777,-12.316473,-0.005391,0.051374,1.5E-4,0.0,1.0,1014.029114,
4.267558,-97.119141,-95.925697,2.519536,0.107229,2.519536,0.107229,-99.999855,-100.0,2.286501,0.002503,0.038889,297.86261,290.997375,0.008216,-0.028205,-11.331988,-0.001609,0.050501,2.41E-4,0.0,1.0,1170.589355,
4.540509,-97.125175,-95.931732,2.540447,0.095617,2.540447,0.095617,-99.999855,-100.0,2.286864,0.009322,0.099282,297.859375,293.792542,0.004149,-0.024861,-15.581603,-0.001532,0.050391,3.16E-4,0.0,1.0,1410.211426,
4.785342,-97.128113,-95.934669,2.563885,0.086851,2.563885,0.086851,-99.999855,-100.0,2.28725,0.017764,0.140449,297.855743,295.446808,-0.001255,-0.023273,-17.043615,-0.001366,0.050809,4.78E-4,0.0,1.0,1550.075684,
5.309809,-97.131721,-95.938278,2.607244,0.07197,2.607244,0.07197,-99.999855,-100.0,2.288127,0.041595,0.195249,297.843842,297.932068,-0.011149,-0.021923,-9.272367,-0.001241,0.051278,6.59E-4,0.0,1.0,1748.21167,
5.695253,-97.133278,-95.939827,2.632813,0.063533,2.632813,0.063533,-99.999855,-100.0,2.288799,0.06342,0.222615,297.830872,299.276306,-0.015463,-0.022118,-17.159781,-0.001028,0.052145,0.001254,0.0,1.0,1846.647705,
6.407825,-97.134964,-95.941521,2.667251,0.052028,2.667251,0.052028,-99.999855,-100.0,2.2901,0.112489,0.281032,297.798218,301.171143,-0.023515,-0.024225,-13.395119,-9.08E-4,0.052656,0.001903,0.0,1.0,1972.802612,
6.899386,-97.13559,-95.942146,2.684319,0.046834,2.684319,0.046834,-99.999855,-100.0,2.291057,0.152615,0.316136,297.769287,302.177124,-0.015832,-0.026693,-16.220551,-7.43E-4,0.053345,0.003535,0.0,1.0,2033.491699,
7.727567,-97.136009,-95.942566,2.703275,0.041827,2.703275,0.041827,-99.999855,-100.0,2.292798,0.231496,0.379042,297.711731,303.480957,-0.006761,-0.03196,-17.872396,-6.69E-4,0.053686,0.004982,0.0,1.0,2106.042725,
8.016715,-97.136009,-95.942566,2.708007,0.041049,2.708007,0.041049,-99.999855,-100.0,2.293451,0.26233,0.401551,297.688721,303.841522,-0.004442,-0.034149,-17.886969,-6.69E-4,0.053686,0.004982,0.0,1.0,2125.107666,
9.227751,-97.135864,-95.942421,2.719929,0.042235,2.719929,0.042235,-99.999855,-100.0,2.296472,0.409138,0.495809,297.58139,304.914001,0.002155,-0.044116,-17.331594,-5.86E-4,0.05416,0.00901,0.0,1.0,2181.492432,
9.872401,-97.135117,-95.941673,2.723425,0.04498,2.723425,0.04498,-99.999855,-100.0,2.298294,0.500696,0.551412,297.511719,305.241058,0.003635,-0.05074,-14.126756,-5.85E-4,0.054175,0.009213,0.0,1.0,2201.135742,
10.829641,-97.133659,-95.940216,2.72572,0.050897,2.72572,0.050897,-99.999855,-100.0,2.301264,0.650794,0.633612,297.39502,305.441254,0.005181,-0.061476,-2.135284,-6.43E-4,0.054469,0.01786,0.0,1.0,2220.980957,
11.475741,-97.132454,-95.939011,2.725972,0.056296,2.725972,0.056296,-99.999855,-100.0,2.303477,0.762762,0.69032,297.316833,305.403015,0.005175,-0.067755,12.552547,-7.27E-4,0.054514,0.023695,0.0,1.0,2229.985352,
12.4247,-97.130348,-95.936905,2.725931,0.065708,2.725931,0.065708,-99.999855,-100.0,2.307047,0.942895,0.775802,297.208374,305.11319,0.004497,-0.074932,9.871368,-8.04E-4,0.054519,0.027605,0.0,1.0,2238.665527,
13.105684,-97.128601,-95.935158,2.725857,0.073283,2.725857,0.073283,-99.999855,-100.0,2.309852,1.083604,0.838306,297.132507,304.745453,0.003784,-0.079194,18.224833,-9.39E-4,0.054519,0.033028,0.0,1.0,2242.411865,
14.086563,-97.125717,-95.932274,2.725739,0.085429,2.725739,0.085429,-99.999855,-100.0,2.314263,1.303465,0.92496,297.029022,303.998474,0.002387,-0.083651,5.739558,-0.001047,0.054517,0.036821,0.0,1.0,2245.313721,
14.713609,-97.12365,-95.930206,2.725738,0.094093,2.725738,0.094093,-99.999855,-100.0,2.317314,1.454348,0.981569,296.963928,303.397614,0.001487,-0.086021,17.621147,-0.00122,0.054515,0.041995,0.0,1.0,2247.035156,
15.694522,-97.120056,-95.926613,2.725992,0.108741,2.725992,0.108741,-99.999855,-100.0,2.322455,1.706384,1.071003,296.865631,302.284149,-5.01E-4,-0.088682,10.304862,-0.001344,0.054515,0.04525,0.0,1.0,2250.152588,
16.348583,-97.117424,-95.923973,2.726499,0.119286,2.726499,0.119286,-99.999855,-100.0,2.326132,1.884922,1.13076,296.799805,301.437469,-0.00206,-0.090317,10.689343,-0.001553,0.05452,0.050165,0.0,1.0,2252.345215,
17.328943,-97.113106,-95.919662,2.727919,0.134063,2.727919,0.134063,-99.999855,-100.0,2.332025,2.168077,1.222004,296.703369,300.03418,-0.005348,-0.092081,18.695196,-0.001704,0.05453,0.053456,0.0,1.0,2255.640137,
17.981573,-97.109993,-95.91655,2.72956,0.142125,2.72956,0.142125,-99.999855,-100.0,2.336205,2.366826,1.281962,296.641724,299.023743,-0.007353,-0.092731,8.794915,-0.001915,0.054558,0.058278,0.0,1.0,2257.791748,
18.985308,-97.104813,-95.911369,2.732824,0.152301,2.732824,0.152301,-99.999855,-100.0,2.343043,2.688422,1.375751,296.559326,297.374268,-0.009651,-0.091605,8.997206,-0.00203,0.054591,0.06136,0.0,1.0,2260.999756,
19.607395,-97.101357,-95.907913,2.735306,0.158073,2.735306,0.158073,-99.999855,-100.0,2.347534,2.897387,1.432861,296.515747,296.306396,-0.01034,-0.089814,14.257761,-0.002176,0.054656,0.06548,0.0,1.0,2262.921143,
20.578529,-97.095589,-95.902145,2.739484,0.166359,2.739484,0.166359,-99.999855,-100.0,2.354929,3.237989,1.524507,296.461975,294.593353,-0.010359,-0.085067,16.922852,-0.002258,0.054706,0.067659,0.0,1.0,2265.821533,
21.223305,-97.091499,-95.898056,2.742574,0.171909,2.742574,0.171909,-99.999855,-100.0,2.360107,3.473995,1.580847,296.433228,293.436768,-0.009795,-0.081207,11.842519,-0.002377,0.05479,0.070348,0.0,1.0,2267.689209,
22.215317,-97.084808,-95.891365,2.747433,0.180458,2.747433,0.180458,-99.999855,-100.0,2.368476,3.851425,1.671119,296.396912,291.655182,-0.008617,-0.074736,18.565819,-0.002456,0.054851,0.071785,0.0,1.0,2270.480225,
22.831232,-97.080414,-95.886971,2.750626,0.186142,2.750626,0.186142,-99.999855,-100.0,2.373915,4.094134,1.731814,296.375763,290.560822,-0.007932,-0.071001,15.396556,-0.002578,0.054949,0.073601,0.0,1.0,2272.169678,
Command_Fault: set /systems/electrical/serviceable false
23.819424,-97.072975,-95.879532,2.755726,0.195784,2.755726,0.195784,-99.999855,-100.0,2.383042,4.49719,1.822019,296.339844,288.842865,-0.007669,-0.066015,13.918301,-0.002659,0.055013,0.074658,0.0,1.0,2274.828125,
24.45834,-97.067886,-95.874443,2.761969,0.204437,2.761969,0.204437,-99.999855,-100.0,2.389472,4.766723,2.005979,296.312164,287.767792,-0.007877,-0.063827,13.886888,-0.002797,0.055115,0.076454,0.0,1.0,2276.520752,
25.389473,-97.059982,-95.866539,2.77064,0.2194,2.77064,0.2194,-99.999855,-100.0,2.399718,5.17084,2.185719,296.263519,286.271759,-0.010558,-0.062286,14.516461,-0.002921,0.055239,0.077838,0.0,1.0,2278.954346,
26.053871,-97.053955,-95.860512,2.774158,0.227491,2.774158,0.227491,-99.999855,-100.0,2.407427,5.467295,2.251237,296.221069,285.264526,-0.013267,-0.062593,18.012571,-0.003134,0.055413,0.08027,0.0,1.0,2280.672852,
26.982508,-97.044998,-95.851555,2.778799,0.238647,2.778799,0.238647,-99.999855,-100.0,2.418603,5.892905,2.344892,296.153046,283.953064,-0.018267,-0.064291,11.543404,-0.00325,0.055483,0.082393,0.0,1.0,2283.057373,
27.644819,-97.038254,-95.84481,2.782569,0.246811,2.782569,0.246811,-99.999855,-100.0,2.426869,6.204246,2.413124,296.098389,283.093628,-0.022066,-0.066316,18.140043,-0.003409,0.055576,0.085794,0.0,1.0,2284.748779,
28.5963,-97.028061,-95.834618,2.788265,0.258012,2.788265,0.258012,-99.999855,-100.0,2.439186,6.662961,2.5112,296.016022,281.978546,-0.028014,-0.069397,17.247875,-0.003526,0.055651,0.088527,0.0,1.0,2287.171387,
29.176125,-97.021561,-95.828117,2.792025,0.264811,2.792025,0.264811,-99.999855,-100.0,2.446956,6.949147,2.569818,295.964539,281.371826,-0.031786,-0.071245,10.715212,-0.003686,0.055765,0.092645,0.0,1.0,2288.645508,
30.149099,-97.010178,-95.816734,2.798393,0.275059,2.798393,0.275059,-99.999855,-100.0,2.460436,7.44015,2.67503,295.882629,280.484406,-0.03664,-0.07322,15.326032,-0.003783,0.05584,0.095219,0.0,1.0,2291.115967,
30.803431,-97.002174,-95.808731,2.802993,0.281738,2.802993,0.281738,-99.999855,-100.0,2.469838,7.778584,2.739912,295.830627,279.981171,-0.039036,-0.073882,16.769634,-0.003929,0.055968,0.099315,0.0,1.0,2292.779297,
31.716101,-96.990555,-95.797112,2.809368,0.289985,2.809368,0.289985,-99.999855,-100.0,2.483393,8.261121,2.832729,295.76651,279.408447,-0.041125,-0.073319,9.114562,-0.004025,0.05606,0.101915,0.0,1.0,2295.101318,
32.313515,-96.982658,-95.789207,2.816764,0.295224,2.816764,0.295224,-99.999855,-100.0,2.492662,8.583595,2.959244,295.729431,279.115631,-0.041508,-0.072218,9.095195,-0.004143,0.056187,0.105121,0.0,1.0,2296.622803,
33.270195,-96.969284,-95.775841,2.828014,0.302955,2.828014,0.302955,-99.999855,-100.0,2.509503,9.110984,3.338721,295.678009,278.781464,-0.041063,-0.069391,11.211486,-0.004217,0.056335,0.106975,0.0,1.0,2299.063721,
33.887901,-96.960121,-95.766678,2.832307,0.308238,2.832307,0.308238,-99.999855,-100.0,2.520735,9.458584,3.400923,295.647369,278.652832,-0.040294,-0.067383,17.198513,-0.004328,0.05656,0.109546,0.0,1.0,2300.642578,
34.81208,-96.945724,-95.752281,2.83841,0.316302,2.83841,0.316302,-99.999855,-100.0,2.538,9.987816,3.506134,295.603333,278.584778,-0.039042,-0.064437,9.826354,-0.004403,0.056646,0.111078,0.0,1.0,2303.005615,
35.451206,-96.935295,-95.741844,2.84303,0.322453,2.84303,0.322453,-99.999855,-100.0,2.550296,10.360689,3.574399,295.570648,278.621704,-0.038616,-0.063003,9.444369,-0.004519,0.056768,0.11328,0.0,1.0,2304.643066,
36.318806,-96.920578,-95.727135,2.849261,0.331166,2.849261,0.331166,-99.999855,-100.0,2.567425,10.874578,3.673347,295.521179,278.775635,-0.039091,-0.062061,17.994198,-0.004606,0.056861,0.114914,0.0,1.0,2306.866699,
36.955391,-96.909401,-95.715958,2.853972,0.338183,2.853972,0.338183,-99.999855,-100.0,2.58032,11.257257,3.746636,295.479187,278.959778,-0.040444,-0.062351,20.052441,-0.004731,0.056985,0.117387,0.0,1.0,2308.5,
37.894882,-96.892303,-95.69886,2.860595,0.348898,2.860595,0.348898,-99.999855,-100.0,2.59985,11.830832,3.804417,295.4086,279.332184,-0.043866,-0.064007,13.202882,-0.004831,0.057079,0.119487,0.0,1.0,2310.914795,
38.502537,-96.880829,-95.687386,2.868042,0.353375,2.868042,0.353375,-99.999855,-100.0,2.613891,12.207317,4.308901,295.357208,279.630981,-0.047123,-0.065894,17.471699,-0.004984,0.057212,0.123016,0.0,1.0,2312.47998,
39.410076,-96.862732,-95.669289,2.877576,0.367483,2.877576,0.367483,-99.999855,-100.0,2.635743,12.778312,4.44054,295.27652,280.152039,-0.052272,-0.068744,17.199175,-0.005048,0.057361,0.125586,0.0,1.0,2314.825195,
39.9884,-96.850677,-95.657227,2.882718,0.375252,2.882718,0.375252,-99.999855,-100.0,2.650078,13.146914,4.524314,295.222961,280.524231,-0.056178,-0.070697,13.190279,-0.00525,0.057552,0.12962,0.0,1.0,2316.322266,
40.915394,-96.830513,-95.63707,2.889864,0.385504,2.889864,0.385504,-99.999855,-100.0,2.673669,13.745841,4.654413,295.139648,281.174805,-0.061523,-0.073016,18.665749,-0.005361,0.057654,0.132298,0.0,1.0,2318.727295,
41.513298,-96.816956,-95.623512,2.894559,0.39145,2.894559,0.39145,-99.999855,-100.0,2.689308,14.13812,4.726295,295.087616,281.62381,-0.064412,-0.074044,18.903063,-0.005507,0.057797,0.136464,0.0,1.0,2320.284912,
42.382191,-96.796593,-95.603149,2.902287,0.398607,2.902287,0.398607,-99.999855,-100.0,2.712663,14.715302,5.062261,295.019196,282.305176,-0.066889,-0.074186,14.415698,-0.005592,0.057891,0.139066,0.0,1.0,2322.552246,
42.974293,-96.78212,-95.588676,2.912834,0.405365,2.912834,0.405365,-99.999855,-100.0,2.730334,15.11445,5.426229,294.976807,282.784027,-0.067711,-0.073546,18.976646,-0.005694,0.058046,0.142487,0.0,1.0,2324.10376,
43.882168,-96.758667,-95.565224,2.920137,0.411664,2.920137,0.411664,-99.999855,-100.0,2.758516,15.734921,5.537302,294.918304,283.52887,-0.067134,-0.071697,19.263739,-0.005791,0.058257,0.144606,0.0,1.0,2327.304932,
44.444752,-96.743492,-95.550049,2.924196,0.415709,2.924196,0.415709,-99.999855,-100.0,2.776341,16.123623,5.616721,294.884064,283.989929,-0.06604,-0.070383,17.403383,-0.005881,0.058403,0.147531,0.0,1.0,2330.034424,
45.346443,-96.718201,-95.52475,2.93084,0.421946,2.93084,0.421946,-99.999855,-100.0,2.805534,16.753551,5.739954,294.831146,284.718079,-0.063876,-0.068182,20.642488,-0.005939,0.058484,0.149243,0.0,1.0,2335.132568,
45.930363,-96.701286,-95.507843,2.935464,0.426344,2.935464,0.426344,-99.999855,-100.0,2.82482,17.165102,5.824665,294.795563,285.175903,-0.062528,-0.06716,21.100714,-0.006028,0.058617,0.151889,0.0,1.0,2338.736084,
46.804424,-96.675186,-95.481743,2.944076,0.433517,2.944076,0.433517,-99.999855,-100.0,2.85452,17.786604,6.45074,294.73938,285.83252,-0.060554,-0.066196,16.138937,-0.006091,0.058709,0.153668,0.0,1.0,2344.397461,
47.385201,-96.657127,-95.463684,2.957246,0.447809,2.957246,0.447809,-99.999855,-100.0,2.876807,18.203625,6.865589,294.698792,286.245514,-0.060527,-0.065968,12.629128,-0.006193,0.058882,0.156477,0.0,1.0,2348.279297,
48.231148,-96.629433,-95.435989,2.963914,0.454683,2.963914,0.454683,-99.999855,-100.0,2.910455,18.815477,6.975255,294.63446,286.80545,-0.061399,-0.06675,15.932721,-0.006397,0.059145,0.158507,0.0,1.0,2354.031738,
48.810863,-96.609589,-95.416145,2.967728,0.45955,2.967728,0.45955,-99.999855,-100.0,2.933865,19.237488,7.062479,294.586334,287.15683,-0.062688,-0.067867,19.60548,-0.006495,0.059278,0.161723,0.0,1.0,2358.015869,
49.704273,-96.577873,-95.384422,2.973988,0.46658,2.973988,0.46658,-99.999855,-100.0,2.970547,19.89185,7.212407,294.508972,287.641052,-0.065287,-0.06985,11.99337,-0.006565,0.059355,0.16413,0.0,1.0,2364.198242,
50.281975,-96.556625,-95.363182,2.978454,0.471139,2.978454,0.471139,-99.999855,-100.0,2.994735,20.318661,7.298525,294.456635,287.915222,-0.067278,-0.071326,12.569699,-0.006665,0.05948,0.167998,0.0,1.0,2368.224609,
51.123737,-96.524818,-95.331375,2.984792,0.476728,2.984792,0.476728,-99.999855,-100.0,3.030569,20.94429,7.434855,294.382263,288.255493,-0.069908,-0.072892,20.543726,-0.006731,0.059569,0.170615,0.0,1.0,2374.11084,
51.723763,-96.501534,-95.30809,2.989531,0.480547,2.989531,0.480547,-99.999855,-100.0,3.056575,21.393412,7.533367,294.330719,288.453766,-0.071209,-0.073649,13.698308,-0.00681,0.059696,0.174333,0.0,1.0,2378.321045,
52.562294,-96.468193,-95.27475,2.995907,0.484663,2.995907,0.484663,-99.999855,-100.0,3.093552,22.025198,7.678103,294.263855,288.667328,-0.071803,-0.073738,21.455175,-0.006865,0.059791,0.17691,0.0,1.0,2384.219238,
53.134785,-96.444855,-95.251404,3.000415,0.487229,3.000415,0.487229,-99.999855,-100.0,3.119291,22.460386,7.763518,294.221283,288.770355,-0.071298,-0.073305,21.8437,-0.006924,0.059918,0.180254,0.0,1.0,2388.26416,
53.992134,-96.409157,-95.215714,3.006908,0.490062,3.006908,0.490062,-99.999855,-100.0,3.158481,23.116045,7.902393,294.163544,288.8591,-0.068909,-0.071784,14.909674,-0.00696,0.060008,0.182382,0.0,1.0,2394.331055,
54.562355,-96.384918,-95.191475,3.011366,0.491811,3.011366,0.491811,-99.999855,-100.0,3.184996,23.554998,7.995579,294.127258,288.875244,-0.06646,-0.070584,22.006763,-0.007001,0.060138,0.185269,0.0,1.0,2398.374268,
55.415829,-96.347954,-95.15451,3.016807,0.494845,3.016807,0.494845,-99.999855,-100.0,3.22515,24.216084,8.029912,294.075012,288.837189,-0.061666,-0.068646,14.906837,-0.007026,0.060227,0.187083,0.0,1.0,2404.438232,
55.983845,-96.322929,-95.129486,3.02084,0.496226,3.02084,0.496226,-99.999855,-100.0,3.252086,24.658514,8.122127,294.039368,288.772003,-0.058244,-0.067686,15.157411,-0.007069,0.060336,0.189696,0.0,1.0,2408.47998,
56.858009,-96.283821,-95.090378,3.027229,0.497726,3.027229,0.497726,-99.999855,-100.0,3.294215,25.343155,8.262777,293.98233,288.612885,-0.052969,-0.066726,14.719472,-0.007089,0.060417,0.191478,0.0,1.0,2414.711914,
57.400269,-96.259125,-95.065681,3.035371,0.496949,3.035371,0.496949,-99.999855,-100.0,3.321752,25.770245,8.794394,293.944122,288.480438,-0.050165,-0.066692,14.695756,-0.00711,0.060545,0.19433,0.0,1.0,2418.586914,
58.247082,-96.219475,-95.026031,3.048511,0.496727,3.048511,0.496727,-99.999855,-100.0,3.367117,26.440931,9.794686,293.881531,288.22583,-0.045187,-0.06703,19.656199,-0.007099,0.060707,0.19624,0.0,1.0,2424.653076,
58.833397,-96.190872,-94.997429,3.055193,0.49707,3.055193,0.49707,-99.999855,-100.0,3.401329,26.908195,9.889514,293.83551,288.018036,-0.042096,-0.06766,22.015306,-0.007096,0.06097,0.19937,0.0,1.0,2428.865967,
59.653431,-96.149261,-94.955818,3.05956,0.496255,3.05956,0.496255,-89.999855,-90.0,3.449734,27.564341,10.018708,293.769531,287.689453,-0.037266,-0.068658,20.748695,-0.007101,0.061104,0.201671,0.0,1.0,2434.765869,
60.214939,-96.119804,-94.926361,3.062981,0.495527,3.062981,0.495527,-89.999855,-90.0,3.483312,28.015553,10.118359,293.723846,287.441833,-0.034025,-0.069344,16.609745,-0.007089,0.061191,0.20497,0.0,1.0,2438.812744,
61.078072,-96.073074,-94.879631,3.073254,0.498364,3.073254,0.498364,-89.999855,-90.0,3.536864,28.713116,10.843783,293.657349,287.030518,-0.02859,-0.069507,19.266096,-0.007079,0.06126,0.207254,0.0,1.0,2445.110352,
61.636379,-96.04174,-94.848297,3.078327,0.496619,3.078327,0.496619,-89.999855,-90.0,3.573197,29.166796,10.942764,293.61673,286.747894,-0.024134,-0.069321,19.6849,-0.007119,0.061465,0.210579,0.0,1.0,2449.244629,
62.472134,-95.99321,-94.799767,3.083325,0.491991,3.083325,0.491991,-89.999855,-90.0,3.628309,29.849014,11.092626,293.562073,286.306519,-0.015703,-0.068101,20.373957,-0.007095,0.061567,0.21261,0.0,1.0,2455.487305,
63.005039,-95.961418,-94.767975,3.086792,0.488653,3.086792,0.488653,-89.999855,-90.0,3.663924,30.285904,11.193784,293.530457,286.016785,-0.008996,-0.066925,15.595389,-0.007028,0.061666,0.215343,0.0,1.0,2459.492676,
63.860363,-95.909096,-94.715645,3.092353,0.481941,3.092353,0.481941,-89.999855,-90.0,3.721895,30.990335,11.356239,293.485535,285.544037,0.002984,-0.064349,21.306337,-0.006981,0.061736,0.216924,0.0,1.0,2465.95166,
Command: fly_strait
64.391708,-95.875908,-94.682465,3.096616,0.477129,3.096616,0.477129,-89.999855,-90.0,3.758431,31.42919,11.67961,293.459625,285.249176,0.012427,-0.062671,16.460981,-0.006885,0.061847,0.21917,0.0,1.0,2469.9729,
65.266098,-95.820854,-94.627411,3.109209,0.506964,3.109209,0.506964,-89.999855,-90.0,3.82361,32.136711,13.044173,293.202484,284.778748,0.014328,-0.099602,22.645584,-0.006816,0.061932,0.0,0.0,1.0,2476.47168,
65.856911,-95.785255,-94.591812,3.098076,0.518,3.098076,0.518,-89.999855,-90.0,3.865242,32.577568,12.892838,292.553894,284.489563,-0.00955,-0.198462,18.239199,-0.007242,0.062184,0.012857,0.0,1.0,2480.628906,
66.843567,-95.726311,-94.532867,3.090013,0.448448,3.090013,0.448448,-89.999855,-90.0,3.931056,33.288471,12.955174,290.928741,284.022278,-0.099345,-0.432822,17.734413,-0.0074,0.061962,0.045287,0.0,1.0,2487.610596,
67.480698,-95.687172,-94.493729,3.085429,0.382265,3.085429,0.382265,-89.999855,-90.0,3.974559,33.750748,13.132804,289.681244,283.709656,-0.187174,-0.596049,18.075474,-0.006406,0.0618,0.126544,0.0,1.0,2492.286133,
68.413963,-95.627235,-94.433784,3.082505,0.261963,3.082505,0.261963,-89.999855,-90.0,4.04098,34.445972,13.4269,288.00174,283.211182,-0.32865,-0.776016,19.12534,-0.005461,0.061709,0.188919,0.0,1.0,2499.381348,
68.999657,-95.588135,-94.394691,3.087438,0.194802,3.087438,0.194802,-89.999855,-90.0,4.084698,34.891354,14.220823,287.238586,282.867615,-0.409597,-0.823369,22.069292,-0.003742,0.06165,0.272894,0.0,1.0,2503.918701,
69.90773,-95.524841,-94.331398,3.085081,0.066576,3.085081,0.066576,-89.999855,-90.0,4.160926,35.590111,16.127218,286.888184,282.286102,-0.486633,-0.755157,18.745762,-0.002783,0.061749,0.311052,0.0,1.0,2510.987061,
70.520454,-95.480469,-94.287025,3.047706,-0.044161,3.047706,-0.044161,-89.999855,-90.0,4.215199,36.05714,16.223587,287.274689,281.872772,-0.491689,-0.618264,22.901754,-9.51E-4,0.061702,0.328572,0.0,1.0,2515.701172,
71.410873,-95.409401,-94.215958,3.03379,-0.081305,3.03379,-0.081305,-89.999855,-90.0,4.2946,36.779362,14.686419,288.657166,281.215454,-0.417093,-0.3073,19.802782,6.31E-4,0.060954,0.309247,0.0,1.0,2522.912598,
71.918861,-95.362541,-94.169098,3.062968,0.097953,3.062968,0.097953,-89.999855,-90.0,4.346028,37.249069,16.520329,289.844543,280.791931,-0.320207,-0.07939,20.066898,0.001161,0.060676,0.240123,0.0,1.0,2527.400635,
72.605995,-95.289383,-94.09594,2.953585,0.947562,2.953585,0.947562,-89.999855,-90.0,4.441221,37.958008,24.644131,291.553192,280.190033,-0.146099,0.218629,24.070118,-0.001399,0.061259,0.180754,0.0,1.0,2533.676514,
73.040176,-95.237511,-94.044067,2.723281,1.697064,2.723281,1.697064,-89.999855,-90.0,4.526129,38.411442,27.233309,292.382629,279.841248,-0.034074,0.344368,18.386894,-0.013537,0.059072,0.095322,0.0,1.0,2537.449463,
73.821114,-95.142517,-93.949074,2.436141,2.914154,2.436141,2.914154,-89.999855,-90.0,4.663673,39.141563,25.874105,292.868011,279.360321,0.110136,0.38731,20.04434,-0.024244,0.054466,0.05385,0.0,1.0,2543.441162,
74.395821,-95.075569,-93.882126,2.397277,3.515355,2.397277,3.515355,-89.999855,-90.0,4.74686,39.615788,23.737257,292.594971,279.105957,0.170864,0.315408,21.149883,-0.041631,0.048723,0.029581,0.0,1.0,2547.483887,
75.318047,-94.972206,-93.778763,2.575931,3.866606,2.575931,3.866606,-89.999855,-90.0,4.85659,40.328632,22.111559,291.5242,278.802917,0.214679,0.106752,21.359497,-0.050219,0.047946,0.043233,0.0,1.0,2553.936279,
75.909096,-94.905098,-93.711655,2.714737,3.636614,2.714737,3.636614,-89.999855,-90.0,4.939244,40.78532,30.287716,290.631714,278.64975,0.201815,-0.051749,22.138966,-0.055237,0.051519,0.096771,0.0,1.0,2558.263672,
76.830254,-94.784729,-93.591286,2.794656,2.451361,2.794656,2.451361,-89.999855,-90.0,5.139991,41.522278,47.125854,289.425201,278.451172,0.139694,-0.254313,26.467066,-0.051952,0.054295,0.141396,0.0,1.0,2565.389404,
77.389809,-94.69516,-93.501717,2.805287,1.404388,2.805287,1.404388,-89.999855,-90.0,5.306229,41.98177,56.554794,289.04306,278.351135,0.091723,-0.31223,30.738197,-0.035019,0.055893,0.201721,0.0,1.0,2569.855469,
78.269745,-94.517609,-93.324165,2.877352,-0.153598,2.877352,-0.153598,-89.999855,-90.0,5.640478,42.722652,73.986885,289.272308,278.224884,0.038254,-0.258037,39.518974,-0.020063,0.056106,0.220828,0.0,1.0,2577.04248,
78.80069,-94.375061,-93.181618,3.013981,-0.82434,3.013981,-0.82434,-89.999855,-90.0,5.913641,43.203819,90.109917,289.915527,278.168762,0.031684,-0.142791,46.681999,0.002194,0.057547,0.209366,0.0,1.0,2581.642334,
79.487572,-94.106689,-92.913246,3.316361,-0.956926,3.316361,-0.956926,-89.999855,-90.0,6.448041,43.925167,124.762802,291.221161,278.131561,0.068701,0.07894,60.923969,0.011776,0.06028,0.177205,0.0,1.0,2588.225586,
79.875153,-93.879341,-92.685898,3.52935,-0.495708,3.52935,-0.495708,-89.999855,-90.0,6.913684,44.404945,154.203064,292.048676,278.142548,0.116361,0.212115,73.456108,0.01367,0.066327,0.111923,0.0,1.0,2592.290283,
80.424759,-93.4412,-92.247757,3.712411,0.734604,3.712411,0.734604,-89.999855,-90.0,7.803609,45.121662,199.582703,292.745026,278.215271,0.198234,0.311348,97.10009,0.007082,0.070587,0.070547,0.0,1.0,2597.488281,
80.808701,-93.072372,-91.878929,3.768307,1.618531,3.768307,1.618531,-89.999855,-90.0,8.514727,45.597042,225.515427,292.725586,278.298798,0.238837,0.294178,115.214493,-0.010494,0.074248,0.03573,0.0,1.0,2600.259277,
81.424309,-92.394066,-91.200615,3.817507,2.478357,3.817507,2.478357,-89.999855,-90.0,9.723877,46.306297,255.21492,292.024963,278.465485,0.25926,0.157046,143.807816,-0.023122,0.075366,0.036702,0.0,1.0,2603.791992,
81.841148,-91.858994,-90.66555,3.872733,2.578949,3.872733,2.578949,-89.999855,-90.0,10.599837,46.776726,269.337219,291.443756,278.594513,0.238947,0.026895,162.642273,-0.035405,0.07635,0.071733,0.0,1.0,2605.88208,
82.451889,-90.940506,-89.747063,3.965786,1.915345,3.965786,1.915345,-89.999855,-90.0,11.992949,47.479031,286.960815,290.915039,278.796844,0.172157,-0.144333,189.299362,-0.036842,0.077455,0.100793,0.0,1.0,2608.753906,
82.851357,-90.256973,-89.06353,4.019011,1.120533,4.019011,1.120533,-89.999855,-90.0,12.968464,47.945023,297.919128,290.709045,278.928925,0.12294,-0.2073,205.812302,-0.027362,0.079316,0.127229,0.0,1.0,2610.53833,
83.439255,-89.134094,-87.940643,4.087979,-0.08185,4.087979,-0.08185,-89.999855,-90.0,14.500971,48.640266,315.244019,290.707306,279.114716,0.065028,-0.197688,228.850143,-0.016008,0.08038,0.137529,0.0,1.0,2613.076172,
83.80986,-88.324028,-87.130585,4.171412,-0.679725,4.171412,-0.679725,-89.999855,-90.0,15.576914,49.100845,330.314636,290.890137,279.229858,0.048971,-0.13219,243.383408,0.001169,0.08176,0.137616,0.0,1.0,2614.69043,
84.271858,-87.092117,-85.898674,4.36384,-0.960717,4.36384,-0.960717,-89.999855,-90.0,17.202574,49.748417,358.920349,291.28891,279.384308,0.061359,0.003366,263.850128,0.00971,0.083428,0.128474,0.0,1.0,2616.856934,
84.567207,-86.078911,-84.88546,4.551891,-0.734309,4.551891,-0.734309,-89.999855,-90.0,18.548431,50.238976,385.724335,291.605225,279.49826,0.088574,0.106345,280.254303,0.013725,0.087277,0.108536,0.0,1.0,2618.396729,
84.92572,-84.561356,-83.367912,4.73748,0.042193,4.73748,0.042193,-79.999855,-80.0,20.571392,50.910496,421.512787,291.908966,279.652222,0.142254,0.197999,304.987335,0.01049,0.091038,0.09272,0.0,1.0,2620.352783,
85.159836,-83.471634,-82.278183,4.79798,0.674062,4.79798,0.674062,-79.999855,-80.0,22.01099,51.352859,441.09668,291.978821,279.751801,0.173592,0.212129,322.453583,-6.03E-4,0.09475,0.077533,0.0,1.0,2621.566895,
85.531853,-81.717834,-80.524391,4.815805,1.420453,4.815805,1.420453,-79.999855,-80.0,24.280579,52.008373,464.609833,291.883575,279.892792,0.199662,0.163645,349.33725,-0.009629,0.09596,0.07404,0.0,1.0,2623.313477,
85.792038,-80.472893,-79.279449,4.835015,1.672776,4.835015,1.672776,-79.999855,-80.0,25.849833,52.440216,476.132904,291.729004,279.977509,0.198114,0.101617,366.917053,-0.020292,0.096316,0.078803,0.0,1.0,2624.456055,
86.188614,-78.501564,-77.308121,4.895129,1.572913,4.895129,1.572913,-79.999855,-80.0,28.270197,53.080635,491.439392,291.471771,280.082825,0.171668,0.002811,391.917328,-0.023897,0.0967,0.086531,0.0,1.0,2626.15625,
86.451447,-77.124313,-75.93087,4.944037,1.259099,4.944037,1.259099,-79.999855,-80.0,29.926098,53.502823,501.820557,291.342377,280.134155,0.145583,-0.045915,407.427551,-0.02247,0.097903,0.099393,0.0,1.0,2627.28125,
86.840981,-74.969643,-73.776192,5.010152,0.636393,5.010152,0.636393,-69.999855,-70.0,32.477383,54.128998,518.364685,291.281281,280.178223,0.108099,-0.069322,429.353882,-0.017987,0.098881,0.105862,0.0,1.0,2628.951904,
87.089333,-73.477982,-72.284538,5.066891,0.253984,5.066891,0.253984,-69.999855,-70.0,34.22541,54.541599,530.1521,291.33493,280.185303,0.09282,-0.051195,443.101868,-0.009091,0.100203,0.108917,0.0,1.0,2630.049316,
87.433075,-71.15863,-69.965187,5.17299,-0.045187,5.17299,-0.045187,-69.999855,-70.0,36.926083,55.152859,550.049133,291.515106,280.165161,0.089532,0.010986,463.025604,-0.003628,0.101338,0.106235,0.0,1.0,2631.651367,
87.638687,-69.558403,-68.36496,5.259685,-0.035561,5.259685,-0.035561,-69.999855,-70.0,38.78566,55.554985,565.425415,291.660217,280.133881,0.099661,0.059654,476.026337,6.46E-4,0.10346,0.097226,0.0,1.0,2632.677246,
87.919083,-67.074142,-65.880699,5.374001,0.258987,5.374001,0.258987,-69.999855,-70.0,41.677181,56.149639,590.607239,291.837585,280.064819,0.125442,0.115278,495.641174,5.08E-4,0.105194,0.08997,0.0,1.0,2634.141113,
88.095985,-65.359505,-64.166061,5.442854,0.553512,5.442854,0.553512,-59.999859,-60.0,43.675053,56.540218,607.458313,291.900665,280.00589,0.142584,0.130792,509.020386,-0.0037,0.10748,0.081102,0.0,1.0,2635.070557,
88.360725,-62.696438,-61.502995,5.516954,0.94903,5.516954,0.94903,-59.999859,-60.0,46.775002,57.117222,631.378479,291.89743,279.899567,0.159609,0.116704,529.647156,-0.007907,0.108857,0.077948,0.0,1.0,2636.414551,
88.539787,-60.859489,-59.666046,5.564404,1.109754,5.564404,1.109754,-59.999859,-60.0,48.9048,57.496067,645.792786,291.844543,279.816498,0.161371,0.088979,543.682129,-0.013558,0.110339,0.07811,0.0,1.0,2637.290039,
88.811089,-58.012707,-56.81926,5.630906,1.109658,5.630906,1.109658,-59.999859,-60.0,52.185623,58.055828,665.605225,291.737427,279.67218,0.15056,0.038356,564.857605,-0.015854,0.111288,0.080754,0.0,1.0,2638.587402,
88.991371,-56.055435,-54.861988,5.679918,0.974045,5.679918,0.974045,-59.999859,-60.0,54.425804,58.423462,677.992554,291.676971,279.561981,0.137618,0.010183,578.879822,-0.015852,0.112618,0.08611,0.0,1.0,2639.444824,
89.25618,-53.033527,-51.840084,5.750996,0.665153,5.750996,0.665153,-49.999859,-50.0,57.862778,58.966705,696.205627,291.641083,279.375488,0.117012,-0.009263,599.559326,-0.013915,0.113598,0.089133,0.0,1.0,2640.71875,
89.425301,-50.963253,-49.769806,5.80648,0.458059,5.80648,0.458059,-49.999859,-50.0,60.204578,59.323383,708.482971,291.660217,279.237885,0.107285,-0.00515,613.057068,-0.009502,0.11502,0.090927,0.0,1.0,2641.555908,
89.66198,-47.77631,-46.582867,5.892918,0.269788,5.892918,0.269788,-49.999859,-50.0,63.796143,59.850021,727.732422,291.73938,279.01474,0.102293,0.020792,632.894775,-0.006544,0.11613,0.08997,0.0,1.0,2642.783203,
89.806442,-45.597801,-44.404354,5.958924,0.24566,5.958924,0.24566,-49.999859,-50.0,66.245094,60.195404,741.250549,291.808014,278.8573,0.10558,0.0436,645.914124,-0.003854,0.117858,0.086012,0.0,1.0,2643.575439,
90.005791,-42.248894,-41.05545,6.04767,0.358832,6.04767,0.358832,-39.999859,-40.0,70.005165,60.704689,762.15863,291.898438,278.612549,0.116896,0.071732,665.293091,-0.003509,0.119178,0.082581,0.0,1.0,2644.717773,
90.13063,-39.961708,-38.768265,6.105734,0.49193,6.105734,0.49193,-39.999859,-40.0,72.569603,61.038288,775.976868,291.936035,278.445892,0.125152,0.080802,678.18988,-0.005126,0.120953,0.078059,0.0,1.0,2645.449219,
90.312904,-36.448616,-35.255173,6.174643,0.683654,6.174643,0.683654,-39.999859,-40.0,76.501129,61.52977,795.724426,291.948456,278.193542,0.133965,0.07613,697.549561,-0.007028,0.122115,0.076179,0.0,1.0,2646.508301,
90.43351,-34.052013,-32.85857,6.218885,0.767524,6.218885,0.767524,-29.999857,-30.0,79.174644,61.851547,807.822815,291.932709,278.02475,0.135257,0.063544,710.434204,-0.009766,0.123493,0.075558,0.0,1.0,2647.195557,
90.614349,-30.37723,-29.183784,6.275386,0.778159,6.275386,0.778159,-29.999857,-30.0,83.257545,62.325565,824.52832,291.893524,277.77179,0.130415,0.038992,729.592529,-0.010965,0.124378,0.076346,0.0,1.0,2648.206055,
90.734146,-27.875816,-26.682373,6.31487,0.71796,6.31487,0.71796,-29.999857,-30.0,86.02388,62.635918,834.82251,291.870453,277.603821,0.124081,0.024636,742.159363,-0.011117,0.125508,0.078305,0.0,1.0,2648.869629,
90.91024,-24.049797,-22.856354,6.370079,0.570961,6.370079,0.570961,-19.999857,-20.0,90.236351,63.093079,849.597473,291.858337,277.353973,0.11357,0.013487,760.564148,-0.010257,0.126297,0.079459,0.0,1.0,2649.850586,
91.023285,-21.451811,-20.258366,6.411434,0.46859,6.411434,0.46859,-19.999857,-20.0,93.085007,63.392311,859.248474,291.868896,277.189819,0.1083,0.01421,772.489075,-0.008157,0.127402,0.080064,0.0,1.0,2650.493652,
91.183571,-17.486753,-16.29331,6.471662,0.37027,6.471662,0.37027,-19.999857,-20.0,97.418777,63.83284,873.83075,291.907379,276.949585,0.104967,0.025084,789.840637,-0.006694,0.128229,0.079536,0.0,1.0,2651.436768,
91.283356,-14.799271,-13.605826,6.515983,0.352043,6.515983,0.352043,-9.999858,-10.0,100.348511,64.120964,883.677307,291.940582,276.795013,0.106001,0.035292,801.072754,-0.00529,0.129433,0.077612,0.0,1.0,2652.048584,
91.423569,-10.703419,-9.509974,6.575184,0.397058,6.575184,0.397058,-9.999858,-10.0,104.805191,64.544746,898.49292,291.98584,276.574127,0.11082,0.048174,817.486206,-0.005029,0.13032,0.075952,0.0,1.0,2652.928955,
91.512184,-7.930447,-6.737002,6.61496,0.455569,6.61496,0.455569,-9.999858,-10.0,107.816895,64.821686,908.154297,292.006531,276.435516,0.114504,0.05238,828.17926,-0.005672,0.131504,0.073689,0.0,1.0,2653.481934,
91.641075,-3.708616,-2.515172,6.663914,0.541845,6.663914,0.541845,1.42E-4,0.0,112.393837,65.22876,922.007385,292.018616,276.242035,0.118452,0.050144,843.886902,-0.006508,0.132299,0.072655,0.0,1.0,2654.27002,
91.725227,-0.837695,0.355749,6.696029,0.579596,6.696029,0.579596,1.42E-4,0.0,115.482178,65.494652,930.614319,292.016174,276.123199,0.118926,0.044178,854.070801,-0.007741,0.133278,0.07205,0.0,1.0,2654.774414,
91.851158,3.717782,4.911226,6.736917,0.582783,6.736917,0.582783,1.42E-4,0.0,120.166763,65.885414,942.662476,292.00531,275.96048,0.116421,0.032413,869.127869,-0.00828,0.133921,0.072173,0.0,1.0,2655.50708,
91.933975,6.794404,7.987848,6.765334,0.553312,6.765334,0.553312,10.000142,10.0,123.322006,66.140633,950.159729,291.999115,275.862366,0.113245,0.025431,878.887634,-0.008325,0.134738,0.072716,0.0,1.0,2655.983154,
92.055862,11.466001,12.659445,6.804576,0.482368,6.804576,0.482368,10.000142,10.0,128.100723,66.515633,960.873901,291.998993,275.730713,0.107971,0.019662,893.07019,-0.007904,0.135307,0.073026,0.0,1.0,2656.681641,
92.134499,14.616572,15.810018,6.834224,0.432651,6.834224,0.432651,10.000142,10.0,131.315491,66.760475,967.730469,292.006653,275.653351,0.105243,0.019562,902.205811,-0.006891,0.136092,0.073032,0.0,1.0,2657.137207,
92.246895,19.394165,20.58761,6.876472,0.383462,6.876472,0.383462,20.000143,20.0,136.180618,67.120071,977.98877,292.027466,275.553131,0.103271,0.023892,915.42572,-0.006181,0.136684,0.072649,0.0,1.0,2657.803467,
92.317711,22.612526,23.805971,6.90643,0.372153,6.90643,0.372153,20.000143,20.0,139.452362,67.354721,984.822449,292.044464,275.497009,0.103463,0.028146,923.931396,-0.005478,0.137529,0.071608,0.0,1.0,2658.235596,
92.418762,27.488398,28.681843,6.945329,0.388385,6.945329,0.388385,30.000143,30.0,144.402679,67.699097,994.897461,292.067963,275.429016,0.10528,0.033445,936.271606,-0.005316,0.138129,0.070758,0.0,1.0,2658.864014,
92.483284,30.770357,31.963802,6.972455,0.412136,6.972455,0.412136,30.000143,30.0,147.730118,67.92366,1001.313293,292.079681,275.394379,0.106717,0.035019,944.242371,-0.005548,0.138907,0.069583,0.0,1.0,2659.270508,
92.576912,35.738819,36.932262,7.007349,0.447211,7.007349,0.447211,40.000141,40.0,152.760849,68.253082,1010.596436,292.089325,275.357971,0.108154,0.033538,955.836914,-0.005888,0.139449,0.068997,0.0,1.0,2659.863281,
92.637886,39.080555,40.274002,7.030312,0.461542,7.030312,0.461542,40.000141,40.0,156.139694,68.467804,1016.461792,292.0914,275.343597,0.108128,0.030563,963.333374,-0.006389,0.140147,0.068515,0.0,1.0,2660.248047,
92.727173,44.135597,45.329041,7.058702,0.459121,7.058702,0.459121,40.000141,40.0,161.24379,68.782677,1024.860596,292.091461,275.335663,0.106638,0.024864,974.230469,-0.006593,0.140606,0.068411,0.0,1.0,2660.8125,
92.785301,47.532909,48.726353,7.076966,0.443278,7.076966,0.443278,50.000141,50.0,164.669418,68.987862,1030.286133,292.091919,275.338745,0.104971,0.021482,981.263733,-0.006559,0.141174,0.068408,0.0,1.0,2661.18042,
92.870514,52.668163,53.861607,7.101319,0.40804,7.101319,0.40804,50.000141,50.0,169.84108,69.288666,1038.05896,292.096283,275.354736,0.102281,0.018518,991.471313,-0.006333,0.141539,0.068385,0.0,1.0,2661.721436,
92.925514,56.116913,57.310356,7.120081,0.383623,7.120081,0.383623,60.000141,60.0,173.309982,69.484619,1043.084595,292.102264,275.372253,0.100852,0.018208,998.050598,-0.005829,0.142026,0.068167,0.0,1.0,2662.075195,
93.004807,61.326424,62.519867,7.147608,0.358714,7.147608,0.358714,60.000141,60.0,178.544785,69.771744,1050.580322,292.114807,275.407745,0.099674,0.019665,1007.591431,-0.00548,0.142402,0.067868,0.0,1.0,2662.594238,
93.055252,64.822968,66.016411,7.167929,0.351568,7.167929,0.351568,60.000141,60.0,182.055252,69.958679,1055.521118,292.124298,275.43689,0.099552,0.021202,1013.746033,-0.005124,0.142952,0.067241,0.0,1.0,2662.932373,
93.12738,70.102058,71.295502,7.195044,0.35541,7.195044,0.35541,70.000145,70.0,187.351822,70.232437,1062.835083,292.137512,275.487671,0.10003,0.022974,1022.695313,-0.005022,0.143359,0.066766,0.0,1.0,2663.42749,
93.173409,73.643761,74.837212,7.213585,0.363322,7.213585,0.363322,70.000145,70.0,190.902802,70.410553,1067.563721,292.144653,275.525574,0.10043,0.02329,1028.488159,-0.005077,0.143901,0.066106,0.0,1.0,2663.749268,
93.239906,78.988853,80.182297,7.237185,0.374748,7.237185,0.374748,80.000145,80.0,196.258392,70.671249,1074.400879,292.15213,275.587219,0.10071,0.022111,1036.935425,-0.00519,0.144272,0.065749,0.0,1.0,2664.220459,
93.282898,82.573357,83.7668,7.25296,0.378228,7.25296,0.378228,80.000145,80.0,199.847321,70.84079,1078.765137,292.155396,275.630737,0.100466,0.020503,1042.411865,-0.005354,0.144744,0.065375,0.0,1.0,2664.527344,
93.345848,87.980713,89.174156,7.273359,0.373323,7.273359,0.373323,90.000145,90.0,205.257385,71.088821,1084.991699,292.159088,275.698242,0.099496,0.017606,1050.397217,-0.005403,0.145059,0.065211,0.0,1.0,2664.978027,
93.386749,91.605347,92.79879,7.287884,0.364031,7.287884,0.364031,90.000145,90.0,208.880875,71.250069,1088.937988,292.161682,275.743958,0.098574,0.015886,1055.566895,-0.005333,0.145467,0.065027,0.0,1.0,2665.272949,
93.446335,97.070702,98.264145,7.307789,0.345681,7.307789,0.345681,100.000145,100.0,214.340439,71.485863,1094.664673,292.166962,275.812439,0.097133,0.014207,1063.086548,-0.0052,0.145758,0.064897,0.0,1.0,2665.706787,
93.484268,100.731339,101.924782,7.322077,0.333157,7.322077,0.333157,100.000145,100.0,217.995743,71.639076,1098.370239,292.1716,275.85733,0.096333,0.013793,1067.876709,-0.004938,0.146156,0.064633,0.0,1.0,2665.990723,
93.539871,106.250763,107.444206,7.341425,0.319686,7.341425,0.319686,110.000145,110.0,223.501663,71.863014,1103.796753,292.17981,275.922577,0.095563,0.013959,1074.964722,-0.004759,0.146442,0.064401,0.0,1.0,2666.408203,
93.575005,109.947342,111.140785,7.355168,0.314694,7.355168,0.314694,110.000145,110.0,227.187088,72.00843,1107.318481,292.185638,275.964203,0.095329,0.014301,1079.533325,-0.004567,0.146829,0.063991,0.0,1.0,2666.680908,
93.5979,115.516747,116.71019,7.373448,0.312607,7.373448,0.312607,120.000145,120.0,232.736603,72.220848,1112.225952,292.194031,276.023041,0.095044,0.014626,1086.162842,-0.004496,0.147103,0.063699,0.0,1.0,2667.061523,
93.611732,119.245422,120.438873,7.38571,0.311852,7.38571,0.311852,120.000145,120.0,236.449219,72.358719,1115.200928,292.199219,276.059479,0.094763,0.014634,1090.433716,-0.004466,0.147469,0.06328,0.0,1.0,2667.293213,
93.63176,124.860779,126.054222,7.400133,0.309294,7.400133,0.309294,120.000145,120.0,242.035904,72.560028,1119.253052,292.206512,276.109467,0.09424,0.014311,1096.606445,-0.004455,0.147714,0.06302,0.0,1.0,2667.616943,
93.644775,128.618423,129.811874,7.409338,0.305927,7.409338,0.305927,130.000137,130.0,245.770966,72.690643,1121.661011,292.211151,276.139435,0.093816,0.013985,1100.556763,-0.004418,0.148003,0.062656,0.0,1.0,2667.820801,
93.66394,134.274475,135.467926,7.420743,0.298826,7.420743,0.298826,130.000137,130.0,251.387878,72.881294,1124.935303,292.218018,276.178986,0.09313,0.013431,1106.217407,-0.00437,0.148187,0.062424,0.0,1.0,2668.113281,
93.676544,138.057343,139.250778,7.428416,0.292923,7.428416,0.292923,140.000137,140.0,255.141129,73.004951,1126.922852,292.222656,276.20166,0.092662,0.013107,1109.805908,-0.004269,0.148415,0.06208,0.0,1.0,2668.301514,
93.695091,143.748383,144.941818,7.438138,0.283939,7.438138,0.283939,140.000137,140.0,260.78299,73.185379,1129.688843,292.229614,276.230072,0.09201,0.012685,1114.902466,-0.004185,0.148568,0.061848,0.0,1.0,2668.575195,
93.70723,147.55278,148.746216,7.444692,0.277932,7.444692,0.277932,150.000137,150.0,264.551605,73.302353,1131.398193,292.234314,276.2453,0.091613,0.012446,1118.108398,-0.004056,0.148763,0.061501,0.0,1.0,2668.753418,
93.725113,153.273636,154.467072,7.453023,0.270026,7.453023,0.270026,150.000137,150.0,270.214905,73.472969,1133.802612,292.241211,276.262634,0.091087,0.012047,1122.633423,-0.00397,0.148894,0.061266,0.0,1.0,2669.014893,
93.736832,157.096375,158.289825,7.458681,0.265023,7.458681,0.265023,160.000137,160.0,273.996857,73.583542,1135.302368,292.245667,276.27063,0.090756,0.011726,1125.466187,-0.003858,0.14906,0.060921,0.0,1.0,2669.186035,
93.754166,162.842697,164.036148,7.465917,0.258165,7.465917,0.258165,160.000137,160.0,279.678925,73.744743,1137.428589,292.252014,276.277618,0.090269,0.011086,1129.451416,-0.003786,0.149174,0.060698,0.0,1.0,2669.438477,
93.765602,166.681168,167.874603,7.470842,0.253341,7.470842,0.253341,170.000137,170.0,283.472656,73.849167,1138.763916,292.256012,276.279083,0.08992,0.010569,1131.940552,-0.003688,0.149318,0.060381,0.0,1.0,2669.604736,
93.782516,172.449371,173.642807,7.477175,0.245887,7.477175,0.245887,170.000137,170.0,289.171448,74.001343,1140.666382,292.261688,276.276825,0.08936,0.00967,1135.438354,-0.003619,0.149417,0.060181,0.0,1.0,2669.85083,
93.793633,176.301392,177.494843,7.481533,0.240316,7.481533,0.240316,180.000137,180.0,292.975769,74.099884,1141.86792,292.26532,276.272644,0.088955,0.00904,1137.622437,-0.003513,0.149543,0.059897,0.0,1.0,2670.012939,
93.810089,182.088577,183.282013,7.487231,0.23177,7.487231,0.23177,180.000137,180.0,298.689606,74.243416,1143.592896,292.27066,276.262665,0.088332,0.00809,1140.693237,-0.003433,0.149631,0.059715,0.0,1.0,2670.253906,
93.820892,185.952423,187.145859,7.491204,0.225734,7.491204,0.225734,190.000137,190.0,302.503479,74.336311,1144.692871,292.27417,276.253845,0.087915,0.007492,1142.613159,-0.003311,0.149745,0.059448,0.0,1.0,2670.413086,
93.837135,191.75621,192.949646,7.496607,0.217214,7.496607,0.217214,190.000137,190.0,308.231049,74.471565,1146.236694,292.279388,276.237885,0.087321,0.00664,1145.317627,-0.003225,0.149824,0.059273,0.0,1.0,2670.649902,
93.847878,195.630417,196.823868,7.501108,0.211668,7.501108,0.211668,200.000137,200.0,312.053436,74.559052,1147.15564,292.282806,276.225677,0.086947,0.006103,1147.01123,-0.003103,0.149932,0.059012,0.0,1.0,2670.806641,
93.863457,201.44873,202.642166,7.507433,0.204253,7.507433,0.204253,200.000137,200.0,317.792786,74.686371,1148.538208,292.287811,276.205536,0.08642,0.005288,1149.396973,-0.003024,0.150022,0.058841,0.0,1.0,2671.040283,
93.87339,205.330872,206.524323,7.511373,0.199442,7.511373,0.199442,200.000137,200.0,321.622803,74.768677,1149.443604,292.291046,276.191162,0.086076,0.004736,1150.842773,-0.002918,0.150149,0.058591,0.0,1.0,2671.19458,
93.887955,211.162216,212.355667,7.515693,0.192836,7.515693,0.192836,210.000137,210.0,327.373444,74.888382,1150.776855,292.295715,276.168671,0.085583,0.003865,1152.980103,-0.002849,0.150227,0.058429,0.0,1.0,2671.424072,
93.89595,215.052429,216.245865,7.517942,0.188355,7.517942,0.188355,210.000137,210.0,331.210968,74.965721,1151.685059,292.298737,276.153351,0.085247,0.003268,1154.25708,-0.002755,0.150314,0.058196,0.0,1.0,2671.575684,
93.911224,220.895538,222.088989,7.52066,0.181928,7.52066,0.181928,220.000137,220.0,336.972717,75.078117,1152.967896,292.303101,276.130341,0.08476,0.002346,1156.189941,-0.002691,0.150359,0.058044,0.0,1.0,2671.80127,
93.925133,226.745041,227.938492,7.524301,0.175331,7.524301,0.175331,230.000137,230.0,342.740784,75.186295,1154.214722,292.307281,276.10791,0.084265,0.001417,1157.995483,-0.002599,0.150413,0.057826,0.0,1.0,2672.025146,
93.934242,230.648117,231.841568,7.526849,0.171076,7.526849,0.171076,230.000137,230.0,346.58963,75.256126,1155.055908,292.309998,276.093567,0.083944,7.9E-4,1159.137939,-0.002536,0.150461,0.057686,0.0,1.0,2672.173584,
93.945396,236.502991,237.696442,7.530905,0.164491,7.530905,0.164491,240.000137,240.0,352.368164,75.357498,1156.320557,292.313995,276.073303,0.083446,-1.31E-4,1160.549316,-0.002444,0.150537,0.057481,0.0,1.0,2672.394775,
93.955887,240.413498,241.606934,7.533288,0.160326,7.533288,0.160326,240.000137,240.0,356.223999,75.422882,1157.145996,292.316589,276.060852,0.083141,-7.39E-4,1161.675903,-0.002381,0.150593,0.057347,0.0,1.0,2672.541748,
Command: turn_+45
93.968796,246.283722,247.477173,7.537175,0.15411,7.537175,0.15411,250.000137,250.0,362.012848,75.517746,1158.356567,292.320374,276.044067,0.082687,-0.001627,1163.269165,-0.00229,0.150666,0.057152,0.0,1.0,2672.76123,
93.975258,250.20018,251.393631,7.540288,0.146447,7.540288,0.146447,250.000137,250.0,365.875427,75.578835,1159.150635,292.331451,276.034271,0.07316,0.006788,1164.278442,-7.43E-4,0.150718,0.1,0.0,1.0,2672.90625,
93.971626,256.078156,257.271606,7.555449,0.207496,7.555449,0.207496,260.000153,260.0,371.674988,75.667191,1160.810913,292.388306,276.02301,0.073755,0.04604,1165.677856,-6.97E-4,0.150806,0.1,0.0,1.0,2673.111816,
93.957596,260.001038,261.194458,7.572073,0.344921,7.572073,0.344921,260.000153,260.0,375.547546,75.723824,1162.758057,292.440094,276.019379,0.083468,0.079663,1166.646118,-8.1E-4,0.150974,0.1,0.0,1.0,2673.23291,
93.921204,265.891693,267.085114,7.596728,0.700162,7.596728,0.700162,270.000153,270.0,381.371582,75.805237,1166.918701,292.515289,276.022858,0.106686,0.124199,1168.14502,-0.001642,0.151441,0.1,0.0,1.0,2673.380371,
93.891541,269.824432,271.017883,7.604874,1.003041,7.604874,1.003041,270.000153,270.0,385.266479,75.857109,1169.821533,292.554047,276.032593,0.123646,0.143177,1169.23938,-0.002691,0.151799,0.1,0.0,1.0,2673.455566,
93.847939,275.732941,276.926392,7.608136,1.482471,7.608136,1.482471,280.000153,280.0,391.125061,75.931389,1173.307251,292.588348,276.059784,0.144547,0.151978,1171.037842,-0.004776,0.152097,0.1,0.0,1.0,2673.543457,
93.823257,279.680389,280.87381,7.605388,1.773035,7.605388,1.773035,280.000153,280.0,395.038818,75.978676,1174.752197,292.597107,276.086334,0.152867,0.146768,1172.424072,-0.007059,0.152163,0.1,0.0,1.0,2673.59375,
93.794739,285.611969,286.80542,7.597521,2.105457,7.597521,2.105457,280.000153,280.0,400.9151,76.046585,1175.461914,292.598663,276.137939,0.156053,0.130331,1174.615845,-0.008443,0.152108,0.1,0.0,1.0,2673.668945,
93.78096,289.572144,290.765594,7.590985,2.255645,7.590985,2.255645,290.000153,290.0,404.832825,76.090034,1175.088989,292.598969,276.179413,0.153079,0.119316,1176.080322,-0.010026,0.15195,0.1,0.0,1.0,2673.723877,
93.765617,295.517273,296.710724,7.581851,2.38518,7.581851,2.38518,290.000153,290.0,410.7052,76.152771,1173.792236,292.60849,276.251038,0.144768,0.110091,1178.097534,-0.010741,0.15182,0.1,0.0,1.0,2673.81665,
93.757263,299.483917,300.677368,7.575549,2.434014,7.575549,2.434014,300.000153,300.0,414.616028,76.193108,1172.727661,292.624176,276.304718,0.13911,0.111127,1179.341675,-0.011358,0.151637,0.1,0.0,1.0,2673.88501,
93.744118,305.434692,306.628113,7.568696,2.493644,7.568696,2.493644,300.000153,300.0,420.475739,76.251511,1171.274048,292.662231,276.394226,0.133666,0.123098,1180.897827,-0.011591,0.151511,0.1,0.0,1.0,2673.993896,
93.733498,309.401306,310.594757,7.565303,2.546844,7.565303,2.546844,310.000153,310.0,424.378754,76.289101,1170.595825,292.695099,276.460327,0.132981,0.135968,1181.716553,-0.011874,0.151374,0.1,0.0,1.0,2674.067139,
93.713776,315.349426,316.542877,7.562779,2.665001,7.562779,2.665001,310.000153,310.0,430.230225,76.343475,1170.102539,292.749695,276.570221,0.136161,0.157505,1182.640137,-0.012128,0.151306,0.1,0.0,1.0,2674.17334,
93.698448,319.313477,320.506927,7.561491,2.770411,7.561491,2.770411,320.000153,320.0,434.130463,76.37841,1170.070435,292.786072,276.651245,0.140148,0.17053,1183.084595,-0.01269,0.151256,0.1,0.0,1.0,2674.239746,
93.674019,325.25769,326.451111,7.559196,2.950881,7.559196,2.950881,320.000153,320.0,439.981079,76.428879,1170.176758,292.836243,276.785248,0.146829,0.184786,1183.560181,-0.013192,0.15123,0.1,0.0,1.0,2674.333008,
93.658005,329.219452,330.412872,7.556807,3.074986,7.556807,3.074986,330.000153,330.0,443.881714,76.461281,1170.180786,292.865723,276.883057,0.150556,0.190229,1183.783691,-0.014052,0.151184,0.1,0.0,1.0,2674.391602,
93.635887,335.159546,336.352997,7.552122,3.241443,7.552122,3.241443,330.000153,330.0,449.732056,76.508141,1169.87793,292.904694,277.042297,0.153842,0.19326,1183.966553,-0.014643,0.151136,0.1,0.0,1.0,2674.478027,
93.623199,339.119537,340.312988,7.547958,3.333414,7.547958,3.333414,340.000153,340.0,453.63089,76.538292,1169.413208,292.928619,277.156494,0.154301,0.193307,1184.078735,-0.015435,0.151042,0.1,0.0,1.0,2674.536621,
93.606842,345.057343,346.250793,7.541321,3.4353,7.541321,3.4353,340.000153,340.0,459.475433,76.582047,1168.372314,292.964355,277.339081,0.152949,0.193043,1184.141113,-0.015873,0.150959,0.1,0.0,1.0,2674.628174,
93.597313,349.014038,350.207458,7.536199,3.484187,7.536199,3.484187,350.000153,350.0,463.368561,76.610313,1167.518066,292.989594,277.467896,0.151303,0.193969,1184.104736,-0.016359,0.150826,0.1,0.0,1.0,2674.692139,
93.584061,354.945465,356.138885,7.529207,3.538342,7.529207,3.538342,350.000153,350.0,469.202698,76.651466,1166.168091,293.031067,277.671112,0.148886,0.198087,1183.919922,-0.016591,0.150724,0.1,0.0,1.0,2674.79248,
93.575325,358.896942,360.090393,7.524455,3.570319,7.524455,3.570319,360.000153,360.0,473.08844,76.678123,1165.313965,293.061188,277.812988,0.14784,0.202637,1183.706543,-0.016849,0.150584,0.1,0.0,1.0,2674.861572,
93.561646,364.819489,366.012939,7.518743,3.621672,7.518743,3.621672,360.000153,360.0,478.912048,76.717003,1164.199951,293.1091,278.035004,0.147558,0.211175,1183.25769,-0.017002,0.150489,0.1,0.0,1.0,2674.966553,
93.551994,368.764618,369.958069,7.515111,3.662141,7.515111,3.662141,370.000153,370.0,482.791626,76.742218,1163.595215,293.141937,278.188995,0.148181,0.217181,1182.883179,-0.017246,0.150375,0.1,0.0,1.0,2675.036621,
93.536964,374.677521,375.870941,7.510701,3.731356,7.510701,3.731356,370.000153,370.0,488.607635,76.77903,1162.848022,293.19104,278.428619,0.149905,0.225292,1182.234497,-0.017439,0.150302,0.1,0.0,1.0,2675.141113,
93.52681,378.616333,379.809784,7.507688,3.781547,7.507688,3.781547,380.000153,380.0,492.483032,76.802925,1162.417236,293.222961,278.593842,0.151207,0.229583,1181.76062,-0.017768,0.150214,0.1,0.0,1.0,2675.210205,
93.511894,384.520172,385.713623,7.50352,3.855199,7.50352,3.855199,380.000153,380.0,498.293488,76.83786,1161.774414,293.269165,278.849243,0.152845,0.234041,1181.012695,-0.018007,0.150154,0.1,0.0,1.0,2675.313477,
93.502441,388.453247,389.646698,7.500381,3.900668,7.500381,3.900668,390.000153,390.0,502.165283,76.86058,1161.309937,293.29892,279.024078,0.153503,0.235897,1180.499756,-0.018358,0.15007,0.1,0.0,1.0,2675.382813,
93.489204,394.348724,395.542175,7.49578,3.957912,7.49578,3.957912,390.000153,390.0,507.969879,76.89389,1160.523315,293.342621,279.292419,0.153762,0.237658,1179.717896,-0.018575,0.150008,0.1,0.0,1.0,2675.487793,
93.48101,398.276276,399.469727,7.492299,3.989032,7.492299,3.989032,400.000153,400.0,511.837311,76.915619,1159.941895,293.371521,279.474762,0.153531,0.238629,1179.189819,-0.018847,0.149916,0.1,0.0,1.0,2675.559326,
93.469154,404.163422,405.356842,7.487452,4.022973,7.487452,4.022973,400.000153,400.0,517.634521,76.947578,1158.914185,293.415375,279.752625,0.151967,0.24056,1178.384888,-0.018995,0.149846,0.1,0.0,1.0,2675.667969,
93.462341,408.085205,409.278656,7.483772,4.032992,7.483772,4.032992,410.000153,410.0,521.496155,76.968506,1158.104126,293.445892,279.940308,0.149848,0.243021,1177.834595,-0.019157,0.149749,0.1,0.0,1.0,2675.742188,
93.453056,413.963135,415.156586,7.477977,4.03373,7.477977,4.03373,410.000153,410.0,527.283447,76.999405,1156.850586,293.494995,280.224884,0.146706,0.249556,1176.976196,-0.019205,0.149675,0.1,0.0,1.0,2675.855957,
93.446823,417.878387,419.071838,7.473762,4.032719,7.473762,4.032719,420.000153,420.0,531.138245,77.019699,1156.059326,293.530029,280.416473,0.145323,0.255741,1176.377075,-0.019208,0.14956,0.1,0.0,1.0,2675.93335,
93.436592,423.746033,424.939484,7.468912,4.040734,7.468912,4.040734,420.000153,420.0,536.915833,77.049698,1155.066406,293.584991,280.706696,0.144827,0.266613,1175.438843,-0.019203,0.149475,0.1,0.0,1.0,2676.050049,
93.429024,427.654358,428.847809,7.466124,4.055977,7.466124,4.055977,430.000153,430.0,540.765198,77.069412,1154.577271,293.622284,280.902039,0.145482,0.273934,1174.793457,-0.019242,0.149378,0.1,0.0,1.0,2676.127441,
93.416832,433.511963,434.705414,7.463112,4.093107,7.463112,4.093107,430.000153,430.0,546.536682,77.098564,1154.05249,293.677521,281.197998,0.147391,0.283469,1173.816162,-0.019314,0.149322,0.1,0.0,1.0,2676.242188,
93.40847,437.414032,438.607483,7.461147,4.124395,7.461147,4.124395,440.000153,440.0,550.383057,77.117714,1153.78833,293.713196,281.397156,0.148833,0.288275,1173.172241,-0.019491,0.149262,0.1,0.0,1.0,2676.317871,
93.396263,443.263092,444.456543,7.45837,4.1724,7.45837,4.1724,440.000153,440.0,556.151001,77.146049,1153.391602,293.764526,281.698486,0.150588,0.292905,1172.237305,-0.01964,0.149223,0.1,0.0,1.0,2676.430664,
93.388672,447.159973,448.353424,7.456187,4.201342,7.456187,4.201342,450.000153,450.0,559.995117,77.164703,1153.078247,293.797424,281.900848,0.151231,0.294551,1171.641235,-0.019869,0.149167,0.1,0.0,1.0,2676.506104,
93.37841,453.001801,454.195251,7.452791,4.234277,7.452791,4.234277,450.000153,450.0,565.759033,77.19236,1152.495361,293.845428,282.206177,0.151321,0.295722,1170.789063,-0.020006,0.149124,0.1,0.0,1.0,2676.620605,
93.372299,456.894043,458.087494,7.45011,4.249043,7.45011,4.249043,460.000153,460.0,569.599915,77.210617,1152.035767,293.877075,282.410614,0.150912,0.296224,1170.245239,-0.020163,0.149056,0.1,0.0,1.0,2676.698486,
93.364052,462.728882,463.922333,7.446226,4.261656,7.446226,4.261656,460.000153,460.0,575.358215,77.237762,1151.286621,293.924683,282.71817,0.149963,0.297335,1169.454956,-0.020234,0.149002,0.1,0.0,1.0,2676.817871,
93.35894,466.616394,467.809814,7.443421,4.266332,7.443421,4.266332,470.000153,470.0,579.194946,77.255722,1150.783569,293.956757,282.923645,0.149343,0.298556,1168.938843,-0.020294,0.148925,0.1,0.0,1.0,2676.898926,
93.351463,472.443909,473.63736,7.439806,4.272006,7.439806,4.272006,470.000153,470.0,584.947021,77.282478,1150.0802,294.005402,283.232208,0.148736,0.301111,1168.173218,-0.020316,0.148868,0.1,0.0,1.0,2677.022705,
93.345032,476.325287,477.518738,7.437418,4.277192,7.437418,4.277192,480.000153,480.0,588.779907,77.300209,1149.664063,294.038055,283.43808,0.148674,0.3031,1167.611328,-0.020343,0.148796,0.1,0.0,1.0,2677.105469,
93.337692,482.145782,483.339203,7.43451,4.288984,7.43451,4.288984,480.000153,480.0,594.526794,77.326645,1149.135986,294.086914,283.747009,0.148961,0.306021,1166.887573,-0.020368,0.148748,0.1,0.0,1.0,2677.230225,
93.33284,486.023712,487.217133,7.432644,4.299288,7.432644,4.299288,490.000153,490.0,598.35675,77.34417,1148.822266,294.119171,283.953033,0.149315,0.307677,1166.407471,-0.020424,0.14869,0.1,0.0,1.0,2677.314453,
93.324791,491.836029,493.02948,7.430748,4.31665,7.430748,4.31665,490.000153,490.0,604.09967,77.370331,1148.366699,294.166779,284.261963,0.149912,0.309464,1165.644409,-0.020473,0.148653,0.1,0.0,1.0,2677.440918,
93.320061,495.709717,496.903137,7.429439,4.328511,7.429439,4.328511,500.000153,500.0,607.927063,77.387688,1148.095093,294.197937,284.467773,0.150241,0.310147,1165.202759,-0.020555,0.148615,0.1,0.0,1.0,2677.525879,
93.313263,501.517059,502.71051,7.427248,4.344157,7.427248,4.344157,500.000153,500.0,613.666504,77.413628,1147.68457,294.243835,284.776123,0.1505,0.310535,1164.551758,-0.020612,0.148589,0.1,0.0,1.0,2677.654297,
93.308884,505.386627,506.580048,7.425428,4.352604,7.425428,4.352604,500.000153,500.0,617.491638,77.430855,1147.409424,294.274017,284.981323,0.150504,0.310526,1164.128296,-0.020686,0.148545,0.1,0.0,1.0,2677.740479,
93.302719,511.188019,512.38147,7.422415,4.361678,7.422415,4.361678,510.000153,510.0,623.227661,77.456642,1147.00647,294.318817,285.288422,0.150322,0.310388,1163.51123,-0.020727,0.148509,0.1,0.0,1.0,2677.871338,
93.298889,515.053711,516.247192,7.420246,4.365884,7.420246,4.365884,510.000153,510.0,627.050537,77.473793,1146.724609,294.34848,285.492645,0.150141,0.310345,1163.112305,-0.02077,0.148448,0.1,0.0,1.0,2677.959229,
93.293411,520.849487,522.042969,7.417676,4.370467,7.417676,4.370467,520.000122,520.0,632.783142,77.499496,1146.322876,294.392822,285.798126,0.149892,0.310462,1162.531616,-0.02079,0.148405,0.1,0.0,1.0,2678.092529,
93.289856,524.711548,525.905029,7.416018,4.373201,7.416018,4.373201,520.000122,520.0,636.603821,77.516197,1146.089355,294.422241,286.001221,0.149789,0.310649,1162.155884,-0.020812,0.148354,0.1,0.0,1.0,2678.181885,
93.284592,530.502014,531.695496,7.413922,4.37773,7.413922,4.37773,530.000122,530.0,642.333435,77.539413,1145.785278,294.466125,286.304962,0.149764,0.310998,1161.610718,-0.020825,0.14832,0.1,0.0,1.0,2678.317139,
93.281105,534.360657,535.554138,7.412504,4.381371,7.412504,4.381371,530.000122,530.0,646.152405,77.554939,1145.61084,294.495148,286.506927,0.149824,0.311198,1161.260864,-0.020846,0.148278,0.1,0.0,1.0,2678.407715,
93.275917,540.14624,541.339722,7.410717,4.387632,7.410717,4.387632,540.000122,540.0,651.879883,77.578323,1145.379395,294.538208,286.809082,0.149986,0.311329,1160.758667,-0.020864,0.14825,0.1,0.0,1.0,2678.544189,
93.272514,544.001831,545.195251,7.409507,4.392142,7.409507,4.392142,540.000122,540.0,655.697571,77.593979,1145.242676,294.566589,287.01004,0.150103,0.311262,1160.440063,-0.020893,0.148214,0.1,0.0,1.0,2678.635742,
93.267563,549.78302,550.976501,7.407918,4.398659,7.407918,4.398659,550.000122,550.0,661.423279,77.617554,1145.050049,294.608582,287.31073,0.150243,0.310917,1159.987671,-0.020915,0.14819,0.1,0.0,1.0,2678.773438,
93.264366,553.635864,554.829285,7.40679,4.402588,7.40679,4.402588,550.000122,550.0,665.239929,77.633339,1144.926392,294.63623,287.510742,0.150292,0.310549,1159.703247,-0.020946,0.148158,0.1,0.0,1.0,2678.865479,
93.25975,559.413208,560.606628,7.405254,4.407377,7.405254,4.407377,560.000122,560.0,670.964111,77.657135,1144.741211,294.677216,287.81015,0.150296,0.309867,1159.301514,-0.020965,0.148136,0.1,0.0,1.0,2679.004395,
93.25679,563.263489,564.456909,7.404154,4.409869,7.404154,4.409869,560.000122,560.0,674.779663,77.673073,1144.618896,294.704254,288.009369,0.150262,0.309371,1159.049194,-0.020988,0.148105,0.1,0.0,1.0,2679.097412,
93.25251,569.03717,570.230652,7.40267,4.412653,7.40267,4.412653,570.000122,570.0,680.502319,77.697113,1144.439209,294.744446,288.307678,0.150185,0.308631,1158.692261,-0.020999,0.148083,0.1,0.0,1.0,2679.237793,
93.249741,572.885132,574.078613,7.401622,4.414124,7.401622,4.414124,570.000122,570.0,684.316895,77.713226,1144.325562,294.770996,288.506287,0.150137,0.308158,1158.467285,-0.021013,0.148053,0.1,0.0,1.0,2679.331787,
93.245682,578.655396,579.848877,7.400238,4.41608,7.400238,4.41608,580.000122,580.0,690.038147,77.737534,1144.16687,294.810455,288.803802,0.150092,0.307478,1158.147461,-0.02102,0.148032,0.1,0.0,1.0,2679.473145,
93.243019,582.50116,583.694641,7.399276,4.417418,7.399276,4.417418,580.000122,580.0,693.851868,77.753822,1144.071655,294.836517,289.001984,0.150087,0.307029,1157.94519,-0.021029,0.148005,0.1,0.0,1.0,2679.567871,
93.239098,588.268188,589.46167,7.398018,4.419591,7.398018,4.419591,590.000122,590.0,699.571899,77.778412,1143.942993,294.875214,289.299133,0.150112,0.306326,1157.657471,-0.021035,0.147986,0.1,0.0,1.0,2679.710205,
