airspeed_indicator_indicated_speed_kt,altimeter_indicated_altitude_ft,altimeter_pressure_alt_ft,attitude_indicator_indicated_pitch_deg,attitude_indicator_indicated_roll_deg,attitude_indicator_internal_pitch_deg,attitude_indicator_internal_roll_deg,encoder_indicated_altitude_ft,encoder_pressure_alt_ft,gps_indicated_altitude_ft,gps_indicated_ground_speed_kt,gps_indicated_vertical_speed,indicated_heading_deg,magnetic_compass_indicated_heading_deg,slip_skid_ball_indicated_slip_skid,turn_indicator_indicated_turn_rate,vertical_speed_indicator_indicated_speed_fpm,flight_aileron,flight_elevator,flight_rudder,flight_flaps,engine_throttle,engine_rpm
Command: takeoff
5.293478,-96.987549,-95.794106,2.97974,1.396974,2.592889,0.107472,-99.999855,-100,2.286308,0,0.005426,297.871155,272.985443,0.010238,-0.071804,-12.369254,0,0,0,0,0,599.445557
5.301315,-97.019188,-95.825745,2.937485,1.256299,2.593016,0.108069,-99.999855,-100,2.286337,0,0.002043,297.869904,276.511993,0.010105,-0.061509,-18.985268,-0.019957,0.051858,0,0,1,606.51416
5.319918,-97.035645,-95.842201,2.775162,0.739656,2.58572,0.108184,-99.999855,-100,2.286319,3.20E-05,-0.012226,297.868988,278.900391,0.009954,-0.055423,-20.761034,-0.017947,0.05186,6.30E-05,0,1,672.137634
5.361731,-97.053612,-95.860168,2.585647,0.223988,2.550304,0.106177,-99.999855,-100,2.286193,2.12E-04,-0.039358,297.867523,282.207886,0.009753,-0.047989,-18.553623,-0.010567,0.051714,1.08E-04,0,1,846.55719
5.470132,-97.067383,-95.87394,2.509175,0.099896,2.509175,0.099896,-99.999855,-100,2.286088,0.001305,0.006163,297.865692,285.517426,0.009729,-0.041545,-8.957894,-0.0032,0.051006,1.82E-04,0,1,1078.570679
5.60228,-97.074509,-95.881065,2.505164,0.093356,2.505164,0.093356,-99.999855,-100,2.286182,0.003741,0.048904,297.864105,287.647217,0.011293,-0.037869,-18.205942,-0.001427,0.050184,2.73E-04,0,1,1241.175659
5.906981,-97.082787,-95.889343,2.523037,0.080962,2.523037,0.080962,-99.999855,-100,2.28658,0.012375,0.109097,297.860382,290.693451,0.014849,-0.033273,-8.403219,-0.001334,0.050103,3.53E-04,0,1,1473.001343
6.184588,-97.086998,-95.893555,2.542469,0.071848,2.542469,0.071848,-99.999855,-100,2.287003,0.022995,0.146478,297.855652,292.607605,0.019036,-0.030964,-17.03163,-0.001219,0.050299,4.61E-04,0,1,1610.873901
6.535895,-97.090485,-95.897034,2.564713,0.062332,2.564713,0.062332,-99.999855,-100,2.287571,0.039514,0.179706,297.847534,294.488678,0.024464,-0.029329,-8.290024,-0.001026,0.050849,7.75E-04,0,1,1736.578857
7.143706,-97.09417,-95.900726,2.595259,0.050007,2.595259,0.050007,-99.999855,-100,2.288617,0.075237,0.22975,297.827179,296.97403,0.03504,-0.028591,-14.794357,-8.90E-04,0.051294,0.001181,0,1,1884.339478
7.586985,-97.095848,-95.902405,2.612601,0.043513,2.612601,0.043513,-99.999855,-100,2.289433,0.106568,0.274701,297.807098,298.412781,0.042897,-0.029277,-10.055956,-7.14E-04,0.051905,0.002199,0,1,1959.419189
8.350978,-97.09761,-95.904167,2.634216,0.036537,2.634216,0.036537,-99.999855,-100,2.29095,0.170513,0.333152,297.76358,300.415497,0.03737,-0.032049,-18.365591,-6.22E-04,0.052252,0.003203,0,1,2050.827881
8.922111,-97.098297,-95.904854,2.645996,0.03343,2.645996,0.03343,-99.999855,-100,2.292192,0.226366,0.379879,297.723846,301.619476,0.034071,-0.035194,-9.423424,-5.22E-04,0.052684,0.005379,0,1,2098.598877
9.788269,-97.098656,-95.905205,2.658466,0.030443,2.658466,0.030443,-99.999855,-100,2.294273,0.324117,0.450991,297.656281,303.075104,0.030036,-0.040741,-11.659233,-4.78E-04,0.05292,0.007365,0,1,2149.619385
10.061094,-97.098625,-95.905182,2.661556,0.029985,2.661556,0.029985,-99.999855,-100,2.294982,0.358155,0.47407,297.633209,303.4534,0.028727,-0.042665,-11.491755,-4.78E-04,0.05292,0.007365,0,1,2161.78125
10.236565,-97.098572,-95.905128,2.663372,0.029708,2.663372,0.029708,-99.999855,-100,2.295451,0.380844,0.489177,297.61792,303.677856,0.028053,-0.043928,-11.200708,-4.35E-04,0.053169,0.010744,0,1,2168.808105
12.223176,-97.097023,-95.90358,2.677396,0.032373,2.677396,0.032373,-99.999855,-100,2.301613,0.683394,0.659102,297.432312,305.312103,0.020554,-0.058259,9.079656,-4.24E-04,0.053267,0.012662,0,1,2218.246094
12.857196,-97.095818,-95.902374,2.680021,0.03374,2.680021,0.03374,-99.999855,-100,2.303909,0.797451,0.715409,297.368866,305.513916,0.019063,-0.062525,15.628478,-4.52E-04,0.053517,0.020445,0,1,2226.236084
13.813417,-97.093628,-95.900185,2.68344,0.037056,2.68344,0.037056,-99.999855,-100,2.30771,0.985813,0.801728,297.285156,305.553955,0.016942,-0.066366,14.04601,-4.82E-04,0.0536,0.025114,0,1,2234.01001
14.452631,-97.091911,-95.898468,2.685742,0.039602,2.685742,0.039602,-99.999855,-100,2.310485,1.122702,0.859844,297.237671,305.412628,0.01611,-0.067303,9.066814,-5.29E-04,0.053669,0.0293,0,1,2237.893799
15.118678,-97.08992,-95.896477,2.688143,0.042385,2.688143,0.042385,-99.999855,-100,2.313581,1.27472,0.919869,297.197296,305.129852,0.015567,-0.066704,18.699341,-5.66E-04,0.053715,0.031674,0,1,2241.716064
16.025066,-97.086868,-95.893425,2.691673,0.046486,2.691673,0.046486,-99.999855,-100,2.31813,1.496577,1.002671,297.157349,304.53717,0.015422,-0.063656,8.525541,-6.06E-04,0.053763,0.033693,0,1,2246.498779
16.691734,-97.084381,-95.890938,2.694528,0.049641,2.694528,0.049641,-99.999855,-100,2.321725,1.670581,1.0635,297.136078,303.959839,0.015791,-0.060443,7.949063,-6.64E-04,0.053833,0.03569,0,1,2249.710938
17.678381,-97.080299,-95.886856,2.698869,0.054449,2.698869,0.054449,-99.999855,-100,2.327434,1.94459,1.153806,297.114044,302.907806,0.016577,-0.054796,16.312021,-7.09E-04,0.053891,0.036754,0,1,2254.033691
18.291645,-97.077538,-95.884087,2.701717,0.057695,2.701717,0.057695,-99.999855,-100,2.331217,2.124608,1.210146,297.103577,302.147797,0.01711,-0.051226,17.195827,-7.78E-04,0.053977,0.037856,0,1,2256.492676
19.251846,-97.072861,-95.879417,2.706203,0.063161,2.706203,0.063161,-99.999855,-100,2.337497,2.420892,1.300217,297.088593,300.818268,0.017631,-0.046081,15.385019,-8.24E-04,0.054034,0.038379,0,1,2260.049072
19.917656,-97.069359,-95.875908,2.709469,0.067321,2.709469,0.067321,-99.999855,-100,2.342116,2.636822,1.359739,297.076447,299.809662,0.01763,-0.043231,19.048767,-9.02E-04,0.054124,0.039128,0,1,2262.342773
20.850193,-97.064102,-95.870659,2.714072,0.073619,2.714072,0.073619,-99.999855,-100,2.348938,2.952752,1.446729,297.054413,298.304169,0.016909,-0.040507,19.39678,-9.62E-04,0.054189,0.039735,0,1,2265.359863
21.781376,-97.058441,-95.86499,2.718896,0.080454,2.718896,0.080454,-99.999855,-100,2.356175,3.284141,1.529297,297.023834,296.717407,0.015162,-0.039491,9.684691,-0.001052,0.054281,0.040837,0,1,2268.197754
22.47316,-97.05397,-95.860527,2.722588,0.08579,2.722588,0.08579,-99.999855,-100,2.361821,3.540038,1.593374,296.995056,295.503937,0.013438,-0.03977,18.667969,-0.001149,0.054378,0.042366,0,1,2270.21582
23.403746,-97.0476,-95.854156,2.727654,0.093113,2.727654,0.093113,-99.999855,-100,2.369782,3.897224,1.6809,296.950134,293.846985,0.010273,-0.041041,13.067276,-0.001226,0.054452,0.043805,0,1,2272.838379
24.040668,-97.042999,-95.849548,2.731352,0.09822,2.731352,0.09822,-99.999855,-100,2.375483,4.150362,1.740389,296.915649,292.708405,0.007943,-0.042386,9.914077,-0.00133,0.054553,0.046051,0,1,2274.586914
24.703201,-97.037994,-95.844551,2.735249,0.103307,2.735249,0.103307,-99.999855,-100,2.381629,4.420967,1.79904,296.878448,291.531097,0.005605,-0.043827,8.909283,-0.001403,0.054627,0.047775,0,1,2276.375
25.62908,-97.030632,-95.837189,2.743966,0.112696,2.743966,0.112696,-99.999855,-100,2.390895,4.81136,2.011338,296.827393,289.91507,0.002679,-0.045355,19.223473,-0.001476,0.054705,0.049635,0,1,2278.832275
26.578926,-97.022469,-95.829025,2.753433,0.123348,2.753433,0.123348,-99.999855,-100,2.401502,5.226528,2.192619,296.777374,288.314392,-6.48E-04,-0.046312,9.121351,-0.00161,0.054879,0.052188,0,1,2281.316406
27.210703,-97.016663,-95.823212,2.75754,0.127854,2.75754,0.127854,-99.999855,-100,2.408918,5.510745,2.254888,296.746246,287.293365,-0.002238,-0.046581,12.794789,-0.001762,0.055069,0.054689,0,1,2282.953857
27.814816,-97.010826,-95.817383,2.761263,0.131697,2.761263,0.131697,-99.999855,-100,2.416221,5.788554,2.313909,296.719147,286.356232,-0.003256,-0.046364,16.152405,-0.001826,0.055151,0.056245,0,1,2284.511963
28.811079,-97.000671,-95.807228,2.76787,0.137895,2.76787,0.137895,-99.999855,-100,2.428717,6.258875,2.41721,296.681091,284.909943,-0.004051,-0.045022,15.45296,-0.001881,0.055225,0.0576,0,1,2287.067627
29.412466,-96.994217,-95.800774,2.772196,0.141692,2.772196,0.141692,-99.999855,-100,2.436543,6.550213,2.479145,296.6604,284.103241,-0.004148,-0.043962,7.743838,-0.00197,0.055357,0.059503,0,1,2288.605225
30.325239,-96.983971,-95.790527,2.778699,0.147406,2.778699,0.147406,-99.999855,-100,2.448829,7.002898,2.571158,296.631622,282.984802,-0.00403,-0.042109,19.755777,-0.002024,0.055444,0.060538,0,1,2290.935059
31.261744,-96.972908,-95.779465,2.785583,0.153779,2.785583,0.153779,-99.999855,-100,2.461943,7.479912,2.667995,296.601746,281.981232,-0.004117,-0.04054,11.09345,-0.002106,0.055574,0.061977,0,1,2293.321289
31.910646,-96.964928,-95.771484,2.790394,0.158534,2.790394,0.158534,-99.999855,-100,2.471334,7.81775,2.734284,296.578827,281.376251,-0.004512,-0.039933,12.394708,-0.002197,0.055712,0.06347,0,1,2294.974121
32.558422,-96.956696,-95.763252,2.795051,0.163387,2.795051,0.163387,-99.999855,-100,2.480955,8.160821,2.801075,296.553772,280.848785,-0.005263,-0.039719,14.477297,-0.002265,0.055808,0.064616,0,1,2296.624023
33.48888,-96.944412,-95.750969,2.806726,0.170791,2.806726,0.170791,-99.999855,-100,2.495565,8.66376,3.23974,296.513611,280.227234,-0.007152,-0.040083,9.12516,-0.002334,0.055901,0.065869,0,1,2298.996094
34.41563,-96.931358,-95.737915,2.815806,0.178517,2.815806,0.178517,-99.999855,-100,2.512015,9.176852,3.332758,296.466888,279.768646,-0.010039,-0.041417,8.811242,-0.00244,0.056135,0.067877,0,1,2301.364014
35.03244,-96.922173,-95.728729,2.82007,0.183781,2.82007,0.183781,-99.999855,-100,2.523245,9.524361,3.400956,296.43222,279.552216,-0.012341,-0.042749,15.67259,-0.00255,0.056316,0.070213,0,1,2302.941162
35.622608,-96.913055,-95.719612,2.824069,0.188636,2.824069,0.188636,-99.999855,-100,2.534218,9.861354,3.469724,296.397827,279.4104,-0.014794,-0.044073,8.423714,-0.002625,0.056401,0.071947,0,1,2304.451416
36.568329,-96.897789,-95.704346,2.830974,0.196346,2.830974,0.196346,-99.999855,-100,2.552318,10.411366,3.573026,296.34256,279.312408,-0.018539,-0.045933,18.98374,-0.002695,0.056481,0.073666,0,1,2306.879395
37.435459,-96.883118,-95.689674,2.837715,0.203018,2.837715,0.203018,-99.999855,-100,2.569445,10.925069,3.67817,296.29187,279.356903,-0.021859,-0.047388,16.186214,-0.002805,0.056619,0.07643,0,1,2309.107666
38.096157,-96.871521,-95.678078,2.842965,0.207926,2.842965,0.207926,-99.999855,-100,2.58286,11.32306,3.755244,296.254242,279.472321,-0.02368,-0.048193,20.008173,-0.0029,0.056754,0.078964,0,1,2310.810547
38.982132,-96.855415,-95.661972,2.849402,0.214562,2.849402,0.214562,-99.999855,-100,2.601285,11.865623,3.837645,296.207458,279.730469,-0.025416,-0.0485,20.271221,-0.00297,0.056859,0.080846,0,1,2313.100342
39.58746,-96.844009,-95.650566,2.86076,0.221749,2.86076,0.221749,-99.999855,-100,2.615031,12.242028,4.309772,296.178101,279.970032,-0.026093,-0.048213,13.133015,-0.003065,0.056988,0.083185,0,1,2314.668701
40.466915,-96.826546,-95.633102,2.869447,0.227802,2.869447,0.227802,-99.999855,-100,2.636484,12.797069,4.458394,296.139221,280.400757,-0.026609,-0.047325,19.924753,-0.003168,0.057215,0.084653,0,1,2316.952881
41.118015,-96.812965,-95.619514,2.874019,0.23188,2.874019,0.23188,-99.999855,-100,2.65273,13.213922,4.536808,296.111969,280.776031,-0.026514,-0.046518,10.171189,-0.003254,0.057389,0.086597,0,1,2318.647217
41.717281,-96.800003,-95.60656,2.878286,0.235555,2.878286,0.235555,-99.999855,-100,2.667982,13.602023,4.609193,296.087555,281.158783,-0.02616,-0.045732,20.2122,-0.003313,0.05748,0.087959,0,1,2320.209473
42.613583,-96.779877,-95.586433,2.88511,0.241248,2.88511,0.241248,-99.999855,-100,2.691329,14.189931,4.724554,296.050934,281.787903,-0.025696,-0.044712,13.896616,-0.003365,0.057566,0.08918,0,1,2322.550049
43.506634,-96.758987,-95.565536,2.894789,0.247315,2.894789,0.247315,-99.999855,-100,2.71538,14.784468,5.063802,296.010681,282.468903,-0.025645,-0.044414,11.272024,-0.003446,0.057702,0.091011,0,1,2325.25293
44.074043,-96.745117,-95.551674,2.903675,0.253008,2.903675,0.253008,-99.999855,-100,2.732475,15.167631,5.395145,295.981964,282.923828,-0.026257,-0.044693,14.053513,-0.003533,0.057896,0.093024,0,1,2327.75293
44.936943,-96.723045,-95.529602,2.910582,0.259969,2.910582,0.259969,-99.999855,-100,2.759087,15.755474,5.531809,295.934021,283.634857,-0.028069,-0.045758,19.123539,-0.003614,0.058073,0.09446,0,1,2332.362549
45.576008,-96.70594,-95.512497,2.915221,0.265187,2.915221,0.265187,-99.999855,-100,2.779216,16.195763,5.614109,295.894623,284.17041,-0.029885,-0.047055,14.602666,-0.003714,0.058212,0.096857,0,1,2336.187744
46.411331,-96.6828,-95.489357,2.921422,0.271619,2.921422,0.271619,-99.999855,-100,2.806024,16.776001,5.731345,295.840607,284.869904,-0.033098,-0.048913,20.556993,-0.003788,0.058304,0.098827,0,1,2341.500732
47.025494,-96.665268,-95.471825,2.926312,0.276381,2.926312,0.276381,-99.999855,-100,2.826095,17.205784,5.826842,295.799683,285.377258,-0.035417,-0.050307,12.589978,-0.00388,0.058428,0.101527,0,1,2345.549072
47.931915,-96.638535,-95.445091,2.934186,0.282478,2.934186,0.282478,-99.999855,-100,2.856425,17.846581,6.064497,295.741089,286.106903,-0.038383,-0.051782,20.935633,-0.003948,0.058526,0.103574,0,1,2351.671631
48.493401,-96.621346,-95.427902,2.947648,0.295885,2.947648,0.295885,-99.999855,-100,2.877593,18.24766,6.85621,295.707825,286.54245,-0.039631,-0.051858,12.675104,-0.004008,0.058622,0.105582,0,1,2355.526611
49.079189,-96.602676,-95.409225,2.953875,0.299843,2.953875,0.299843,-99.999855,-100,2.900595,18.668348,6.94273,295.674255,286.978363,-0.040841,-0.052005,11.749913,-0.004227,0.058953,0.108167,0,1,2359.573486
49.930954,-96.574158,-95.380714,2.959508,0.304184,2.959508,0.304184,-99.999855,-100,2.934628,19.285711,7.060167,295.629639,287.573883,-0.041338,-0.051518,18.824087,-0.004283,0.059078,0.109845,0,1,2365.50293
50.830639,-96.542641,-95.34919,2.966162,0.308526,2.966162,0.308526,-99.999855,-100,2.971303,19.943163,7.204201,295.586182,288.143768,-0.040688,-0.050541,19.34243,-0.004345,0.05919,0.112076,0,1,2371.794434
51.4375,-96.520615,-95.327171,2.970953,0.311341,2.970953,0.311341,-99.999855,-100,2.996504,20.390089,7.302076,295.557556,288.490173,-0.03979,-0.04986,12.478389,-0.004408,0.059323,0.114249,0,1,2376.053467
52.310246,-96.488007,-95.294563,2.977632,0.315127,2.977632,0.315127,-99.999855,-100,3.033393,21.037355,7.443831,295.517365,288.929688,-0.037984,-0.04884,13.190538,-0.004448,0.059419,0.11568,0,1,2382.19458
52.891636,-96.465736,-95.272293,2.982214,0.317804,2.982214,0.317804,-99.999855,-100,3.058381,21.47121,7.541573,295.489532,289.181854,-0.036752,-0.048426,13.588636,-0.004502,0.059553,0.117689,0,1,2386.292969
53.71423,-96.433502,-95.240059,2.988384,0.321411,2.988384,0.321411,-99.999855,-100,3.094317,22.088938,7.673045,295.448334,289.481018,-0.035064,-0.04818,18.09675,-0.00454,0.059644,0.119081,0,1,2392.10498
54.34177,-96.408302,-95.214859,2.993243,0.324379,2.993243,0.324379,-99.999855,-100,3.122224,22.563692,7.774572,295.413879,289.662842,-0.034284,-0.048498,14.617703,-0.004592,0.059768,0.121141,0,1,2396.55249
55.186646,-96.373703,-95.180252,2.999431,0.328023,2.999431,0.328023,-99.999855,-100,3.160374,23.205915,7.914083,295.364014,289.842804,-0.033598,-0.049405,14.611857,-0.004634,0.059865,0.122864,0,1,2402.545898
55.76516,-96.349541,-95.15609,3.00379,0.330604,3.00379,0.330604,-99.999855,-100,3.186921,23.648306,8.009313,295.327332,289.92334,-0.033516,-0.050353,20.681145,-0.004686,0.059989,0.125357,0,1,2406.659424
56.655857,-96.311661,-95.118217,3.009028,0.335167,3.009028,0.335167,-99.999855,-100,3.228025,24.333406,8.045823,295.269379,289.980164,-0.033539,-0.051807,14.919966,-0.004723,0.060076,0.127191,0,1,2413.007324
57.23278,-96.286728,-95.093285,3.013308,0.337241,3.013308,0.337241,-99.999855,-100,3.25502,24.779728,8.140818,295.23114,289.974457,-0.033643,-0.052757,15.09745,-0.004788,0.060181,0.130089,0,1,2417.128662
58.072796,-96.249832,-95.056389,3.020844,0.339112,3.020844,0.339112,-99.999855,-100,3.295076,25.433237,8.402556,295.178131,289.908508,-0.033355,-0.053546,17.752371,-0.004818,0.060266,0.132001,0,1,2423.143311
58.671108,-96.222961,-95.029518,3.028567,0.338885,3.028567,0.338885,-99.999855,-100,3.325506,25.901863,8.824271,295.142456,289.821442,-0.032517,-0.053732,14.755064,-0.004844,0.060417,0.134651,0,1,2427.441895
59.530354,-96.183189,-94.989746,3.042132,0.339077,3.042132,0.339077,-99.999855,-100,3.371854,26.579252,9.835551,295.096252,289.641418,-0.030258,-0.053126,19.794409,-0.004841,0.060571,0.136435,0,1,2433.634033
60.053917,-96.157921,-94.964478,3.047135,0.339487,3.047135,0.339487,-89.999855,-90,3.402046,26.994642,9.91544,295.070313,289.501831,-0.027603,-0.052449,19.017302,-0.004844,0.060843,0.138745,0,1,2437.417725
60.956848,-96.112602,-94.919159,3.052425,0.339195,3.052425,0.339195,-89.999855,-90,3.454787,27.71459,10.063492,295.029236,289.213074,-0.022325,-0.050862,22.802567,-0.00485,0.060943,0.140042,0,1,2444.01123
61.502579,-96.084282,-94.890831,3.055982,0.338818,3.055982,0.338818,-89.999855,-90,3.48711,28.151802,10.161635,295.004944,289.011963,-0.018201,-0.049949,14.329972,-0.004846,0.061049,0.142096,0,1,2448.051514
62.355492,-96.03878,-94.845337,3.064835,0.341429,3.064835,0.341429,-89.999855,-90,3.538913,28.838249,10.708224,294.967377,288.662872,-0.011202,-0.048525,13.938299,-0.00484,0.06112,0.143311,0,1,2454.422119
62.923347,-96.007484,-94.814041,3.071168,0.341906,3.071168,0.341906,-89.999855,-90,3.57538,29.297256,10.996291,294.940887,288.410187,-0.006392,-0.048002,14.396397,-0.004878,0.061297,0.145189,0,1,2458.689697
63.796665,-95.957649,-94.764206,3.076353,0.339114,3.076353,0.339114,-89.999855,-90,3.632265,30.006962,11.14297,294.897369,287.995483,0.00155,-0.04775,20.375282,-0.004884,0.061423,0.146513,0,1,2465.289063
Command: fly_strait
64.363121,-95.924431,-94.730988,3.079788,0.336891,3.079788,0.336891,-89.999855,-90,3.669606,30.468607,11.250258,294.866913,287.713684,0.007,-0.047977,20.785772,-0.004844,0.061527,0.148689,0,1,2469.580322
65.199455,-95.874985,-94.681541,3.08372,0.356523,3.08372,0.356523,-89.999855,-90,3.7247,31.143637,11.407924,294.683228,287.290192,0.005233,-0.07381,16.16033,-0.004813,0.061596,0,0,1,2475.862793
65.77076,-95.841782,-94.648331,3.086417,0.35869,3.086417,0.35869,-89.999855,-90,3.761844,31.588427,12.364605,294.232483,287.005493,-0.015252,-0.142134,21.662422,-0.005093,0.061674,0.009184,0,1,2480.049316
66.73558,-95.784958,-94.591515,3.085246,0.323114,3.085246,0.323114,-89.999855,-90,3.829238,32.325401,12.847819,293.048492,286.520813,-0.083416,-0.308484,22.740187,-0.005124,0.061728,0.031721,0,1,2487.127197
67.323044,-95.749298,-94.555855,3.080628,0.285919,3.080628,0.285919,-89.999855,-90,3.87049,32.772804,12.980565,292.201355,286.214661,-0.149461,-0.416079,18.205679,-0.004616,0.061705,0.090921,0,1,2491.495605
68.236259,-95.691772,-94.498329,3.078167,0.213039,3.078167,0.213039,-89.999855,-90,3.935971,33.475254,13.218119,291.026703,285.707947,-0.254645,-0.538402,23.534266,-0.004085,0.061613,0.133278,0,1,2498.407959
68.843269,-95.652435,-94.458992,3.081631,0.168701,3.081631,0.168701,-89.999855,-90,3.98037,33.945103,13.418291,290.479248,285.348206,-0.312911,-0.571814,15.480268,-0.003043,0.061563,0.192011,0,1,2503.046387
Command_Fault: set /instrumentation/heading-indicator/serviceable false
69.772316,-95.590004,-94.396561,3.07929,0.076363,3.07929,0.076363,-89.999855,-90,4.052886,34.671726,14.873327,290.230438,284.758698,-0.364938,-0.521561,17.776079,-0.00241,0.061633,0.219383,0,1,2510.209961
70.353966,-95.549683,-94.356232,3.048855,-0.012473,3.048855,-0.012473,-89.999855,-90,4.10125,35.124821,15.259637,290.230438,284.374969,-0.366099,-0.431357,16.388773,-0.001091,0.061586,0.2314,0,1,2514.678223
71.232193,-95.484116,-94.290672,3.016511,-0.094334,3.016511,-0.094334,-89.999855,-90,4.177859,35.836208,15.046434,290.230438,283.763336,-0.312247,-0.223725,18.962574,1.78E-04,0.060977,0.231889,0,1,2521.653809
71.775528,-95.43911,-94.245667,3.032188,-0.058072,3.032188,-0.058072,-89.999855,-90,4.227695,36.311722,15.302948,290.230438,283.360291,-0.242327,-0.061503,19.165352,0.001348,0.06033,0.232491,0,1,2526.198975
72.540482,-95.36747,-94.174026,2.98994,0.347368,2.98994,0.347368,-89.999855,-90,4.315128,37.046089,18.53726,290.230438,282.770721,-0.112915,0.192007,17.708099,8.30E-04,0.060644,0.232724,0,1,2532.887451
73.001411,-95.318176,-94.124733,2.873973,0.922742,2.873973,0.922742,-89.999855,-90,4.378263,37.522861,19.018902,290.230438,282.422943,-0.022478,0.339106,18.886837,-0.004962,0.059799,0.232819,0,1,2536.982422
73.680702,-95.237785,-94.044342,2.618133,1.945681,2.618133,1.945681,-89.999855,-90,4.496489,38.240486,25.369286,290.230438,281.973785,0.10174,0.496002,19.286388,-0.013182,0.057479,0.232697,0,1,2542.827148
74.144501,-95.177963,-93.98452,2.496058,2.642965,2.496058,2.642965,-89.999855,-90,4.582424,38.719257,26.002596,290.230438,281.732147,0.179157,0.550248,19.236084,-0.027795,0.052363,0.232285,0,1,2546.611572
74.873611,-95.079704,-93.886261,2.531457,3.634812,2.531457,3.634812,-89.999855,-90,4.717601,39.437057,28.804041,290.230438,281.464203,0.266639,0.563625,21.258408,-0.037757,0.049921,0.231958,0,1,2552.278564
75.382484,-95.007668,-93.814224,2.63358,4.27729,2.63358,4.27729,-89.999855,-90,4.829824,39.915359,39.589272,290.230438,281.347565,0.299745,0.538745,23.35359,-0.051926,0.050629,0.231514,0,1,2556.122559
76.160568,-94.877472,-93.684029,2.749803,4.876432,2.749803,4.876432,-89.999855,-90,5.090126,40.632408,64.226234,290.230438,281.258026,0.319655,0.466606,30.376396,-0.061104,0.052672,0.231284,0,1,2562.053467
76.673996,-94.765373,-93.571922,2.817123,4.990309,2.817123,4.990309,-89.999855,-90,5.331803,41.110165,79.954277,290.230438,281.250183,0.319121,0.411259,37.519867,-0.069663,0.054996,0.231103,0,1,2566.103027
77.421089,-94.5457,-93.352257,2.93314,4.757638,2.93314,4.757638,-89.999855,-90,5.787282,41.826363,101.318375,290.230438,281.308411,0.306411,0.341156,50.588188,-0.07129,0.056342,0.231108,0,1,2572.238281
77.897148,-94.359901,-93.166458,3.034228,4.43177,3.034228,4.43177,-89.999855,-90,6.149383,42.303444,115.534065,290.230438,281.390198,0.295525,0.313279,60.328026,-0.067966,0.058663,0.231262,0,1,2576.311035
78.572884,-94.015511,-92.822067,3.186615,3.899512,3.186615,3.899512,-89.999855,-90,6.785115,43.018082,138.332794,290.230438,281.572632,0.282389,0.306225,76.276512,-0.063311,0.060685,0.231424,0,1,2582.304688
78.994774,-93.73838,-92.544937,3.289422,3.600751,3.289422,3.600751,-89.999855,-90,7.273548,43.4935,154.217102,290.230438,281.732391,0.278914,0.322418,87.76046,-0.055707,0.063732,0.231673,0,1,2586.182617
79.584724,-93.245422,-92.051979,3.418955,3.379811,3.418955,3.379811,-89.999855,-90,8.107046,44.204403,178.707886,290.230438,282.027252,0.283141,0.368061,106.148788,-0.051439,0.065788,0.23181,0,1,2591.768311
79.951569,-92.862129,-91.668686,3.504303,3.387833,3.504303,3.387833,-89.999855,-90,8.732514,44.676422,196.070038,290.230438,282.259705,0.291319,0.404186,119.119118,-0.048283,0.068379,0.231931,0,1,2595.211914
80.467796,-92.199875,-91.006432,3.620937,3.603834,3.620937,3.603834,-89.999855,-90,9.782324,45.380844,223.148392,290.230438,282.659485,0.308782,0.45355,139.612808,-0.048398,0.070086,0.231949,0,1,2599.35376
80.794113,-91.696686,-90.503235,3.700985,3.834147,3.700985,3.834147,-89.999855,-90,10.557917,45.847652,241.563904,290.230438,282.957703,0.321266,0.477568,154.07901,-0.051483,0.072419,0.231894,0,1,2601.605225
Command_Fault: set /instrumentation/heading-indicator/serviceable true
81.265694,-90.845062,-89.651611,3.806267,4.191357,3.806267,4.191357,-89.999855,-90,11.836192,46.543087,268.651642,290.232758,283.446716,0.338109,0.495385,176.568512,-0.054774,0.07402,0.231824,0,1,2604.470947
81.570091,-90.210953,-89.017509,3.878044,4.398725,3.878044,4.398725,-89.999855,-90,12.761076,47.003254,285.467102,290.345428,283.796417,0.346584,0.496281,191.944946,-0.059877,0.076125,0.231708,0,1,2606.141357
82.014267,-89.159592,-87.966141,3.97718,4.58795,3.97718,4.58795,-89.999855,-90,14.249361,47.687939,309.225555,290.69278,284.348755,0.355154,0.484632,215.146378,-0.062839,0.077561,0.226074,0,1,2608.403076
82.303246,-88.392265,-87.198822,4.052365,4.634661,4.052365,4.634661,-89.999855,-90,15.309008,48.140514,326.087189,290.891388,284.730927,0.358691,0.470742,230.569122,-0.065542,0.079544,0.208707,0,1,2609.794434
82.72718,-87.140923,-85.947479,4.180892,4.584065,4.180892,4.584065,-89.999855,-90,17.00815,48.81332,353.093079,291.11792,285.317261,0.360001,0.438188,253.838562,-0.066209,0.081047,0.198776,0,1,2611.760254
83.00116,-86.238525,-85.045082,4.28502,4.470251,4.28502,4.470251,-89.999855,-90,18.216433,49.257675,370.731445,291.230286,285.712006,0.35716,0.411261,269.582428,-0.065487,0.083618,0.18745,0,1,2613.01123
83.401466,-84.782082,-83.588631,4.414052,4.204164,4.414052,4.204164,-79.999855,-80,20.126886,49.917751,391.646179,291.35675,286.301605,0.348554,0.367037,293.322815,-0.063861,0.0857,0.181831,0,1,2614.818359
83.663132,-83.745064,-82.55162,4.475238,3.972562,4.475238,3.972562,-79.999855,-80,21.450275,50.353439,401.664276,291.435669,286.688568,0.340355,0.339228,308.771088,-0.060059,0.088281,0.175508,0,1,2615.985107
84.052238,-82.098877,-80.905434,4.522878,3.608319,4.522878,3.608319,-79.999855,-80,23.49316,51.000381,414.71817,291.572693,287.254059,0.326127,0.305191,330.619202,-0.056751,0.089505,0.171562,0,1,2617.688721
84.307518,-80.946228,-79.752785,4.557629,3.366893,4.557629,3.366893,-79.999855,-80,24.889112,51.427269,422.540863,291.688507,287.61853,0.31682,0.289181,344.130127,-0.051547,0.090458,0.164711,0,1,2618.797119
84.681877,-79.142464,-77.94902,4.626075,3.072088,4.626075,3.072088,-79.999855,-80,27.033894,52.060917,435.336151,291.886841,288.142914,0.304742,0.273191,362.840057,-0.048098,0.091153,0.15892,0,1,2620.419922
84.924782,-77.89325,-76.699806,4.680954,2.913726,4.680954,2.913726,-79.999855,-80,28.501692,52.478806,445.132935,292.0242,288.475677,0.298065,0.26535,374.473419,-0.043887,0.092522,0.149004,0,1,2621.47583
85.281364,-75.951851,-74.758408,4.755726,2.74831,4.755726,2.74831,-79.999855,-80,30.768633,53.098656,461.390167,292.201965,288.946259,0.289577,0.251857,391.147461,-0.041625,0.093619,0.142136,0,1,2623.023438
85.514351,-74.613243,-73.4198,4.806626,2.658628,4.806626,2.658628,-69.999855,-70,32.32621,53.507175,472.766388,292.291962,289.238983,0.283495,0.239824,401.946503,-0.039262,0.095115,0.133247,0,1,2624.03418
85.858414,-72.537399,-71.343956,4.879552,2.529337,4.879552,2.529337,-69.999855,-70,34.734238,54.11282,489.92569,292.374908,289.643158,0.272763,0.215855,418.093048,-0.03798,0.096133,0.128748,0,1,2625.524902
86.087936,-71.107773,-69.91433,4.932721,2.421654,4.932721,2.421654,-69.999855,-70,36.387089,54.511822,501.38382,292.406982,289.88736,0.263721,0.19776,428.903107,-0.036133,0.097591,0.1246,0,1,2626.504883
86.423843,-68.89492,-67.701477,5.005937,2.230492,5.005937,2.230492,-69.999855,-70,38.93898,55.103176,518.873352,292.444305,290.21286,0.248121,0.171687,445.126831,-0.034595,0.098654,0.122997,0,1,2627.957031
86.64257,-67.373734,-66.18029,5.058875,2.083737,5.058875,2.083737,-69.999855,-70,40.688885,55.492641,530.666992,292.478912,290.401337,0.237227,0.157633,455.984863,-0.031864,0.100119,0.12113,0,1,2628.91333
86.959534,-65.022934,-63.829487,5.133862,1.877201,5.133862,1.877201,-59.999859,-60,43.38842,56.069633,548.635864,292.560699,290.640015,0.222128,0.144122,472.307098,-0.029768,0.101177,0.1194,0,1,2630.327148
87.166496,-63.408394,-62.214947,5.188412,1.756375,5.188412,1.756375,-59.999859,-60,45.238266,56.449451,560.907166,292.636627,290.769592,0.213881,0.139928,483.358734,-0.026817,0.102677,0.115311,0,1,2631.254639
87.46347,-60.915276,-59.721832,5.267133,1.632099,5.267133,1.632099,-59.999859,-60,48.091915,57.011806,580.086914,292.763397,290.920044,0.204693,0.137475,500.084076,-0.025091,0.103768,0.111514,0,1,2632.619385
87.654266,-59.204769,-58.011326,5.325463,1.575283,5.325463,1.575283,-59.999859,-60,50.048203,57.381741,593.245422,292.84491,290.991486,0.200261,0.136018,511.381775,-0.023316,0.105343,0.105176,0,1,2633.51123
87.931404,-56.564674,-55.371227,5.408249,1.519229,5.408249,1.519229,-59.999859,-60,53.065975,57.929092,613.273254,292.936584,291.056335,0.194997,0.129749,528.610352,-0.022504,0.106509,0.1011,0,1,2634.821777
88.110771,-54.754108,-53.560665,5.466879,1.481873,5.466879,1.481873,-49.999859,-50,55.133324,58.288921,626.653564,292.973572,291.071869,0.191072,0.122247,540.295837,-0.021703,0.108165,0.096516,0,1,2635.678467
88.373367,-51.961243,-50.767799,5.545089,1.407132,5.545089,1.407132,-49.999859,-50,58.317932,58.821026,646.477661,292.995575,291.054596,0.183676,0.106717,558.103271,-0.02117,0.109338,0.094667,0,1,2636.94043
88.544212,-50.047539,-48.854095,5.599685,1.334953,5.599685,1.334953,-49.999859,-50,60.495121,59.170666,659.327393,292.999512,291.016785,0.177405,0.095532,570.124634,-0.020102,0.110902,0.093567,0,1,2637.767334
88.793625,-47.099209,-45.905766,5.675138,1.201748,5.675138,1.201748,-49.999859,-50,63.840473,59.687466,678.142273,293.011871,290.922363,0.166996,0.081375,588.286865,-0.019071,0.111994,0.09337,0,1,2638.987549
88.954384,-45.082031,-43.888584,5.729555,1.10331,5.729555,1.10331,-39.999859,-40,66.122269,60.026886,690.486694,293.035156,290.835693,0.160335,0.075302,600.426514,-0.017168,0.113503,0.092752,0,1,2639.786865
89.18634,-41.979385,-40.785942,5.805043,0.973194,5.805043,0.973194,-39.999859,-40,69.622314,60.528301,708.930969,293.096893,290.673126,0.15221,0.071865,618.614624,-0.015762,0.114591,0.091588,0,1,2640.962158
89.334175,-39.860027,-38.666584,5.859122,0.904609,5.859122,0.904609,-39.999859,-40,72.006554,60.857395,721.188538,293.151642,290.545166,0.148601,0.072331,630.703918,-0.013903,0.116101,0.088501,0,1,2641.72876
89.546593,-36.605057,-35.411613,5.932167,0.844436,5.932167,0.844436,-39.999859,-40,75.660042,61.343204,739.592773,293.232361,290.327667,0.145667,0.07349,648.769531,-0.012923,0.117182,0.085764,0,1,2642.850586
89.676987,-34.479115,-33.285671,5.980545,0.824083,5.980545,0.824083,-29.999857,-30,78.041862,61.64864,751.164978,293.273499,290.174713,0.144512,0.072814,660.174927,-0.012063,0.118643,0.081728,0,1,2643.550293
89.880264,-30.982767,-29.789324,6.049532,0.804889,6.049532,0.804889,-29.999857,-30,81.950371,62.131886,769.306335,293.307129,289.909424,0.142658,0.066971,678.482849,-0.011773,0.119611,0.079671,0,1,2644.649414
90.008682,-28.662237,-27.468792,6.096741,0.785407,6.096741,0.785407,-29.999857,-30,84.534523,62.44001,780.758057,293.309692,289.726624,0.140348,0.060492,690.448486,-0.011498,0.120991,0.077989,0,1,2645.346191
90.197075,-25.109425,-23.915979,6.156762,0.732905,6.156762,0.732905,-29.999857,-30,88.481834,62.894367,797.498352,293.298187,289.439697,0.135083,0.049137,708.086731,-0.01122,0.121935,0.077861,0,1,2646.370605
90.319283,-22.692333,-21.49889,6.198085,0.680882,6.198085,0.680882,-19.999857,-20,91.158646,63.192081,808.147278,293.291962,289.241791,0.130652,0.042428,719.765625,-0.01047,0.123135,0.078436,0,1,2647.041016
90.497711,-18.996693,-17.803249,6.255662,0.592918,6.255662,0.592918,-19.999857,-20,95.23954,63.630913,823.641602,293.302185,288.938354,0.123946,0.036526,736.985046,-0.009727,0.123962,0.078748,0,1,2648.027832
90.612564,-16.487309,-15.293863,6.298041,0.537025,6.298041,0.537025,-19.999857,-20,98.002487,63.918324,833.72998,293.325989,288.733765,0.120395,0.035819,748.252319,-0.00847,0.125113,0.078236,0,1,2648.673096
90.777641,-12.656541,-11.463097,6.358613,0.480644,6.358613,0.480644,-9.999858,-10,102.209579,64.341721,848.606567,293.380035,288.427124,0.117233,0.038275,764.82373,-0.007672,0.125961,0.077046,0,1,2649.620361
90.882591,-10.059173,-8.865728,6.401968,0.462588,6.401968,0.462588,-9.999858,-10,105.055252,64.618851,858.444763,293.41983,288.224945,0.116559,0.04066,775.653381,-0.006866,0.127172,0.074344,0,1,2650.22876
91.033585,-6.099227,-4.905783,6.458431,0.463014,6.458431,0.463014,-9.999858,-10,109.385124,65.026817,872.957214,293.464996,287.928223,0.116818,0.041988,791.588623,-0.006608,0.128039,0.072354,0,1,2651.097656
91.130493,-3.417439,-2.223995,6.496394,0.470006,6.496394,0.470006,1.42E-04,0,112.311188,65.293671,882.328918,293.479584,287.736359,0.116839,0.04043,802.014465,-0.006614,0.129169,0.070096,0,1,2651.652588
91.272217,0.757995,1.951439,6.54336,0.471459,6.54336,0.471459,1.42E-04,0,116.758324,65.686325,895.953613,293.476532,287.459778,0.115637,0.034284,817.358948,-0.006714,0.129928,0.069366,0,1,2652.455566
91.364891,3.65643,4.849874,6.5751,0.458268,6.5751,0.458268,1.42E-04,0,119.759743,65.943062,904.531799,293.464569,287.283936,0.113583,0.028877,827.386963,-0.006735,0.130867,0.069519,0,1,2652.974609
91.501091,8.064939,9.258383,6.618297,0.415138,6.618297,0.415138,10.000142,10,124.314407,66.320709,916.844116,293.449371,287.034607,0.109165,0.02178,842.097717,-0.006547,0.131502,0.070117,0,1,2653.733887
91.589462,11.043266,12.236712,6.649672,0.376513,6.649672,0.376513,10.000142,10,127.384285,66.567551,924.77179,293.449677,286.878906,0.106051,0.019115,851.667297,-0.005931,0.132366,0.070877,0,1,2654.228027
91.717323,15.567663,16.761106,6.693474,0.323524,6.693474,0.323524,20.000143,20,132.038376,66.930496,936.451294,293.472748,286.662659,0.10234,0.019266,865.650146,-0.005379,0.132993,0.070862,0,1,2654.951904
91.798859,18.620781,19.814226,6.725262,0.299211,6.725262,0.299211,20.000143,20,135.173126,67.167603,944.123169,293.50061,286.530884,0.101121,0.021525,874.726196,-0.004622,0.133869,0.069708,0,1,2655.422607
91.915588,23.254126,24.447571,6.768579,0.290417,6.768579,0.290417,20.000143,20,139.923218,67.516022,955.511047,293.546051,286.353027,0.101132,0.025563,887.988342,-0.004274,0.134505,0.068315,0,1,2656.109375
91.990059,26.377987,27.57143,6.798752,0.298506,6.798752,0.298506,30.000143,30,143.121124,67.743492,962.949707,293.570313,286.248199,0.101829,0.027211,896.609558,-0.004149,0.135372,0.066043,0,1,2656.554688
92.098145,31.114899,32.308342,6.837573,0.318557,6.837573,0.318557,30.000143,30,147.96402,68.077553,973.768921,293.585114,286.111908,0.102787,0.026114,909.232605,-0.004264,0.135975,0.06483,0,1,2657.204834
92.16848,34.306118,35.499565,6.863715,0.326869,6.863715,0.326869,30.000143,30,151.221832,68.295555,980.638367,293.58078,286.034882,0.102547,0.023135,917.448486,-0.004551,0.136751,0.06409,0,1,2657.627441
92.272148,39.141289,40.334732,6.897274,0.318523,6.897274,0.318523,40.000141,40,156.150574,68.615585,990.433716,293.562378,285.939545,0.100578,0.016968,929.468933,-0.00467,0.137274,0.064307,0,1,2658.247803
92.339996,42.395943,43.589386,6.920615,0.298611,6.920615,0.298611,40.000141,40,159.462753,68.824364,996.61554,293.550812,285.888977,0.098381,0.013223,937.2724,-0.00455,0.137945,0.065227,0,1,2658.65332
92.439224,47.322865,48.516308,6.952557,0.25668,6.952557,0.25668,50.000141,50,164.46904,69.130775,1005.554565,293.548798,285.831848,0.094779,0.010511,948.645874,-0.004266,0.138412,0.065805,0,1,2659.250244
92.503059,50.636387,51.82983,6.975943,0.229192,6.975943,0.229192,50.000141,50,167.830933,69.330582,1011.358643,293.560913,285.805725,0.09298,0.011058,956.002014,-0.003667,0.139051,0.065906,0,1,2659.640381
92.594604,55.648403,56.841846,7.008672,0.205651,7.008672,0.205651,60.000141,60,172.910019,69.623672,1019.978577,293.594299,285.783844,0.091843,0.0145,966.700867,-0.003274,0.139519,0.0653,0,1,2660.212646
92.652695,59.016766,60.210213,7.032165,0.203966,7.032165,0.203966,60.000141,60,176.319763,69.814682,1025.664917,293.619995,285.780243,0.092169,0.017302,973.619812,-0.002938,0.140173,0.063631,0,1,2660.584961
92.736023,64.108673,65.302116,7.063102,0.220161,7.063102,0.220161,60.000141,60,181.469849,70.094673,1034.053589,293.64798,285.790253,0.093564,0.019647,983.701965,-0.002914,0.140643,0.062346,0,1,2661.128906
92.789558,67.5289,68.722343,7.08411,0.235176,7.08411,0.235176,70.000145,70,184.926071,70.277031,1039.45459,293.654846,285.806366,0.094307,0.019223,990.23938,-0.003145,0.141262,0.060947,0,1,2661.482178
92.867958,72.696556,73.889999,7.110559,0.248265,7.110559,0.248265,70.000145,70,190.143539,70.544212,1047.195313,293.646515,285.842957,0.094324,0.015557,999.783386,-0.00336,0.141682,0.060603,0,1,2662
92.919296,76.165817,77.359261,7.128417,0.245195,7.128417,0.245195,80.000145,80,193.642624,70.718163,1052.053711,293.63382,285.874512,0.093275,0.012077,1005.973145,-0.003547,0.142211,0.06102,0,1,2662.338135
92.994858,81.404564,82.598007,7.151978,0.221116,7.151978,0.221116,80.000145,80,198.920944,70.972923,1058.97998,293.618225,285.930634,0.090578,0.007701,1014.991516,-0.003503,0.142568,0.061655,0,1,2662.835938
93.043884,84.919434,86.112877,7.169014,0.197488,7.169014,0.197488,80.000145,80,202.458542,71.138718,1063.401367,293.616638,285.972839,0.088652,0.006408,1020.821106,-0.003159,0.14304,0.062434,0,1,2663.162109
93.114555,90.223885,91.417328,7.193117,0.166011,7.193117,0.166011,90.000145,90,207.792389,71.381424,1069.908936,293.632294,286.041718,0.086538,0.007623,1029.287354,-0.002821,0.14338,0.062514,0,1,2663.641602
93.159332,93.780884,94.974327,7.210908,0.153923,7.210908,0.153923,90.000145,90,211.36618,71.539276,1074.20752,293.652069,286.090576,0.086122,0.00997,1034.749756,-0.002372,0.143862,0.061731,0,1,2663.95459
93.222961,99.146408,100.339851,7.235175,0.156397,7.235175,0.156397,100.000145,100,216.753815,71.770195,1080.620605,293.68338,286.166901,0.086874,0.013675,1042.686523,-0.002199,0.144218,0.060742,0,1,2664.412598
93.263336,102.742943,103.936386,7.251975,0.16796,7.251975,0.16796,100.000145,100,220.363144,71.920265,1084.815063,293.698639,286.219055,0.087819,0.015123,1047.819336,-0.002234,0.144704,0.059177,0,1,2664.710449
93.321838,108.166229,109.35968,7.273045,0.188615,7.273045,0.188615,110.000145,110,225.80304,72.139641,1090.887695,293.704346,286.297638,0.08898,0.014369,1055.300049,-0.002399,0.145039,0.058414,0,1,2665.145996
93.360016,111.800262,112.993706,7.286948,0.196946,7.286948,0.196946,110.000145,110,229.445984,72.282135,1094.705933,293.697449,286.349335,0.08896,0.012143,1060.148438,-0.002694,0.145461,0.058128,0,1,2665.430176
93.415787,117.276855,118.470299,7.304451,0.191642,7.304451,0.191642,120.000145,120,234.933594,72.490349,1100.09729,293.679871,286.424316,0.087598,0.007755,1067.144775,-0.002814,0.145739,0.058473,0,1,2665.848633
93.453537,120.946144,122.139587,7.316679,0.177062,7.316679,0.177062,120.000145,120,238.606445,72.625534,1103.468018,293.670197,286.47171,0.086038,0.005319,1071.737793,-0.002738,0.146089,0.059352,0,1,2666.123291
93.507797,126.474617,127.66806,7.333745,0.147383,7.333745,0.147383,130.000137,130,244.136444,72.822975,1108.345703,293.669281,286.53775,0.08359,0.004134,1078.393677,-0.002529,0.146334,0.059836,0,1,2666.528809
93.542511,130.17598,131.369431,7.346551,0.129438,7.346551,0.129438,130.000137,130,247.836441,72.951096,1111.536133,293.679352,286.577942,0.082532,0.005161,1082.676147,-0.002105,0.146675,0.059882,0,1,2666.794678
93.591843,135.750671,136.944107,7.36474,0.117715,7.36474,0.117715,140.000137,140,253.406479,73.138084,1116.319702,293.704895,286.631836,0.082229,0.00843,1088.876221,-0.001849,0.146931,0.059378,0,1,2667.185791
93.622856,139.481766,140.675217,7.377825,0.120892,7.377825,0.120892,140.000137,140,257.133057,73.259323,1119.5,293.723083,286.663269,0.082825,0.01071,1092.870605,-0.001682,0.147295,0.058101,0,1,2667.440674
93.667191,145.099808,146.293259,7.394704,0.13808,7.394704,0.13808,140.000137,140,262.742737,73.436104,1124.191528,293.73999,286.703278,0.084241,0.012296,1098.673584,-0.001727,0.147556,0.057191,0,1,2667.814453
93.695786,148.8591,150.052536,7.405846,0.150958,7.405846,0.150958,150.000137,150,266.495239,73.550621,1127.187622,293.741425,286.724976,0.084881,0.011687,1102.427124,-0.001973,0.147894,0.056346,0,1,2668.058105
93.738037,154.51828,155.711731,7.419362,0.159975,7.419362,0.159975,150.000137,150,272.142273,73.717514,1131.423218,293.730225,286.749481,0.084809,0.008597,1107.894409,-0.002157,0.148117,0.056274,0,1,2668.417236
93.765991,158.304153,159.497604,7.428368,0.155917,7.428368,0.155917,160.000137,160,275.918243,73.825569,1134.042358,293.71875,286.760284,0.083919,0.005982,1111.431396,-0.002285,0.148387,0.056834,0,1,2668.652832
Command_Fault: set /instrumentation/heading-indicator/serviceable false
93.807396,164.001694,165.195129,7.440398,0.135542,7.440398,0.135542,160.000137,160,281.598145,73.982948,1137.752441,293.706726,286.767914,0.081822,0.003171,1116.569458,-0.002227,0.148567,0.057408,0,1,2669.001953
93.834297,167.812012,169.005447,7.449371,0.117658,7.449371,0.117658,170.000137,170,285.394775,74.084785,1140.12854,293.706726,286.767273,0.080477,0.002743,1119.879639,-0.001936,0.148808,0.05799,0,1,2669.231689
93.872894,173.544586,174.738022,7.462541,0.09694,7.462541,0.09694,170.000137,170,291.104553,74.232994,1143.66687,293.706726,286.758118,0.079247,0.004489,1124.670898,-0.001681,0.148987,0.058002,0,1,2669.571533
93.897133,177.377289,178.570724,7.472442,0.091351,7.472442,0.091351,180.000137,180,294.920868,74.328812,1146.041504,293.706726,286.746796,0.079154,0.006667,1127.752808,-0.001385,0.149251,0.058017,0,1,2669.794434
93.93116,183.142303,184.335739,7.485979,0.09878,7.485979,0.09878,180.000137,180,300.660309,74.468102,1149.619141,293.706726,286.722748,0.079896,0.010209,1132.220947,-0.001305,0.149449,0.058023,0,1,2670.121826
93.952438,186.996063,188.189499,7.495402,0.111824,7.495402,0.111824,190.000137,190,304.49646,74.558044,1151.972534,293.706726,286.702301,0.080706,0.012096,1135.106445,-0.001411,0.14972,0.058022,0,1,2670.335205
93.982719,192.791946,193.985397,7.507367,0.135858,7.507367,0.135858,190.000137,190,310.265228,74.688644,1155.391357,293.706726,286.665741,0.081932,0.013587,1139.30957,-0.001597,0.149908,0.058017,0,1,2670.648682
94.002106,196.665833,197.859268,7.515365,0.151256,7.515365,0.151256,200.000137,200,314.1203,74.772888,1157.554932,293.706726,286.637726,0.082515,0.013684,1142.034058,-0.001941,0.150147,0.058008,0,1,2670.853516
94.030403,202.491074,203.684525,7.525353,0.166456,7.525353,0.166456,200.000137,200,319.916107,74.895096,1160.62085,293.706726,286.59082,0.082885,0.012854,1146.007813,-0.002161,0.150307,0.058002,0,1,2671.155029
94.048851,206.383881,207.577332,7.532139,0.171056,7.532139,0.171056,210.000137,210,323.788177,74.973854,1162.531616,293.706726,286.556641,0.082812,0.012054,1148.581055,-0.002378,0.150507,0.057997,0,1,2671.352783
94.076157,212.235138,213.428574,7.541105,0.169979,7.541105,0.169979,210.000137,210,329.60791,75.087997,1165.249268,293.706726,286.50174,0.082417,0.011073,1152.25354,-0.002444,0.150643,0.057997,0,1,2671.645508
94.09333,216.145584,217.339035,7.547509,0.166249,7.547509,0.166249,220.000137,220,333.495087,75.161491,1166.977295,293.706726,286.463104,0.082103,0.010811,1154.690063,-0.002428,0.150822,0.058,0,1,2671.838135
94.118767,222.023346,223.216782,7.556272,0.160274,7.556272,0.160274,220.000137,220,339.336517,75.267883,1169.496948,293.706726,286.402954,0.081768,0.011114,1158.20874,-0.002375,0.15095,0.058003,0,1,2672.123047
Command: turn_+45
94.134987,225.949585,227.143021,7.562585,0.157777,7.562585,0.157777,230.000137,230,343.237671,75.336304,1171.13916,293.706696,286.361908,0.08171,0.011688,1160.466675,-0.00229,0.151125,0.058009,0,1,2672.310303
94.156487,231.84877,233.042206,7.5717,0.154765,7.5717,0.154765,230.000137,230,349.099701,75.435181,1173.573975,293.706696,286.299774,0.072843,0.021718,1163.65979,-7.51E-04,0.151252,0.1,0,1,2672.58667
94.162575,235.789856,236.983307,7.583279,0.185325,7.583279,0.185325,240.000137,240,353.014557,75.49855,1175.342529,293.706696,286.25885,0.071794,0.046489,1165.779907,-7.37E-04,0.151434,0.1,0,1,2672.763184
94.154602,241.712219,242.905655,7.610422,0.370828,7.610422,0.370828,240.000137,240,358.90033,75.589699,1179.116577,293.706696,286.201202,0.084317,0.096589,1168.859741,-8.83E-04,0.151666,0.1,0,1,2673.00293
94.138084,245.668213,246.861649,7.630748,0.596906,7.630748,0.596906,250.000137,250,362.836395,75.647774,1182.499023,293.706696,286.167053,0.099264,0.128267,1170.890381,-0.001766,0.152208,0.1,0,1,2673.139404
94.103973,251.615845,252.80928,7.648747,1.040147,7.648747,1.040147,250.000137,250,368.762939,75.730766,1187.873169,293.706696,286.124237,0.124594,0.160409,1174.007324,-0.002842,0.152615,0.1,0,1,2673.307617
94.080467,255.591125,256.784576,7.654516,1.36425,7.654516,1.36425,250.000137,250,372.727997,75.783386,1190.954102,293.706696,286.101624,0.13924,0.168766,1176.177368,-0.004953,0.152975,0.1,0,1,2673.399902
Command_Fault: set /instrumentation/heading-indicator/serviceable true
94.050766,261.570068,262.763489,7.654192,1.805093,7.654192,1.805093,260.000153,260,378.692047,75.858459,1194.251099,293.706635,286.075775,0.153231,0.163955,1179.57373,-0.006496,0.15309,0.1,0,1,2673.522461
94.036263,265.566254,266.759705,7.651416,2.042644,7.651416,2.042644,260.000153,260,382.67511,75.90612,1195.408203,293.705261,286.063019,0.156267,0.153887,1181.892334,-0.008596,0.153084,0.1,0,1,2673.601318
94.022087,271.573883,272.767334,7.645946,2.284288,7.645946,2.284288,270.000153,270,388.653961,75.974373,1195.903076,293.70163,286.048981,0.15299,0.137733,1185.33313,-0.009727,0.153028,0.1,0,1,2673.724121
94.016434,275.586182,276.779633,7.64136,2.381767,7.64136,2.381767,270.000153,270,392.639954,76.017891,1195.627319,293.725067,286.042389,0.147679,0.131117,1187.525513,-0.010878,0.152919,0.1,0,1,2673.811768
94.01062,281.612305,282.805725,7.635208,2.464727,7.635208,2.464727,280.000153,280,398.616089,76.08046,1194.815918,293.828583,286.036591,0.139205,0.131788,1190.546875,-0.011342,0.152827,0.1,0,1,2673.951416
94.005287,285.629486,286.822906,7.631685,2.506478,7.631685,2.506478,280.000153,280,402.5979,76.120453,1194.28894,293.946167,286.036011,0.135243,0.139515,1192.162109,-0.011737,0.152704,0.1,0,1,2674.04834
93.997421,291.664795,292.858246,7.629346,2.585617,7.629346,2.585617,290.000153,290,408.568024,76.177956,1193.872437,294.179352,286.041718,0.133632,0.158807,1194.570068,-0.011936,0.152634,0.1,0,1,2674.193848
93.988892,295.689453,296.882874,7.62898,2.663182,7.62898,2.663182,300.000153,300,412.547668,76.214661,1193.944458,294.355988,286.051117,0.135452,0.173871,1195.922852,-0.012312,0.152587,0.1,0,1,2674.28833
93.972504,301.727539,302.92099,7.629379,2.817751,7.629379,2.817751,300.000153,300,418.518555,76.267303,1194.460693,294.622772,286.075562,0.14115,0.194711,1197.632324,-0.012682,0.15258,0.1,0,1,2674.422363
93.960197,305.753723,306.947174,7.629464,2.939949,7.629464,2.939949,310.000153,310,422.500916,76.300819,1194.93811,294.788635,286.099609,0.145654,0.20539,1198.600586,-0.013418,0.152588,0.1,0,1,2674.506348
93.942055,311.79306,312.986481,7.628325,3.126666,7.628325,3.126666,310.000153,310,428.477325,76.348801,1195.553101,295.009399,286.148346,0.151489,0.215174,1199.792969,-0.014,0.152589,0.1,0,1,2674.626221
93.930504,315.82132,317.014771,7.626606,3.242915,7.626606,3.242915,320.000153,320,432.462921,76.379341,1195.752197,295.139526,286.189453,0.153916,0.218084,1200.554077,-0.014889,0.152566,0.1,0,1,2674.703857
93.916306,321.864838,323.058289,7.622884,3.385495,7.622884,3.385495,320.000153,320,438.44162,76.423126,1195.647217,295.321198,286.264099,0.154977,0.21921,1201.552612,-0.015442,0.152532,0.1,0,1,2674.820557
93.908531,325.894257,327.087708,7.619508,3.458564,7.619508,3.458564,330.000153,330,442.426605,76.449379,1195.311157,295.442413,286.322479,0.154213,0.21948,1202.124512,-0.016121,0.152458,0.1,0,1,2674.899902
93.899574,331.936768,333.130219,7.614224,3.536587,7.614224,3.536587,330.000153,330,448.401276,76.487106,1194.545654,295.638275,286.422821,0.151895,0.221412,1202.762573,-0.016469,0.15239,0.1,0,1,2675.022461
93.892876,335.965546,337.158997,7.610308,3.575502,7.610308,3.575502,340.000153,340,452.38208,76.511223,1193.945068,295.782928,286.498291,0.150257,0.224503,1203.150879,-0.016841,0.152284,0.1,0,1,2675.106445
93.884285,342.006775,343.200195,7.605343,3.625767,7.605343,3.625767,340.000153,340,458.349548,76.545944,1193.089233,296.022247,286.624634,0.148618,0.231889,1203.557129,-0.017026,0.152206,0.1,0,1,2675.234863
93.878136,346.032593,347.226044,7.602189,3.661191,7.602189,3.661191,350.000153,350,462.325684,76.568169,1192.615601,296.193787,286.717834,0.148358,0.238125,1203.716064,-0.017266,0.152107,0.1,0,1,2675.321045
93.867928,352.068542,353.261963,7.598637,3.722517,7.598637,3.722517,350.000153,350,468.287323,76.600182,1192.08606,296.460785,286.871307,0.14921,0.248005,1203.807007,-0.017434,0.152044,0.1,0,1,2675.449951
93.860542,356.090576,357.284027,7.596431,3.770007,7.596431,3.770007,360.000153,360,472.260529,76.620667,1191.843872,296.640137,286.982849,0.150353,0.254125,1203.785889,-0.017726,0.151973,0.1,0,1,2675.534912
93.84906,362.12088,363.314331,7.593655,3.846071,7.593655,3.846071,360.000153,360,478.218994,76.650177,1191.560913,296.904785,287.16394,0.152337,0.2616,1203.662354,-0.017952,0.151929,0.1,0,1,2675.660889
93.841469,366.139343,367.332794,7.591629,3.897309,7.591629,3.897309,370.000153,370,482.190582,76.669067,1191.376709,297.076569,287.29364,0.153483,0.265265,1203.53479,-0.018315,0.151873,0.1,0,1,2675.744141
93.83065,372.16452,373.357971,7.588579,3.967177,7.588579,3.967177,370.000153,370,488.146606,76.696327,1191.029541,297.328125,287.501068,0.154571,0.269013,1203.296021,-0.018559,0.151833,0.1,0,1,2675.868408
93.82399,376.179688,377.373108,7.586162,4.007642,7.586162,4.007642,380.000153,380,492.116241,76.713814,1190.728394,297.493744,287.647491,0.154796,0.270766,1203.112061,-0.018891,0.151772,0.1,0,1,2675.95166
93.807381,382.19986,383.393311,7.582549,4.056266,7.582549,4.056266,380.000153,380,498.068481,76.73912,1190.138428,297.743439,287.878479,0.154475,0.273057,1202.803223,-0.019084,0.151723,0.1,0,1,2676.075684
93.787971,386.211517,387.404968,7.579883,4.081206,7.579883,4.081206,390.000153,390,502.034607,76.755417,1189.536621,297.913635,288.03952,0.153794,0.274847,1202.573608,-0.019316,0.151651,0.1,0,1,2676.147705
93.759918,392.224487,393.417938,7.57544,4.108433,7.57544,4.108433,390.000153,390,507.979523,76.779091,1188.428223,298.178741,288.290802,0.152598,0.278544,1202.112427,-0.019434,0.151598,0.1,0,1,2676.241455
93.739876,396.231842,397.425293,7.57152,4.123343,7.57152,4.123343,400.000153,400,511.939545,76.794395,1187.571777,298.362732,288.464386,0.151848,0.281793,1201.829834,-0.019564,0.151509,0.1,0,1,2676.297363
93.707764,402.238464,403.431915,7.565542,4.1365,7.565542,4.1365,400.000153,400,517.873291,76.816734,1185.930542,298.653381,288.733215,0.149462,0.288235,1201.313721,-0.019635,0.15143,0.1,0,1,2676.370117
93.677307,408.238892,409.432343,7.557997,4.138818,7.557997,4.138818,410.000153,410,523.798279,76.838402,1184.087524,298.968323,289.011627,0.147049,0.297339,1200.665039,-0.019698,0.151311,0.1,0,1,2676.434326
93.657341,412.235199,413.428619,7.55284,4.140523,7.55284,4.140523,410.000153,410,527.743042,76.852524,1182.833618,299.191406,289.202362,0.146098,0.304743,1200.149048,-0.019707,0.151211,0.1,0,1,2676.474121
93.627357,418.223022,419.416443,7.544775,4.152177,7.544775,4.152177,420.000153,420,533.652527,76.873253,1181.005981,299.539185,289.496155,0.146011,0.316741,1199.245483,-0.019717,0.151057,0.1,0,1,2676.530762
93.607254,422.210205,423.403656,7.540273,4.168307,7.540273,4.168307,420.000153,420,537.587219,76.88678,1179.877197,299.774689,289.697052,0.146736,0.324502,1198.560059,-0.019746,0.150945,0.1,0,1,2676.56665
93.577202,428.183777,429.377228,7.533314,4.203783,7.533314,4.203783,430.000153,430,543.482544,76.90667,1178.298218,300.125031,290.005768,0.148479,0.334518,1197.423096,-0.019849,0.150805,0.1,0,1,2676.618164
93.557541,432.161285,433.354736,7.529078,4.231591,7.529078,4.231591,430.000153,430,547.408386,76.919685,1177.279419,300.353638,290.216187,0.149701,0.339695,1196.604248,-0.019956,0.15071,0.1,0,1,2676.651855
93.529167,438.120239,439.31369,7.521974,4.273299,7.521974,4.273299,440.000153,440,553.290833,76.938873,1175.709351,300.687653,290.538208,0.15109,0.345151,1195.303467,-0.02015,0.150582,0.1,0,1,2676.702393
93.511246,442.088013,443.281464,7.517361,4.297094,7.517361,4.297094,440.000153,440,557.207947,76.951477,1174.607056,300.905609,290.756653,0.151538,0.347541,1194.395874,-0.020285,0.150486,0.1,0,1,2676.736816
93.486015,448.032196,449.225647,7.509537,4.323999,7.509537,4.323999,450.000153,450,563.076538,76.970146,1172.844116,301.229584,291.089111,0.151481,0.35008,1192.981079,-0.020462,0.150347,0.1,0,1,2676.79126
93.470253,451.989899,453.18335,7.50452,4.335335,7.50452,4.335335,450.000153,450,566.983887,76.982483,1171.618408,301.44632,291.313507,0.151073,0.351567,1192.003296,-0.020554,0.150242,0.1,0,1,2676.82959
93.447952,457.91864,459.112091,7.496291,4.345066,7.496291,4.345066,460.000153,460,572.837219,77.000847,1169.740479,301.776062,291.653412,0.150246,0.35412,1190.485229,-0.020644,0.15009,0.1,0,1,2676.890869
93.433792,461.865784,463.059235,7.490718,4.348693,7.490718,4.348693,460.000153,460,576.734131,77.013031,1168.483276,301.999969,291.881866,0.149741,0.356206,1189.439331,-0.020691,0.149926,0.1,0,1,2676.934082
93.413261,467.778351,468.971771,7.483654,4.353453,7.483654,4.353453,470.000153,470,582.571899,77.03125,1166.697632,302.341736,292.226715,0.149288,0.359861,1187.822266,-0.020708,0.149814,0.1,0,1,2677.002197
93.404419,471.708038,472.901489,7.4787,4.357867,7.4787,4.357867,470.000153,470,586.458984,77.043373,1165.59436,302.572296,292.457794,0.149263,0.362455,1186.378174,-0.020731,0.149673,0.1,0,1,2677.049561
93.37986,477.607025,478.800476,7.472155,4.367605,7.472155,4.367605,480.000153,480,592.282837,77.061546,1164.025024,302.91983,292.805664,0.149541,0.366199,1184.898682,-0.020752,0.149574,0.1,0,1,2677.122803
93.367188,481.533203,482.726654,7.467644,4.376096,7.467644,4.376096,480.000153,480,596.161255,77.073662,1163.041748,303.151154,293.038147,0.149848,0.368374,1183.820801,-0.020798,0.149443,0.1,0,1,2677.172852
93.348602,487.413483,488.606934,7.461749,4.390146,7.461749,4.390146,490.000153,490,601.972778,77.091873,1161.63147,303.496124,293.387207,0.150323,0.370962,1182.134277,-0.020839,0.149353,0.1,0,1,2677.250244
93.336761,491.329407,492.522858,7.457591,4.399428,7.457591,4.399428,490.000153,490,605.843323,77.104042,1160.725342,303.724457,293.619812,0.150568,0.37222,1181.045532,-0.020905,0.149235,0.1,0,1,2677.303467
93.319641,497.194611,498.388062,7.451936,4.41123,7.451936,4.41123,500.000153,500,611.643494,77.122375,1159.386597,304.065125,293.968079,0.150723,0.373554,1179.35498,-0.02095,0.149152,0.1,0,1,2677.385498
93.308876,501.100861,502.294312,7.447875,4.417278,7.447875,4.417278,500.000153,500,615.506592,77.134666,1158.505249,304.291626,294.199554,0.150693,0.374211,1178.28894,-0.021006,0.149039,0.1,0,1,2677.442139
93.293335,506.953125,508.146576,7.442359,4.423262,7.442359,4.423262,510.000153,510,621.295776,77.153221,1157.197876,304.631897,294.545197,0.150493,0.375096,1176.697388,-0.021035,0.148958,0.1,0,1,2677.529541
93.283363,510.850006,512.043457,7.438436,4.425632,7.438436,4.425632,510.000153,510,625.151611,77.165688,1156.344849,304.859619,294.774384,0.150308,0.375723,1175.645996,-0.021063,0.148847,0.1,0,1,2677.589355
93.268959,516.688538,517.881958,7.433196,4.427697,7.433196,4.427697,520.000122,520,630.930115,77.184547,1155.103027,305.203125,295.116028,0.150053,0.376824,1174.089233,-0.021074,0.148769,0.1,0,1,2677.681396
93.259651,520.576477,521.769897,7.429528,4.428774,7.429528,4.428774,520.000122,520,634.779114,77.197243,1154.311401,305.433319,295.342224,0.149939,0.37765,1173.067383,-0.021084,0.148664,0.1,0,1,2677.744385
93.246651,526.401917,527.595398,7.424714,4.430827,7.424714,4.430827,530.000122,530,640.547729,77.216476,1153.186035,305.779907,295.678955,0.149893,0.378951,1171.562988,-0.021089,0.148591,0.1,0,1,2677.841309
93.238556,530.281433,531.474854,7.421381,4.432812,7.421381,4.432812,530.000122,530,644.390442,77.229439,1152.486084,306.011292,295.901703,0.149943,0.379776,1170.581543,-0.021099,0.148494,0.1,0,1,2677.907471
93.226456,536.094666,537.288147,7.417059,4.436681,7.417059,4.436681,540.000122,540,650.15033,77.249092,1151.496094,306.358093,296.233124,0.150085,0.380839,1169.14624,-0.021109,0.148428,0.1,0,1,2678.009521
93.218452,539.966309,541.15979,7.414085,4.439532,7.414085,4.439532,540.000122,540,653.987549,77.262337,1150.870483,306.588776,296.45224,0.150175,0.381387,1168.216309,-0.021127,0.148341,0.1,0,1,2678.078613
93.206894,545.76825,546.96167,7.410142,4.443437,7.410142,4.443437,550.000122,550,659.739563,77.282455,1149.968506,306.934052,296.778137,0.150258,0.381984,1166.865112,-0.021141,0.148282,0.1,0,1,2678.183838
93.203796,549.469727,550.663147,7.407454,4.445452,7.407454,4.445452,550.000122,550,663.41217,77.295456,1149.415161,307.154266,296.984619,0.150276,0.382252,1165.92395,-0.021159,0.148203,0.1,0,1,2678.252441
93.188103,555.253906,556.447327,7.403666,4.447481,7.403666,4.447481,550.000122,550,669.157043,77.316055,1148.56958,307.498871,297.305084,0.150272,0.382586,1164.341187,-0.021169,0.148149,0.1,0,1,2678.361572
93.184807,559.268677,560.462097,7.40092,4.448213,7.40092,4.448213,560.000122,560,673.144165,77.330551,1148.002197,307.738312,297.525757,0.150222,0.3828,1163.385864,-0.021178,0.148073,0.1,0,1,2678.438477
93.174889,564.886841,566.080261,7.397507,4.448531,7.397507,4.448531,560.000122,560,678.722778,77.351112,1147.236572,308.074005,297.832184,0.150101,0.383129,1162.227905,-0.021182,0.148018,0.1,0,1,2678.547852
93.164352,568.899963,570.093384,7.39495,4.448502,7.39495,4.448502,570.000122,570,682.705322,77.365997,1146.714478,308.314178,298.049408,0.15006,0.383387,1161.601807,-0.021183,0.14795,0.1,0,1,2678.626953
93.155975,574.516541,575.709961,7.391791,4.44844,7.391791,4.44844,570.000122,570,688.277832,77.387108,1146.015015,308.650879,298.351379,0.150045,0.383777,1160.842041,-0.021183,0.147899,0.1,0,1,2678.739014
93.150009,578.523804,579.717285,7.389456,4.448472,7.389456,4.448472,580.000122,580,692.256226,77.40239,1145.545776,308.891541,298.565643,0.150035,0.384051,1160.212646,-0.021183,0.147836,0.1,0,1,2678.820313
93.141899,584.290222,585.483643,7.386447,4.448727,7.386447,4.448727,580.000122,580,697.9823,77.424706,1144.90332,309.23819,298.872375,0.150006,0.384414,1159.317749,-0.021183,0.147789,0.1,0,1,2678.938721
93.136864,588.130188,589.323608,7.384356,4.448989,7.384356,4.448989,590.000122,590,701.797913,77.439781,1144.497559,309.469208,299.075836,0.149992,0.384615,1158.647827,-0.021184,0.147729,0.1,0,1,2679.018799
93.128807,593.888062,595.081543,7.381622,4.449406,7.381622,4.449406,590.000122,590,707.518921,77.462692,1143.916748,309.815582,299.3797,0.14999,0.384853,1157.780518,-0.021186,0.147687,0.1,0,1,2679.139893
Command_Fault: set /instrumentation/heading-indicator/serviceable false
93.123886,597.723938,598.917358,7.37971,4.449613,7.37971,4.449613,600.000122,600,711.331299,77.47818,1143.550293,310.04718,299.581543,0.149983,0.384965,1157.205811,-0.021188,0.147632,0.1,0,1,2679.22168
93.037941,603.473877,604.667297,7.372527,4.459506,7.372527,4.459506,600.000122,600,717.049133,77.501709,1144.07312,310.04718,299.883514,0.152815,0.384341,1156.363525,-0.021189,0.147594,0.1,0,1,2679.294434
92.964172,607.141663,608.335144,7.355887,4.484466,7.355887,4.484466,610.000122,610,720.705627,77.516914,1145.017944,310.04718,300.07605,0.156621,0.381799,1155.676758,-0.021236,0.147451,0.1,0,1,2679.289063
92.814476,613.04895,614.242371,7.328853,4.53836,7.328853,4.53836,610.000122,610,726.589233,77.541786,1144.454346,310.04718,300.38504,0.160913,0.37296,1155.138184,-0.021355,0.147118,0.1,0,1,2679.180176
92.718201,616.879028,618.072449,7.315691,4.565939,7.315691,4.565939,620.000122,620,730.401978,77.558281,1143.109009,310.04718,300.584625,0.162022,0.364854,1154.802002,-0.021611,0.146577,0.1,0,1,2679.058838
92.589943,622.620667,623.814087,7.301978,4.579655,7.301978,4.579655,620.000122,620,736.11084,77.583717,1140.462158,310.04718,300.881958,0.161228,0.351687,1154.259644,-0.021743,0.146314,0.1,0,1,2678.836182
