airspeed_indicator_indicated_speed_kt,altimeter_indicated_altitude_ft,altimeter_pressure_alt_ft,attitude_indicator_indicated_pitch_deg,attitude_indicator_indicated_roll_deg,attitude_indicator_internal_pitch_deg,attitude_indicator_internal_roll_deg,encoder_indicated_altitude_ft,encoder_pressure_alt_ft,gps_indicated_altitude_ft,gps_indicated_ground_speed_kt,gps_indicated_vertical_speed,indicated_heading_deg,magnetic_compass_indicated_heading_deg,slip_skid_ball_indicated_slip_skid,turn_indicator_indicated_turn_rate,vertical_speed_indicator_indicated_speed_fpm,flight_aileron,flight_elevator,flight_rudder,flight_flaps,engine_throttle,engine_rpm
0.381454,-26.746269,-25.552826,3.073527,1.369349,2.716371,0.178829,-29.999857,-30.0,18.855347,4.0E-5,-2.68E-4,297.865173,14.382622,-0.046372,-0.034534,-18.480175,-0.0,0.0,0.0,0.0,0.0,607.019775
0.345025,-26.747396,-25.553951,3.071517,1.362744,2.716334,0.178802,-29.999857,-30.0,18.855345,3.9E-5,-1.34E-4,297.864349,13.979847,-0.046363,-0.031241,-12.279662,-0.0,0.0,0.0,0.0,0.0,607.016357
0.296818,-26.748713,-25.555267,2.887468,0.752446,2.715304,0.178567,-29.999857,-30.0,18.855343,3.8E-5,-0.00201,297.863068,13.387705,-0.046469,-0.026896,-18.096188,-0.019468,0.054327,4.1E-5,0.0,1.0,680.471436
0.269151,-26.749395,-25.555952,2.769412,0.384131,2.707351,0.177263,-29.999857,-30.0,18.855322,6.0E-5,-0.01313,297.862122,13.005079,-0.046614,-0.024391,-8.849537,-0.010749,0.054306,1.05E-4,0.0,1.0,794.077087
0.243943,-26.750223,-25.55678,2.641099,0.171748,2.641099,0.171748,-29.999857,-30.0,18.855072,5.64E-4,-0.060226,297.860291,12.455728,-0.045213,-0.021221,-13.761654,-0.005488,0.054147,1.53E-4,0.0,1.0,1018.840149
0.248852,-26.75069,-25.557245,2.593114,0.165334,2.593114,0.165334,-29.999857,-30.0,18.854971,0.002022,0.005192,297.858917,12.109064,-0.047475,-0.019436,-15.876315,-0.002454,0.052822,2.44E-4,0.0,1.0,1183.797485
0.361757,-26.751215,-25.557772,2.570563,0.152253,2.570563,0.152253,-29.999857,-30.0,18.855318,0.008238,0.134185,297.856812,11.623189,-0.048279,-0.017161,-17.959766,-0.002362,0.051862,3.13E-4,0.0,1.0,1426.088989
0.540084,-26.7514,-25.557955,2.574746,0.141883,2.574746,0.141883,-29.999857,-30.0,18.855938,0.016648,0.234138,297.855194,11.324523,-0.045565,-0.0159,-18.632423,-0.002175,0.051411,4.18E-4,0.0,1.0,1573.424683
0.945139,-26.751339,-25.557894,2.592479,0.125354,2.592479,0.125354,-29.999857,-30.0,18.857544,0.038425,0.406776,297.851349,10.918132,-0.035118,-0.01452,-18.412254,-0.002027,0.051495,4.99E-4,0.0,1.0,1763.421753
1.292064,-26.751022,-25.557577,2.606628,0.1144,2.606628,0.1144,-29.999857,-30.0,18.859129,0.060558,0.537511,297.845276,10.676745,-0.026207,-0.014255,-17.221163,-0.001791,0.05185,6.91E-4,0.0,1.0,1867.786011
1.906811,-26.75004,-25.556595,2.626576,0.09947,2.626576,0.09947,-29.999857,-30.0,18.8624,0.107408,0.767228,297.831604,10.361336,-0.021559,-0.01461,-12.83554,-0.001634,0.052133,9.95E-4,0.0,1.0,1992.5802
2.368481,-26.748989,-25.555544,2.638378,0.090773,2.638378,0.090773,-29.999857,-30.0,18.865246,0.148786,0.933368,297.817627,10.183105,-0.023308,-0.015554,-4.862768,-0.001421,0.052532,0.001678,0.0,1.0,2057.030029
3.121603,-26.746714,-25.55327,2.652704,0.079906,2.652704,0.079906,-29.999857,-30.0,18.870613,0.227415,1.207734,297.791321,9.964639,-0.025207,-0.017577,16.778326,-0.001297,0.052768,0.002377,0.0,1.0,2130.576416
3.6554,-26.744675,-25.551229,2.660544,0.074071,2.660544,0.074071,-29.999857,-30.0,18.874979,0.291424,1.403687,297.770355,9.851625,-0.02607,-0.019264,14.541788,-0.001142,0.053054,0.003693,0.0,1.0,2167.057617
4.49127,-26.740734,-25.547291,2.669637,0.067242,2.669637,0.067242,-29.999857,-30.0,18.882778,0.405413,1.710377,297.736389,9.730422,-0.027032,-0.021828,7.271829,-0.001058,0.053211,0.004741,0.0,1.0,2207.304443
5.066142,-26.737469,-25.544024,2.674562,0.063734,2.674562,0.063734,-29.999857,-30.0,18.888849,0.493569,1.923211,297.712463,9.681088,-0.027491,-0.023502,11.973543,-9.61E-4,0.053393,0.006439,0.0,1.0,2226.596924
5.947052,-26.731531,-25.538086,2.680354,0.059723,2.680354,0.059723,-29.999857,-30.0,18.899305,0.644137,2.251405,297.678223,9.652448,-0.028004,-0.025401,15.657461,-9.1E-4,0.053491,0.007635,0.0,1.0,2247.121582
6.543199,-26.726837,-25.533392,2.683625,0.057676,2.683625,0.057676,-29.999857,-30.0,18.907194,0.75669,2.473015,297.657013,9.66223,-0.028175,-0.026239,13.660718,-8.53E-4,0.053607,0.009348,0.0,1.0,2256.508301
7.446116,-26.718634,-25.525188,2.687716,0.05527,2.687716,0.05527,-29.999857,-30.0,18.920429,0.943575,2.812063,297.63089,9.717477,-0.02819,-0.026418,15.82943,-8.24E-4,0.053672,0.010408,0.0,1.0,2265.866943
8.051828,-26.712358,-25.518913,2.690187,0.053968,2.690187,0.053968,-29.999857,-30.0,18.930195,1.080027,3.038764,297.617493,9.779559,-0.027974,-0.02588,19.765585,-7.9E-4,0.053754,0.011714,0.0,1.0,2269.716797
8.963421,-26.701694,-25.508249,2.693502,0.052312,2.693502,0.052312,-29.999857,-30.0,18.946266,1.302134,3.380826,297.605103,9.907224,-0.027317,-0.023943,8.214381,-7.71E-4,0.053804,0.012384,0.0,1.0,2272.884033
9.572018,-26.693731,-25.500286,2.695621,0.051369,2.695621,0.051369,-29.999857,-30.0,18.95793,1.461585,3.609135,297.601685,10.013298,-0.026648,-0.02205,9.163054,-7.47E-4,0.05387,0.013004,0.0,1.0,2273.681152
10.484661,-26.680475,-25.48703,2.699446,0.050114,2.699446,0.050114,-29.999857,-30.0,18.976894,1.71739,3.992866,297.603271,10.200181,-0.025383,-0.018488,11.726849,-7.34E-4,0.053912,0.013174,0.0,1.0,2273.446533
11.091575,-26.670713,-25.47727,2.707159,0.045473,2.707159,0.045473,-29.999857,-30.0,18.990904,1.898736,4.340053,297.60788,10.341074,-0.025114,-0.015955,19.542688,-7.16E-4,0.053989,0.013095,0.0,1.0,2272.571777
11.999595,-26.654566,-25.461121,2.717023,0.034755,2.717023,0.034755,-29.999857,-30.0,19.013655,2.186489,4.806787,297.618439,10.573178,-0.022731,-0.012108,9.129914,-6.5E-4,0.054143,0.012865,0.0,1.0,2270.481201
12.602863,-26.64275,-25.449305,2.719078,0.033744,2.719078,0.033744,-29.999857,-30.0,19.030075,2.388527,5.037441,297.626709,10.739635,-0.020968,-0.009521,15.467474,-4.96E-4,0.05434,0.012337,0.0,1.0,2268.697754
13.505013,-26.623444,-25.43,2.720683,0.033782,2.720683,0.033782,-29.999857,-30.0,19.056173,2.706406,5.392734,297.638367,11.002981,-0.019389,-0.006212,18.66736,-4.82E-4,0.054382,0.011923,0.0,1.0,2265.603027
14.104313,-26.609539,-25.416094,2.722202,0.03398,2.722202,0.03398,-29.999857,-30.0,19.074556,2.927927,5.62781,297.644775,11.185329,-0.018748,-0.004483,20.582926,-4.83E-4,0.054414,0.01134,0.0,1.0,2263.409424
14.999828,-26.587151,-25.393705,2.725002,0.034747,2.725002,0.034747,-29.999857,-30.0,19.103613,3.27414,5.982767,297.650696,11.465082,-0.018311,-0.002777,14.176057,-4.85E-4,0.054444,0.01102,0.0,1.0,2261.814941
15.545634,-26.572575,-25.379131,2.726984,0.035397,2.726984,0.035397,-29.999857,-30.0,19.122244,3.493718,6.200827,297.651886,11.637757,-0.018363,-0.002228,19.98247,-4.96E-4,0.0545,0.010724,0.0,1.0,2261.724609
16.486742,-26.545849,-25.352404,2.730705,0.036681,2.730705,0.036681,-29.999857,-30.0,19.155985,3.886854,6.575145,297.649628,11.935069,-0.019028,-0.002069,17.704321,-5.06E-4,0.05454,0.010664,0.0,1.0,2262.529297
17.080412,-26.527918,-25.334473,2.733322,0.037461,2.733322,0.037461,-29.999857,-30.0,19.178314,4.143971,6.812465,297.645752,12.120023,-0.019681,-0.002358,12.739737,-5.24E-4,0.054614,0.010777,0.0,1.0,2263.44043
17.970169,-26.499542,-25.306099,2.737437,0.038531,2.737437,0.038531,-29.999857,-30.0,19.213293,4.542079,7.168931,297.637787,12.389824,-0.020829,-0.003059,18.654955,-5.35E-4,0.054666,0.010971,0.0,1.0,2265.151123
18.562941,-26.479645,-25.2862,2.740399,0.03913,2.740399,0.03913,-29.999857,-30.0,19.237598,4.815572,7.404843,297.631866,12.562735,-0.021575,-0.003563,11.567424,-5.5E-4,0.054749,0.011369,0.0,1.0,2266.435547
19.451572,-26.448328,-25.254885,2.744993,0.039764,2.744993,0.039764,-29.999857,-30.0,19.275541,5.237604,7.762648,297.623993,12.808753,-0.022456,-0.004064,12.537219,-5.59E-4,0.054808,0.011665,0.0,1.0,2268.486084
20.043659,-26.426474,-25.23303,2.748255,0.040035,2.748255,0.040035,-29.999857,-30.0,19.301823,5.526632,7.998628,297.620026,12.962366,-0.022793,-0.004149,13.332852,-5.68E-4,0.0549,0.012059,0.0,1.0,2269.902832
20.931276,-26.392231,-25.198786,2.753221,0.040162,2.753221,0.040162,-29.999857,-30.0,19.342726,5.971366,8.352648,297.617279,13.174984,-0.022818,-0.003761,14.509646,-5.72E-4,0.054965,0.012257,0.0,1.0,2272.068604
21.522661,-26.368429,-25.174984,2.756717,0.040126,2.756717,0.040126,-29.999857,-30.0,19.370979,6.275136,8.58826,297.617706,13.303799,-0.022515,-0.003183,18.506657,-5.74E-4,0.055064,0.012395,0.0,1.0,2273.527344
22.410742,-26.331358,-25.137915,2.73825,0.040098,2.73825,0.040098,-29.999857,-30.0,19.413013,6.741419,7.713812,297.621674,13.476184,-0.021594,-0.001894,21.055521,-5.73E-4,0.055134,0.012373,0.0,1.0,2275.726563
23.005146,-26.306273,-25.112829,2.735012,0.039948,2.735012,0.039948,-29.999857,-30.0,19.439116,7.059219,7.944868,297.626404,13.576546,-0.020796,-8.17E-4,21.131664,-5.73E-4,0.054765,0.012175,0.0,1.0,2277.197021
23.895157,-26.268314,-25.074871,2.742694,0.039846,2.742694,0.039846,-29.999857,-30.0,19.479689,7.546058,8.271254,297.634308,13.70451,-0.019557,7.1E-4,15.509273,-5.71E-4,0.0547,0.011938,0.0,1.0,2279.405762
24.487675,-26.242647,-25.049204,2.747912,0.03994,2.747912,0.03994,-29.999857,-30.0,19.507622,7.87721,8.479096,297.639221,13.77457,-0.018878,0.001546,18.973377,-5.69E-4,0.054854,0.011543,0.0,1.0,2280.878906
25.374134,-26.20332,-25.009874,2.765898,0.035342,2.765898,0.035342,-29.999857,-30.0,19.552303,8.383538,9.361852,297.644165,13.856756,-0.018537,0.002145,13.377793,-5.71E-4,0.054958,0.011298,0.0,1.0,2283.088135
25.963686,-26.176214,-24.982769,2.771161,0.035649,2.771161,0.035649,-19.999857,-20.0,19.583857,8.727317,9.563599,297.645477,13.896487,-0.018191,0.002269,20.127653,-5.05E-4,0.055318,0.01105,0.0,1.0,2284.560303
26.847271,-26.134144,-24.940701,2.775715,0.036857,2.775715,0.036857,-19.999857,-20.0,19.632483,9.252053,9.880606,297.644104,13.933981,-0.018561,0.00192,20.440128,-5.09E-4,0.055423,0.010985,0.0,1.0,2286.767334
27.435713,-26.105171,-24.911728,2.778813,0.037793,2.778813,0.037793,-19.999857,-20.0,19.665745,9.60777,10.040048,297.641113,13.944612,-0.01925,0.001395,14.073681,-5.27E-4,0.055514,0.011053,0.0,1.0,2288.238525
28.296356,-26.06209,-24.868645,2.760135,0.039256,2.760135,0.039256,-19.999857,-20.0,19.711248,10.134754,9.148282,297.635071,13.940273,-0.02038,4.81E-4,19.82864,-5.4E-4,0.055576,0.011203,0.0,1.0,2290.384766
28.91073,-26.031124,-24.837681,2.763604,0.040085,2.763604,0.040085,-19.999857,-20.0,19.743427,10.517018,9.37428,297.630127,13.923356,-0.021498,-2.02E-4,22.738024,-5.61E-4,0.055203,0.011505,0.0,1.0,2291.919189
29.793972,-25.986214,-24.792768,2.77224,0.041062,2.77224,0.041062,-19.999857,-20.0,19.791086,11.075784,9.677453,297.623108,13.88005,-0.02279,-0.001039,16.747389,-5.73E-4,0.055272,0.011752,0.0,1.0,2294.130371
30.381813,-25.955917,-24.762472,2.777474,0.041579,2.777474,0.041579,-19.999857,-20.0,19.823685,11.453595,9.8723,297.619171,13.839632,-0.023437,-0.001412,19.153374,-5.87E-4,0.055445,0.012103,0.0,1.0,2295.605225
31.260895,-25.909645,-24.716202,2.79618,0.034955,2.79618,0.034955,-19.999857,-20.0,19.875725,12.028014,10.923976,297.615448,13.763369,-0.024153,-0.001728,19.469475,-5.94E-4,0.055549,0.0123,0.0,1.0,2297.818848
31.845215,-25.877829,-24.684383,2.80218,0.03455,2.80218,0.03455,-19.999857,-20.0,19.912462,12.415943,11.110449,297.614868,13.703279,-0.023679,-0.001514,19.993116,-4.99E-4,0.055924,0.012486,0.0,1.0,2299.294922
32.720676,-25.828577,-24.635132,2.807455,0.034377,2.807455,0.034377,-19.999857,-20.0,19.968775,13.005079,11.40843,297.617035,13.601305,-0.022593,-7.45E-4,20.735321,-4.94E-4,0.056044,0.012515,0.0,1.0,2301.509521
33.303871,-25.794786,-24.601341,2.800742,0.034603,2.800742,0.034603,-19.999857,-20.0,20.00658,13.402535,10.33113,297.6203,13.526618,-0.020977,1.8E-5,21.179464,-4.91E-4,0.056149,0.012407,0.0,1.0,2302.986572
34.181526,-25.743769,-24.550325,2.791448,0.03777,2.791448,0.03777,-19.999857,-20.0,20.057686,14.005598,10.336288,297.627319,13.406526,-0.019707,0.001362,21.128962,-4.94E-4,0.056015,0.012244,0.0,1.0,2305.204346
34.765369,-25.709831,-24.516388,2.796763,0.037844,2.796763,0.037844,-19.999857,-20.0,20.092484,14.412104,10.532743,297.632294,13.322263,-0.018776,0.002153,21.136477,-5.4E-4,0.055829,0.011893,0.0,1.0,2306.684814
35.638638,-25.658682,-24.465237,2.814538,0.032285,2.814538,0.032285,-19.999857,-20.0,20.146999,15.028342,11.614197,297.638123,13.191674,-0.018148,0.002768,21.352057,-5.41E-4,0.055935,0.011644,0.0,1.0,2308.906738
36.218281,-25.623917,-24.430471,2.823698,0.031082,2.823698,0.031082,-19.999857,-20.0,20.186207,15.443349,11.846828,297.640289,13.103094,-0.017396,0.002945,21.79801,-4.61E-4,0.056291,0.011352,0.0,1.0,2310.388672
37.086456,-25.570427,-24.376982,2.829679,0.031937,2.829679,0.031937,-19.999857,-20.0,20.246126,16.07192,12.117342,297.640289,12.969975,-0.017193,0.002709,22.453009,-4.44E-4,0.056474,0.011244,0.0,1.0,2312.611816
37.664204,-25.533905,-24.340462,2.833557,0.032835,2.833557,0.032835,-19.999857,-20.0,20.28684,16.494892,12.303479,297.638153,12.882088,-0.017624,0.002243,22.875153,-4.56E-4,0.056594,0.011244,0.0,1.0,2314.094238
38.53009,-25.477943,-24.2845,2.827123,0.034558,2.827123,0.034558,-19.999857,-20.0,20.347237,17.13504,11.408432,297.632477,12.753129,-0.018955,0.001257,23.368774,-4.69E-4,0.056671,0.011351,0.0,1.0,2316.318359
39.107803,-25.440409,-24.246965,2.827641,0.035595,2.827641,0.035595,-19.999857,-20.0,20.385599,17.565506,11.602575,297.627777,12.669887,-0.020078,5.41E-4,23.371298,-4.94E-4,0.056542,0.011635,0.0,1.0,2317.802002
39.972061,-25.383949,-24.190506,2.834995,0.037009,2.834995,0.037009,-19.999857,-20.0,20.444313,18.216572,11.886153,297.620575,12.550404,-0.021812,-4.23E-4,23.489433,-5.08E-4,0.056553,0.01187,0.0,1.0,2320.028809
40.546795,-25.346064,-24.152618,2.840398,0.037785,2.840398,0.037785,-19.999857,-20.0,20.484241,18.654081,12.062611,297.616302,12.475039,-0.022817,-9.05E-4,23.637264,-5.29E-4,0.0567,0.01223,0.0,1.0,2321.513672
41.406902,-25.288692,-24.095247,2.847558,0.03861,2.847558,0.03861,-19.999857,-20.0,20.545225,19.315359,12.322875,297.612091,12.369524,-0.023807,-0.001193,15.249562,-5.4E-4,0.056808,0.012444,0.0,1.0,2323.741455
41.978931,-25.250006,-24.056561,2.85216,0.037864,2.85216,0.037864,-19.999857,-20.0,20.586674,19.759449,12.471631,297.611084,12.304774,-0.024312,-0.001116,23.545481,-5.52E-4,0.056951,0.012654,0.0,1.0,2325.226807
42.837112,-25.191668,-23.998224,2.846747,0.036382,2.846747,0.036382,-19.999857,-20.0,20.645712,20.430281,11.793772,297.612915,12.216927,-0.023633,-4.72E-4,17.824299,-5.41E-4,0.057043,0.012704,0.0,1.0,2327.455078
43.407913,-25.152861,-23.959415,2.851106,0.036362,2.851106,0.036362,-19.999857,-20.0,20.685326,20.880539,11.964836,297.615997,12.164989,-0.022792,2.08E-4,16.941891,-5.2E-4,0.056935,0.012613,0.0,1.0,2329.057861
44.261719,-25.094519,-23.901073,2.858847,0.036556,2.858847,0.036556,-19.999857,-20.0,20.745787,21.560308,12.211133,297.622009,12.097648,-0.021142,0.001315,19.035917,-5.19E-4,0.057022,0.012459,0.0,1.0,2332.675537
44.829887,-25.055414,-23.861971,2.86377,0.036818,2.86377,0.036818,-19.999857,-20.0,20.786768,22.016317,12.370106,297.626221,12.060074,-0.019986,0.001991,21.41551,-5.22E-4,0.057177,0.012158,0.0,1.0,2335.679932
45.684998,-24.996876,-23.803431,2.838395,0.034432,2.838395,0.034432,-19.999857,-20.0,20.841095,22.704462,9.732426,297.631531,12.014964,-0.018592,0.002665,18.398514,-5.26E-4,0.057275,0.011948,0.0,1.0,2340.719482
46.256363,-24.95923,-23.765787,2.840569,0.034576,2.840569,0.034576,-19.999857,-20.0,20.873861,23.165945,9.916387,297.634094,11.992409,-0.017787,0.002931,18.154009,-4.92E-4,0.056768,0.011682,0.0,1.0,2344.310547
47.111912,-24.904467,-23.711021,2.850674,0.035489,2.850674,0.035489,-19.999857,-20.0,20.924057,23.862127,10.146002,297.63446,11.969744,-0.017328,0.002747,17.389055,-4.94E-4,0.056811,0.011554,0.0,1.0,2349.905029
47.681705,-24.868721,-23.675278,2.856531,0.036401,2.856531,0.036401,-19.999857,-20.0,20.958115,24.328825,10.281762,297.632263,11.961921,-0.0176,0.002264,17.061785,-5.07E-4,0.057013,0.011536,0.0,1.0,2353.723877
48.53577,-24.815788,-23.622345,2.863625,0.038062,2.863625,0.038062,-19.999857,-20.0,21.010017,25.032621,10.473627,297.625946,11.960659,-0.01883,0.001172,16.771301,-5.2E-4,0.057131,0.011645,0.0,1.0,2359.533691
49.104763,-24.780752,-23.587307,2.868219,0.039255,2.868219,0.039255,-19.999857,-20.0,21.045153,25.504261,10.601684,297.620392,11.966434,-0.020059,3.26E-4,16.681665,-5.44E-4,0.057273,0.011961,0.0,1.0,2363.443359
49.957752,-24.728298,-23.534853,2.874841,0.040935,2.874841,0.040935,-19.999857,-20.0,21.098656,26.215273,10.79365,297.611816,11.984278,-0.022137,-8.12E-4,16.666235,-5.61E-4,0.057364,0.012239,0.0,1.0,2369.342773
50.5261,-24.693274,-23.499828,2.87941,0.041944,2.87941,0.041944,-19.999857,-20.0,21.134861,26.691595,10.92348,297.606781,12.001816,-0.023452,-0.001371,16.71874,-5.85E-4,0.057497,0.012668,0.0,1.0,2373.292725
51.378273,-24.640488,-23.447042,2.885834,0.042234,2.885834,0.042234,-19.999857,-20.0,21.190159,27.409445,11.768486,297.601807,12.035728,-0.025212,-0.001747,16.87384,-5.99E-4,0.057588,0.01292,0.0,1.0,2379.236084
51.945114,-24.604862,-23.411419,2.898421,0.025055,2.898421,0.025055,-19.999857,-20.0,21.229694,27.890194,12.211672,297.60022,12.062943,-0.025466,-0.002069,17.220453,-6.03E-4,0.057717,0.013168,0.0,1.0,2383.208008
52.794575,-24.550068,-23.356623,2.907074,0.024579,2.907074,0.024579,-19.999857,-20.0,21.291262,28.614487,12.404007,297.601563,12.11023,-0.024837,-0.001353,17.939163,-3.58E-4,0.057968,0.013248,0.0,1.0,2389.175781
53.360867,-24.512653,-23.319208,2.911016,0.024744,2.911016,0.024744,-19.999857,-20.0,21.332838,29.099407,12.536484,297.604187,12.145592,-0.023953,-6.6E-4,18.373032,-3.51E-4,0.058141,0.01318,0.0,1.0,2393.161377
54.210083,-24.45533,-23.261885,2.916877,0.025027,2.916877,0.025027,-19.999857,-20.0,21.396036,29.829784,12.738197,297.609406,12.20352,-0.022174,4.46E-4,21.229319,-3.53E-4,0.05822,0.013049,0.0,1.0,2399.149902
54.776012,-24.416365,-23.222921,2.921131,0.025287,2.921131,0.025287,-19.999857,-20.0,21.438732,30.318653,12.87456,297.612976,12.24488,-0.02088,0.0011,21.411524,-3.58E-4,0.058338,0.012788,0.0,1.0,2403.148926
55.624527,-24.356861,-23.163418,2.927387,0.025898,2.927387,0.025898,-19.999857,-20.0,21.503633,31.054787,13.078819,297.616821,12.310124,-0.019133,0.001724,22.93325,-3.61E-4,0.058423,0.01261,0.0,1.0,2409.157715
56.189896,-24.316521,-23.123075,2.931677,0.026452,2.931677,0.026452,-19.999857,-20.0,21.54747,31.547384,13.216757,297.617828,12.355213,-0.018268,0.001844,19.234516,-3.7E-4,0.058548,0.012418,0.0,1.0,2413.169922
57.037426,-24.255037,-23.061592,2.937836,0.027528,2.937836,0.027528,-19.999857,-20.0,21.61408,32.288948,13.422356,297.616425,12.424267,-0.017627,0.001549,18.945198,-3.78E-4,0.058634,0.012367,0.0,1.0,2419.197754
57.602303,-24.213428,-23.019983,2.932992,0.028506,2.932992,0.028506,-19.999857,-20.0,21.658472,32.785061,12.796717,297.613617,12.470673,-0.017812,0.001098,23.649733,-3.93E-4,0.058757,0.012437,0.0,1.0,2423.222412
58.456726,-24.152998,-22.959555,2.905191,0.030082,2.905191,0.030082,-19.999857,-20.0,21.704393,33.53183,9.158777,297.608521,12.539742,-0.018322,3.74E-4,18.425776,-4.07E-4,0.05866,0.012578,0.0,1.0,2429.276611
59.025314,-24.115036,-22.921591,2.910164,0.030893,2.910164,0.030893,-19.999857,-20.0,21.735199,34.031368,9.313228,297.604614,12.584804,-0.018951,-1.41E-4,18.265982,-4.3E-4,0.058104,0.012833,0.0,1.0,2433.324707
59.876453,-24.060556,-22.867111,2.920413,0.032114,2.920413,0.032114,-19.999857,-20.0,21.782265,34.783134,9.497624,297.598755,12.650048,-0.020056,-8.07E-4,17.129883,-4.41E-4,0.058203,0.013028,0.0,1.0,2439.408691
60.442966,-24.025415,-22.831972,2.928311,0.029413,2.928311,0.029413,-19.999857,-20.0,21.814648,35.2859,10.141888,297.595337,12.691529,-0.021104,-0.00124,16.626099,-4.59E-4,0.058408,0.013321,0.0,1.0,2443.472412
61.290138,-23.973248,-22.779804,2.940005,0.025373,2.940005,0.025373,-19.999857,-20.0,21.86759,36.04232,10.68104,297.592102,12.750193,-0.021472,-0.001407,16.534988,-4.2E-4,0.058566,0.013492,0.0,1.0,2449.643555
62.13644,-23.921028,-22.727585,2.945487,0.026513,2.945487,0.026513,-19.999857,-20.0,21.921349,36.80138,10.820887,297.591644,12.804023,-0.021696,-0.001038,16.589001,-3.62E-4,0.0588,0.013654,0.0,1.0,2455.902344
62.70015,-23.886103,-22.692657,2.949091,0.027208,2.949091,0.027208,-19.999857,-20.0,21.957596,37.308834,10.922949,297.592773,12.836911,-0.021555,-6.03E-4,16.662352,-3.73E-4,0.058877,0.013684,0.0,1.0,2460.105957
63.548489,-23.834101,-22.640656,2.919693,0.028344,2.919693,0.028344,-19.999857,-20.0,22.00127,38.07209,6.129631,297.596069,12.881373,-0.020962,2.28E-4,15.840291,-3.89E-4,0.058982,0.01362,0.0,1.0,2466.444092
64.116814,-23.802055,-22.60861,2.91739,0.028975,2.91739,0.028975,-19.999857,-20.0,22.021921,38.582321,6.258992,297.599152,12.907537,-0.020352,8.42E-4,14.224972,-4.05E-4,0.058394,0.013455,0.0,1.0,2470.692383
64.966751,-23.757795,-22.564352,2.926538,0.032231,2.926538,0.032231,-19.999857,-20.0,22.053658,39.349678,6.41964,297.590302,12.941319,-0.020504,-8.11E-4,16.100431,-4.14E-4,0.058348,0.0,0.0,1.0,2477.087891
65.531982,-23.730209,-22.536764,2.931545,0.033647,2.931545,0.033647,-19.999857,-20.0,22.075195,39.862553,6.497183,297.551514,12.959965,-0.02254,-0.007071,13.865148,-4.6E-4,0.058531,4.42E-4,0.0,1.0,2481.362305
66.377098,-23.690916,-22.497473,2.937069,0.033057,2.937069,0.033057,-19.999857,-20.0,22.107944,40.633709,6.600452,297.454346,12.981226,-0.029681,-0.021315,15.500839,-4.81E-4,0.058631,0.002382,0.0,1.0,2487.783203
66.938377,-23.665762,-22.472319,2.940981,0.031625,2.940981,0.031625,-19.999857,-20.0,22.130075,41.148979,6.673742,297.376099,12.990215,-0.036782,-0.031659,15.068562,-4.72E-4,0.058741,0.00724,0.0,1.0,2492.066162
67.777267,-23.629122,-22.435677,2.947209,0.028153,2.947209,0.028153,-19.999857,-20.0,22.163738,41.923515,6.788499,297.27005,12.994727,-0.048519,-0.043302,17.984495,-4.52E-4,0.05882,0.011153,0.0,1.0,2498.489258
68.334816,-23.605145,-22.411701,2.954539,0.013966,2.954539,0.013966,-19.999857,-20.0,22.187809,42.440891,8.184214,297.219757,12.991288,-0.056348,-0.047145,22.146236,-4.02E-4,0.058944,0.016455,0.0,1.0,2502.769531
69.170441,-23.568401,-22.374956,2.929459,-0.068239,2.929459,-0.068239,-19.999857,-20.0,22.231518,43.218372,9.336746,297.195435,12.976769,-0.064396,-0.04554,14.309379,-2.0E-4,0.059091,0.01897,0.0,1.0,2509.190918
69.729736,-23.542673,-22.349228,2.878535,-0.180438,2.878535,-0.180438,-19.999857,-20.0,22.263517,43.737606,9.759634,297.217194,12.962174,-0.065563,-0.039965,17.786795,9.75E-4,0.058589,0.020186,0.0,1.0,2513.480713
70.571808,-23.502056,-22.308611,2.792668,-0.377221,2.792668,-0.377221,-19.999857,-20.0,22.312475,44.517838,9.742585,297.29834,12.937314,-0.059804,-0.02575,22.610769,0.002578,0.057571,0.019098,0.0,1.0,2519.939697
71.13504,-23.4739,-22.280457,2.743142,-0.500741,2.743142,-0.500741,-19.999857,-20.0,22.34479,45.038944,9.596442,297.370331,12.9219,-0.05156,-0.014588,14.401896,0.005389,0.055853,0.015041,0.0,1.0,2524.26416
71.980179,-23.430609,-22.237165,2.692675,-0.653876,2.692675,-0.653876,-19.999857,-20.0,22.392422,45.822067,9.531828,297.463989,12.905607,-0.035614,-0.001748,19.669516,0.007153,0.054863,0.011441,0.0,1.0,2530.776611
72.541771,-23.401224,-22.207779,2.661446,-0.751531,2.661446,-0.751531,-19.999857,-20.0,22.424526,46.345093,9.693849,297.496613,12.901648,-0.024772,9.84E-4,16.557493,0.009341,0.053854,0.006758,0.0,1.0,2535.128906
73.386368,-23.357014,-22.163568,2.569564,-0.934643,2.569564,-0.934643,-19.999857,-20.0,22.462378,47.130974,4.851324,297.474426,12.908957,-0.012409,-0.007657,16.20359,0.010736,0.053229,0.005127,0.0,1.0,2541.666992
73.953804,-23.329906,-22.136463,2.503721,-1.081828,2.503721,-1.081828,-19.999857,-20.0,22.47806,47.655804,4.565938,297.411346,12.923971,-0.005067,-0.020748,13.183749,0.013352,0.051391,0.006236,0.0,1.0,2546.042236
74.803391,-23.293249,-22.099806,2.447635,-1.266926,2.447635,-1.266926,-19.999857,-20.0,22.500908,48.444401,4.786677,297.260162,12.963261,-5.87E-4,-0.045916,14.397309,0.015455,0.050074,0.00939,0.0,1.0,2552.626465
75.368523,-23.270756,-22.077311,2.437173,-1.403587,2.437173,-1.403587,-19.999857,-20.0,22.518925,48.971027,6.127692,297.136322,13.000725,-0.002129,-0.06452,13.496584,0.018099,0.048953,0.01695,0.0,1.0,2557.027588
76.207863,-23.237274,-22.043831,2.51804,-1.726362,2.51804,-1.726362,-19.999857,-20.0,22.560783,49.76226,12.412893,296.956879,13.074295,-0.008334,-0.090598,14.170132,0.020051,0.048743,0.023141,0.0,1.0,2563.632568
76.758018,-23.211201,-22.017757,2.606574,-2.002076,2.606574,-2.002076,-19.999857,-20.0,22.621531,50.290482,24.466751,296.860382,13.136721,-0.010915,-0.103396,18.701962,0.024662,0.050361,0.032114,0.0,1.0,2568.026855
77.559624,-23.151031,-21.957586,2.737733,-2.367765,2.737733,-2.367765,-19.999857,-20.0,22.8057,51.083504,49.36042,296.776611,13.255358,-0.012009,-0.109426,21.849707,0.028601,0.052131,0.036938,0.0,1.0,2574.582031
78.073425,-23.08576,-21.892315,2.83986,-2.542551,2.83986,-2.542551,-19.999857,-20.0,23.002462,51.612324,68.227074,296.75592,13.353668,-0.010045,-0.105917,23.602844,0.033825,0.054755,0.041127,0.0,1.0,2578.907959
78.323708,-22.931915,-21.738472,3.003514,-2.653428,3.003514,-2.653428,-19.999857,-20.0,23.420927,52.405159,98.552132,296.751556,13.532349,-0.003463,-0.331068,38.383461,0.036322,0.056797,0.042162,0.0,1.0,2585.290771
78.323708,-22.782627,-21.589182,3.12594,-2.635566,3.12594,-2.635566,-19.999857,-20.0,23.785641,52.933044,119.59108,296.743927,13.671939,0.002709,-0.537879,50.298592,0.037906,0.06007,0.04238,0.0,1.0,2589.454346
78.323708,-22.474916,-21.281471,3.291353,-2.50361,3.291353,-2.50361,-19.999857,-20.0,24.464933,53.723106,150.917404,296.694763,13.908341,0.012578,-0.811716,70.700081,0.037651,0.062519,0.042761,0.0,1.0,2595.530029
78.323708,-22.207832,-21.014387,3.397315,-2.37529,3.397315,-2.37529,-19.999857,-20.0,25.002163,54.248203,170.515717,296.627655,14.08016,0.018077,-0.972697,85.50618,0.035766,0.065827,0.045219,0.0,1.0,2599.330322
78.323708,-21.707888,-20.514444,3.524034,-2.18307,3.524034,-2.18307,-19.999857,-20.0,25.926878,55.032757,198.386139,296.487244,14.350862,0.023261,-1.18585,108.75769,0.033933,0.067946,0.048575,0.0,1.0,2603.933105
78.323708,-21.306337,-20.112894,3.607587,-2.070385,3.607587,-2.070385,-19.999857,-20.0,26.619127,55.553391,216.221832,296.38089,14.534789,0.024451,-1.311156,124.655884,0.031187,0.070481,0.055595,0.0,1.0,2606.456299
78.323708,-20.599977,-19.406532,3.727489,-1.946919,3.727489,-1.946919,-19.999857,-20.0,27.767302,56.3302,242.16832,296.243439,14.807595,0.023922,-1.477073,148.773727,0.029577,0.072152,0.060913,0.0,1.0,2609.690918
78.323708,-20.059427,-18.865982,3.815193,-1.879523,3.815193,-1.879523,-19.999857,-20.0,28.604,56.845009,259.214539,296.182159,14.983485,0.023486,-1.574611,164.908585,0.027813,0.07455,0.067786,0.0,1.0,2611.584717
78.323708,-19.144171,-17.950726,3.938092,-1.778374,3.938092,-1.778374,-19.999857,-20.0,29.964911,57.612103,284.200317,296.154358,15.23314,0.024661,-1.70376,189.106827,0.02685,0.076304,0.07085,0.0,1.0,2614.147461
78.323708,-18.464727,-17.271282,4.023293,-1.687592,4.023293,-1.687592,-19.999857,-20.0,30.940189,58.119762,300.566956,296.172913,15.387787,0.027837,-1.779683,205.162262,0.025405,0.078762,0.07224,0.0,1.0,2615.714111
78.323708,-17.341982,-16.148539,4.143034,-1.50518,4.143034,-1.50518,-19.999857,-20.0,32.513226,58.875103,328.377533,296.229095,15.598412,0.035987,-1.880211,229.216309,0.024108,0.080466,0.071312,0.0,1.0,2617.900635
78.323708,-16.523073,-15.329629,4.238445,-1.351847,4.238445,-1.351847,-19.999857,-20.0,33.642609,59.374237,348.771393,296.264557,15.722337,0.042926,-1.939309,245.498718,0.021503,0.082861,0.068503,0.0,1.0,2619.269531
78.323708,-15.184772,-13.991327,4.385779,-1.108081,4.385779,-1.108081,-9.999858,-10.0,35.466457,60.115772,378.855652,296.281891,15.879157,0.05359,-2.01756,270.67038,0.019312,0.084769,0.06673,0.0,1.0,2621.210449
78.323708,-14.217677,-13.024233,4.47752,-0.950532,4.47752,-0.950532,-9.999858,-10.0,36.758724,60.605106,395.476135,296.262817,15.961644,0.059325,-2.063561,287.805359,0.01583,0.087716,0.065863,0.0,1.0,2622.438721
78.323708,-12.65729,-11.463846,4.554452,-0.766971,4.554452,-0.766971,-9.999858,-10.0,38.789299,61.331303,415.534607,296.199341,16.047821,0.064523,-2.124472,313.230316,0.013579,0.08955,0.066817,0.0,1.0,2624.198242
78.323708,-11.547649,-10.354205,4.590937,-0.683237,4.590937,-0.683237,-9.999858,-10.0,40.195164,61.81015,427.400726,296.148773,16.078194,0.06547,-2.160279,329.570313,0.010957,0.091089,0.069991,0.0,1.0,2625.325684
78.323708,-9.78642,-8.592976,4.651875,-0.6215,4.651875,-0.6215,-9.999858,-10.0,42.37558,62.520405,444.218964,296.094238,16.081358,0.064507,-2.207691,352.845276,0.009761,0.091819,0.072519,0.0,1.0,2626.95874
78.323708,-8.551626,-7.358181,4.706817,-0.60349,4.706817,-0.60349,-9.999858,-10.0,43.876122,62.98851,455.777954,296.084412,16.055515,0.063701,-2.235563,367.529175,0.008879,0.093038,0.075246,0.0,1.0,2628.011963
78.323708,-6.613183,-5.419739,4.791493,-0.581227,4.791493,-0.581227,-9.999858,-10.0,46.202084,63.682396,474.309662,296.116974,15.977249,0.064084,-2.272468,388.536987,0.008621,0.094136,0.075737,0.0,1.0,2629.540771
78.323708,-5.26488,-4.071435,4.852413,-0.550871,4.852413,-0.550871,1.42E-4,0.0,47.805607,64.139366,487.409515,296.162781,15.900838,0.066236,-2.294164,402.062744,0.008303,0.09583,0.074109,0.0,1.0,2630.522705
78.323708,-3.159409,-1.965964,4.936016,-0.469315,4.936016,-0.469315,1.42E-4,0.0,50.294178,64.8162,507.385498,296.239014,15.7537,0.071962,-2.322891,421.949036,0.00787,0.097048,0.071819,0.0,1.0,2631.934082
78.323708,-1.70066,-0.507215,4.994339,-0.394732,4.994339,-0.394732,1.42E-4,0.0,52.008255,65.261604,520.577698,296.278778,15.635875,0.076473,-2.339778,435.04953,0.006704,0.09872,0.068007,0.0,1.0,2632.837891
78.323708,0.655845,1.849289,5.071414,-0.280478,5.071414,-0.280478,1.42E-4,0.0,54.66217,65.920868,540.344116,296.299622,15.432185,0.082382,-2.362139,454.504364,0.005639,0.099887,0.066019,0.0,1.0,2634.14502
78.323708,2.301158,3.494602,5.125035,-0.21791,5.125035,-0.21791,1.42E-4,0.0,56.485722,66.354462,553.281616,296.286896,15.279708,0.084457,-2.375284,467.452728,0.004007,0.101428,0.064976,0.0,1.0,2634.988037
78.323708,4.854237,6.047681,5.197818,-0.172604,5.197818,-0.172604,10.000142,10.0,59.300968,66.995979,572.117004,296.243652,15.028351,0.084322,-2.39269,486.724915,0.003113,0.102501,0.065613,0.0,1.0,2636.216064
78.323708,6.612396,7.80584,5.249219,-0.174349,5.249219,-0.174349,10.000142,10.0,61.229385,67.41777,584.494141,296.213745,14.847586,0.082349,-2.402922,499.455078,0.002466,0.103956,0.067775,0.0,1.0,2637.013428
78.323708,9.332664,10.526109,5.322211,-0.21331,5.322211,-0.21331,10.000142,10.0,64.199684,68.041641,603.042969,296.194855,14.561107,0.07827,-2.416471,518.35791,0.002491,0.104984,0.06927,0.0,1.0,2638.178955
78.323708,11.200999,12.394444,5.376801,-0.246258,5.376801,-0.246258,10.000142,10.0,66.231194,68.451683,615.437927,296.207336,14.363189,0.076174,-2.424435,530.838135,0.003047,0.106444,0.070215,0.0,1.0,2638.936035
78.323708,14.085079,15.278523,5.455062,-0.274959,5.455062,-0.274959,10.000142,10.0,69.35672,69.057907,634.213196,296.260345,14.062152,0.075292,-2.434981,549.407104,0.003518,0.107536,0.069591,0.0,1.0,2640.039551
78.323708,16.061979,17.255424,5.511426,-0.271086,5.511426,-0.271086,20.000143,20.0,71.492432,69.456131,646.773987,296.308136,13.862212,0.076529,-2.441181,561.710022,0.003928,0.109101,0.06694,0.0,1.0,2640.752686
78.323708,19.108377,20.301823,5.587202,-0.228302,5.587202,-0.228302,20.000143,20.0,74.774734,70.044487,665.503967,296.370117,13.568588,0.08021,-2.44939,580.085083,0.003873,0.110229,0.064551,0.0,1.0,2641.787842
78.323708,21.193171,22.386616,5.639211,-0.18618,5.639211,-0.18618,20.000143,20.0,77.014206,70.430733,677.713745,296.393463,13.379261,0.082689,-2.454216,592.288391,0.003261,0.111744,0.061452,0.0,1.0,2642.455322
78.323708,24.400505,25.59395,5.706874,-0.130907,5.706874,-0.130907,20.000143,20.0,80.448906,71.001083,695.467224,296.391663,13.107575,0.08488,-2.460605,610.500366,0.00266,0.112784,0.060284,0.0,1.0,2643.424805
78.323708,26.591528,27.784973,5.753153,-0.11197,5.753153,-0.11197,30.000143,30.0,82.786774,71.375351,706.7995,296.371185,12.935807,0.084475,-2.464362,622.55011,0.00187,0.114137,0.060374,0.0,1.0,2644.05249
78.323708,29.955685,31.149128,5.814874,-0.124372,5.814874,-0.124372,30.000143,30.0,86.363251,71.927879,723.142822,296.333557,12.694143,0.081369,-2.469335,640.418091,0.0016,0.115063,0.061398,0.0,1.0,2644.968994
78.323708,32.249088,33.442532,5.858654,-0.154288,5.858654,-0.154288,30.000143,30.0,88.791878,72.290375,733.625,296.317383,12.545128,0.078384,-2.472259,652.152954,0.001777,0.116297,0.06328,0.0,1.0,2645.564453
78.323708,35.763046,36.956493,5.919307,-0.210243,5.919307,-0.210243,40.000141,40.0,92.499725,72.825401,748.960815,296.32428,12.342804,0.074252,-2.476131,669.435974,0.002204,0.117173,0.064088,0.0,1.0,2646.43457
78.323708,38.153732,39.347176,5.963117,-0.240585,5.963117,-0.240585,40.000141,40.0,95.013565,73.176308,758.972229,296.350555,12.22401,0.072819,-2.478407,680.728088,0.003003,0.118386,0.063744,0.0,1.0,2646.998779
78.323708,41.809906,43.003353,6.023097,-0.253265,6.023097,-0.253265,40.000141,40.0,98.84671,73.694008,773.766479,296.408325,12.073005,0.073152,-2.48142,697.314331,0.003437,0.119262,0.06243,0.0,1.0,2647.819092
78.323708,44.293114,45.486561,6.064943,-0.239369,6.064943,-0.239369,40.000141,40.0,101.442612,74.033379,783.41095,296.447052,11.991662,0.074721,-2.483192,708.141602,0.003618,0.120462,0.059541,0.0,1.0,2648.348145
78.323708,48.084873,49.278316,6.119128,-0.195735,6.119128,-0.195735,50.000141,50.0,105.396164,74.533791,797.455139,296.48233,11.899413,0.077733,-2.485538,724.045654,0.00342,0.121299,0.057605,0.0,1.0,2649.115234
78.323708,50.656319,51.849762,6.155442,-0.165023,6.155442,-0.165023,50.000141,50.0,108.069855,74.861687,806.396118,296.485382,11.857436,0.07898,-2.486917,734.423279,0.002796,0.122383,0.055841,0.0,1.0,2649.610107
78.323708,54.576908,55.770355,6.201827,-0.141299,6.201827,-0.141299,50.000141,50.0,112.135086,75.345032,819.151611,296.463074,11.822372,0.078758,-2.488743,749.634399,0.002357,0.123109,0.055689,0.0,1.0,2650.331055
78.323708,57.231621,58.425064,6.233601,-0.146355,6.233601,-0.146355,60.000141,60.0,114.879539,75.661682,827.183167,296.439941,11.816666,0.076999,-2.489816,759.521484,0.002019,0.124037,0.056804,0.0,1.0,2650.799072
78.323708,61.272736,62.466183,6.276423,-0.184084,6.276423,-0.184084,60.000141,60.0,119.045418,76.128418,838.710876,296.415649,11.833337,0.072942,-2.491237,773.93927,0.002091,0.124672,0.057961,0.0,1.0,2651.484619
78.323708,64.004761,65.198212,6.307283,-0.219124,6.307283,-0.219124,60.000141,60.0,121.853943,76.434166,846.11792,296.415466,11.860874,0.070318,-2.492073,783.262878,0.00263,0.125528,0.059175,0.0,1.0,2651.931152
78.323708,68.157425,69.350868,6.350329,-0.262037,6.350329,-0.262037,70.000145,70.0,126.112701,76.884743,857.001221,296.443726,11.92652,0.067858,-2.493179,796.809998,0.00313,0.126146,0.059184,0.0,1.0,2652.58374
78.323708,70.96109,72.154541,6.381304,-0.275048,6.381304,-0.275048,70.000145,70.0,128.981689,77.17981,864.127319,296.476227,11.98629,0.067765,-2.493829,805.556763,0.003743,0.127007,0.057771,0.0,1.0,2653.006836
78.323708,75.217636,76.411079,6.422683,-0.26242,6.422683,-0.26242,80.000145,80.0,133.329529,77.614479,874.622437,296.525085,12.098975,0.06956,-2.494691,818.275208,0.003929,0.127626,0.056146,0.0,1.0,2653.62207
78.323708,78.088432,79.281876,6.450816,-0.239187,6.450816,-0.239187,80.000145,80.0,136.256668,77.89901,881.397095,296.547516,12.188292,0.071247,-2.495197,826.50293,0.003749,0.128454,0.053703,0.0,1.0,2654.019043
78.323708,82.442673,83.636116,6.486206,-0.201375,6.486206,-0.201375,80.000145,80.0,140.689011,78.317993,891.129395,296.553558,12.34063,0.073134,-2.495867,838.487732,0.003417,0.129016,0.052582,0.0,1.0,2654.59668
78.323708,85.376564,86.570007,6.509722,-0.185673,6.509722,-0.185673,90.000145,90.0,143.670059,78.592186,897.24231,296.540863,12.452362,0.073099,-2.496261,846.244019,0.002877,0.129724,0.05228,0.0,1.0,2654.971191
78.323708,89.822128,91.015579,6.540078,-0.191043,6.540078,-0.191043,90.000145,90.0,148.178879,78.995926,905.910278,296.510986,12.63166,0.071011,-2.496783,857.521362,0.002652,0.130194,0.052914,0.0,1.0,2655.52002
78.323708,92.814522,94.007973,6.561447,-0.212216,6.561447,-0.212216,90.000145,90.0,151.208069,79.260139,911.384216,296.494446,12.757214,0.068678,-2.49709,864.794617,0.002729,0.130802,0.054408,0.0,1.0,2655.878418
78.323708,97.344162,98.537605,6.591215,-0.256846,6.591215,-0.256846,100.000145,100.0,155.785583,79.649178,919.327271,296.491119,12.952286,0.06509,-2.497496,875.328186,0.003032,0.131229,0.055235,0.0,1.0,2656.405029
78.323708,100.390228,101.583672,6.613139,-0.284108,6.613139,-0.284108,100.000145,100.0,158.858963,79.903748,924.508118,296.505768,13.085874,0.063587,-2.497735,882.101318,0.003669,0.131824,0.055402,0.0,1.0,2656.748779
78.323708,104.997185,106.190628,6.643679,-0.301931,6.643679,-0.301931,100.000145,100.0,163.501373,80.278503,932.198303,296.545013,13.290188,0.063273,-2.498051,891.903442,0.004059,0.132263,0.054669,0.0,1.0,2657.251465
78.323708,108.092957,109.2864,6.665242,-0.296471,6.665242,-0.296471,110.000145,110.0,166.617432,80.523651,937.24646,296.573792,13.428064,0.064274,-2.498237,898.215454,0.004313,0.132874,0.052707,0.0,1.0,2657.577148
78.323708,112.772141,113.965584,6.692954,-0.267617,6.692954,-0.267617,110.000145,110.0,171.32283,80.884399,944.622437,296.602203,13.635195,0.066588,-2.498483,907.378418,0.004235,0.133305,0.051268,0.0,1.0,2658.051758
78.323708,115.914642,117.108086,6.711246,-0.244769,6.711246,-0.244769,120.000145,120.0,174.479706,81.1203,949.31311,296.606049,13.771851,0.067717,-2.498627,913.297363,0.003823,0.133859,0.049847,0.0,1.0,2658.359131
78.323708,120.661758,121.855202,6.733908,-0.224656,6.733908,-0.224656,120.000145,120.0,179.243637,81.467384,955.960266,296.589813,13.971588,0.067897,-2.498819,921.902283,0.003497,0.134225,0.049655,0.0,1.0,2658.808838
78.323708,123.847961,125.041405,6.749185,-0.226445,6.749185,-0.226445,120.000145,120.0,182.437363,81.694336,960.104858,296.571075,14.099553,0.066726,-2.498932,927.456543,0.003209,0.134678,0.050467,0.0,1.0,2659.102539
78.323708,128.658005,129.851456,6.769745,-0.253119,6.769745,-0.253119,130.000137,130.0,187.253265,82.028275,966.013123,296.548859,14.281454,0.063712,-2.499081,935.506836,0.003235,0.134984,0.051404,0.0,1.0,2659.535645
78.323708,131.884354,133.077789,6.784863,-0.279629,6.784863,-0.279629,130.000137,130.0,190.479874,82.246651,969.806274,296.545471,14.395227,0.061652,-2.499168,940.683167,0.003616,0.135395,0.052515,0.0,1.0,2659.81958
78.323708,136.751984,137.945435,6.806572,-0.313854,6.806572,-0.313854,140.000137,140.0,195.343399,82.567947,975.416748,296.562683,14.554056,0.059604,-2.499285,948.164246,0.003995,0.135697,0.052684,0.0,1.0,2660.237793
78.323708,140.015167,141.208603,6.822586,-0.32537,6.822586,-0.32537,140.000137,140.0,198.601196,82.77803,979.134094,296.585388,14.651944,0.05945,-2.499353,952.970703,0.004484,0.136131,0.051823,0.0,1.0,2660.510498
78.323708,144.936127,146.129562,6.8442,-0.317694,6.8442,-0.317694,140.000137,140.0,203.511185,83.087029,984.665894,296.621063,14.786562,0.060804,-2.499443,959.931091,0.004648,0.136452,0.050688,0.0,1.0,2660.909424
78.323708,148.23378,149.427216,6.85885,-0.300557,6.85885,-0.300557,150.000137,150.0,206.799622,83.288994,988.261414,296.637756,14.867803,0.062174,-2.499496,964.419739,0.004538,0.136884,0.048904,0.0,1.0,2661.168213
78.323708,153.205032,154.398468,6.876825,-0.271265,6.876825,-0.271265,150.000137,150.0,211.754395,83.585976,993.42334,296.641876,14.975883,0.063814,-2.499567,970.944824,0.004294,0.137177,0.04807,0.0,1.0,2661.546631
78.323708,156.535248,157.728683,6.888481,-0.258409,6.888481,-0.258409,160.000137,160.0,215.071411,83.780045,996.643738,296.6315,15.038035,0.063923,-2.499608,975.162292,0.003875,0.137536,0.047864,0.0,1.0,2661.793457
78.323708,161.553665,162.747101,6.903212,-0.261108,6.903212,-0.261108,160.000137,160.0,220.066452,84.06543,1001.170837,296.606964,15.115416,0.062478,-2.499663,981.289063,0.003692,0.13777,0.048383,0.0,1.0,2662.156982
78.323708,164.914063,166.107513,6.913641,-0.276531,6.913641,-0.276531,160.000137,160.0,223.408615,84.251953,1004.011353,296.592834,15.156224,0.060746,-2.499695,985.237,0.00373,0.138064,0.049609,0.0,1.0,2662.395996
78.323708,169.975769,171.169205,6.928585,-0.310024,6.928585,-0.310024,170.000137,170.0,228.439362,84.526253,1008.14093,296.588104,15.201686,0.058034,-2.499737,990.948181,0.00395,0.138273,0.050316,0.0,1.0,2662.749756
78.323708,173.363724,174.557175,6.93996,-0.330612,6.93996,-0.330612,170.000137,170.0,231.80452,84.705528,1010.861755,296.597961,15.222142,0.056911,-2.499762,994.615845,0.004429,0.138572,0.050552,0.0,1.0,2662.982178
78.323708,178.465088,179.658539,6.956223,-0.343792,6.956223,-0.343792,180.000137,180.0,236.869385,84.969147,1014.953552,296.626373,15.239498,0.056746,-2.499795,999.917969,0.004723,0.138799,0.05006,0.0,1.0,2663.323975
78.323708,181.878586,183.072037,6.967821,-0.33915,6.967821,-0.33915,180.000137,180.0,240.257263,85.141388,1017.673584,296.6474,15.242969,0.057596,-2.499815,1003.330139,0.004911,0.139124,0.048639,0.0,1.0,2663.546875
78.323708,187.017197,188.210632,6.982533,-0.316233,6.982533,-0.316233,190.000137,190.0,245.356003,85.394577,1021.667908,296.667572,15.236999,0.05951,-2.499841,1008.284424,0.004845,0.139356,0.047588,0.0,1.0,2663.873047
78.323708,190.451645,191.645096,6.992017,-0.298217,6.992017,-0.298217,190.000137,190.0,248.765961,85.559967,1024.202148,296.669281,15.225861,0.060459,-2.499856,1011.3078,0.004518,0.139651,0.046579,0.0,1.0,2664.085693
78.323708,195.625366,196.818802,7.003404,-0.282395,7.003404,-0.282395,200.000137,200.0,253.896286,85.80304,1027.76355,296.654999,15.198687,0.060682,-2.499876,1016.009399,0.00426,0.13984,0.046494,0.0,1.0,2664.398193
78.323708,199.086441,200.279877,7.011005,-0.283669,7.011005,-0.283669,200.000137,200.0,257.325989,85.96183,1029.963257,296.639557,15.173815,0.059818,-2.499888,1019.08429,0.004034,0.140068,0.047208,0.0,1.0,2664.603271
78.323708,204.293839,205.487274,7.021359,-0.304022,7.021359,-0.304022,200.000137,200.0,262.483948,86.195236,1033.085938,296.62146,15.127193,0.057551,-2.499904,1023.513733,0.004052,0.14022,0.04798,0.0,1.0,2664.907227
78.323708,207.775513,208.968948,7.029211,-0.324042,7.029211,-0.324042,210.000137,210.0,265.93103,86.347725,1035.097656,296.618469,15.090731,0.056026,-2.499913,1026.348267,0.004343,0.140427,0.048885,0.0,1.0,2665.107666
78.323708,213.012466,214.205902,7.040903,-0.349173,7.040903,-0.349173,210.000137,210.0,271.114258,86.571869,1038.10437,296.631317,15.029847,0.054587,-2.499925,1030.430664,0.004629,0.140584,0.049034,0.0,1.0,2665.404297
78.323708,216.513077,217.706512,7.049726,-0.356847,7.049726,-0.356847,220.000137,220.0,274.578094,86.718292,1040.12561,296.648315,14.98632,0.054588,-2.499932,1033.047241,0.004988,0.140818,0.048392,0.0,1.0,2665.598633
78.323708,221.777527,222.970978,7.061656,-0.349065,7.061656,-0.349065,220.000137,220.0,279.78656,86.933456,1043.161621,296.674469,14.918443,0.055809,-2.499942,1036.832153,0.005098,0.140995,0.047542,0.0,1.0,2665.884033
78.323708,225.296021,226.489456,7.069627,-0.334866,7.069627,-0.334866,220.000137,220.0,283.267212,87.073959,1045.140503,296.685944,14.872232,0.056952,-2.499947,1039.272949,0.004987,0.141233,0.046234,0.0,1.0,2666.069824
78.323708,230.5867,231.780136,7.079036,-0.311757,7.079036,-0.311757,230.000137,230.0,288.500275,87.280373,1047.961914,296.686768,14.802282,0.058278,-2.499954,1042.824219,0.004784,0.141393,0.04566,0.0,1.0,2666.342773
78.323708,234.122223,235.315659,7.08492,-0.302066,7.08492,-0.302066,230.000137,230.0,291.996521,87.415146,1049.69751,296.677338,14.75549,0.058362,-2.499959,1045.122192,0.004454,0.141581,0.045619,0.0,1.0,2666.521484
78.323708,239.437592,240.631042,7.092181,-0.304979,7.092181,-0.304979,240.000137,240.0,297.251312,87.613152,1052.102295,296.657135,14.685509,0.057227,-2.499965,1048.462524,0.004315,0.141698,0.046091,0.0,1.0,2666.785889
78.323708,242.988876,244.182312,7.097394,-0.317294,7.097394,-0.317294,240.000137,240.0,300.760895,87.742462,1053.59668,296.646027,14.639423,0.055906,-2.499968,1050.614868,0.004357,0.141844,0.047101,0.0,1.0,2666.960693
78.323708,248.326721,249.520172,7.105188,-0.342845,7.105188,-0.342845,250.000137,250.0,306.034515,87.932472,1055.774292,296.642822,14.572277,0.05391,-2.499972,1053.72583,0.004533,0.141948,0.047656,0.0,1.0,2667.220215
78.323708,251.892242,253.085693,7.111351,-0.357795,7.111351,-0.357795,250.000137,250.0,309.556274,88.056557,1057.227051,296.650848,14.529672,0.053163,-2.499975,1055.720947,0.004898,0.142104,0.047817,0.0,1.0,2667.391602
78.323708,257.250549,258.44397,7.120354,-0.365753,7.120354,-0.365753,260.000153,260.0,314.848083,88.238876,1059.442505,296.672638,14.470458,0.05325,-2.499979,1058.60144,0.005111,0.142227,0.047415,0.0,1.0,2667.644531
78.323708,260.829224,262.022644,7.126764,-0.360591,7.126764,-0.360591,260.000153,260.0,318.382141,88.357903,1060.929932,296.68811,14.434771,0.054032,-2.499981,1060.453613,0.005225,0.142407,0.046326,0.0,1.0,2667.810059
78.323708,266.206726,267.400177,7.134645,-0.341379,7.134645,-0.341379,270.000153,270.0,323.692474,88.53273,1063.11145,296.701538,14.387549,0.055619,-2.499983,1063.142578,0.005151,0.142535,0.045552,0.0,1.0,2668.053223
78.323708,269.797943,270.991394,7.139508,-0.32725,7.139508,-0.32725,270.000153,270.0,327.238556,88.646835,1064.47937,296.701111,14.360317,0.056358,-2.499985,1064.881348,0.004877,0.142693,0.044881,0.0,1.0,2668.212402
78.323708,275.193756,276.387207,7.144986,-0.315956,7.144986,-0.315956,270.000153,270.0,332.565887,88.814423,1066.365356,296.687958,14.325584,0.056467,-2.499987,1067.412231,0.004675,0.14279,0.044902,0.0,1.0,2668.44751
78.323708,278.796722,279.990173,7.148526,-0.317933,7.148526,-0.317933,280.000153,280.0,336.122437,88.92382,1067.50354,296.675323,14.306334,0.055756,-2.499988,1069.046265,0.004514,0.1429,0.04556,0.0,1.0,2668.602539
78.323708,284.20932,285.402771,7.15347,-0.334718,7.15347,-0.334718,280.000153,280.0,341.464111,89.084518,1069.100464,296.66153,14.283239,0.053996,-2.49999,1071.411255,0.004542,0.142971,0.046191,0.0,1.0,2668.83374
78.323708,287.822876,289.016327,7.157431,-0.350168,7.157431,-0.350168,290.000153,290.0,345.029572,89.189438,1070.132935,296.659943,14.271852,0.052881,-2.499991,1072.92749,0.004782,0.143069,0.046881,0.0,1.0,2668.987061
92.689125,293.250488,294.443939,7.165225,-0.397269,7.165225,-0.397269,290.000153,290.0,350.384277,89.343567,1071.720093,296.730804,14.261177,0.040667,-2.457013,1075.110718,0.001667,0.143149,0.1,0.0,1.0,2669.214111
92.690529,296.873596,298.067047,7.179054,-0.42201,7.179054,-0.42201,300.000153,300.0,353.958801,89.444107,1073.017944,296.92746,14.259547,0.040079,-2.3418,1076.509766,0.001892,0.143304,0.1,0.0,1.0,2669.358398
92.66877,302.315552,303.508972,7.211445,-0.284783,7.211445,-0.284783,300.000153,300.0,359.331451,89.591324,1076.228516,297.351654,14.270237,0.057822,-2.076794,1078.556885,0.00201,0.143581,0.1,0.0,1.0,2669.545898
92.63932,305.949127,307.142578,7.233492,-0.055232,7.233492,-0.055232,310.000153,310.0,362.923889,89.686852,1079.223145,297.640625,14.287517,0.078208,-1.872089,1079.937256,0.001356,0.144229,0.1,0.0,1.0,2669.642334
92.58297,311.410156,312.603607,7.248133,0.441484,7.248133,0.441484,310.000153,310.0,368.332062,89.825836,1083.781738,297.977417,14.325598,0.112464,-1.573557,1082.140137,2.63E-4,0.14467,0.1,0.0,1.0,2669.739746
92.544914,315.059021,316.252472,7.24875,0.820508,7.24875,0.820508,310.000153,310.0,371.948914,89.915535,1086.127075,298.107452,14.354078,0.132349,-1.398875,1083.734619,-0.002102,0.144963,0.1,0.0,1.0,2669.779541
92.496284,320.544983,321.738403,7.240544,1.345429,7.240544,1.345429,320.000153,320.0,377.38559,90.045715,1088.15686,298.167267,14.389234,0.151644,-1.184072,1086.289917,-0.003907,0.144975,0.1,0.0,1.0,2669.820313
92.47142,324.210022,325.403473,7.233334,1.627753,7.233334,1.627753,320.000153,320.0,381.013489,90.129723,1088.453491,298.147003,14.400148,0.156145,-1.06804,1088.043335,-0.006407,0.144811,0.1,0.0,1.0,2669.844727
92.444519,329.716858,330.910309,7.224678,1.904832,7.224678,1.904832,330.000153,330.0,386.454437,90.25193,1087.755737,298.097412,14.387122,0.152258,-0.920104,1090.604248,-0.007751,0.144667,0.1,0.0,1.0,2669.890137
92.431793,333.392426,334.585876,7.218996,2.004092,7.218996,2.004092,330.000153,330.0,390.078705,90.33107,1086.800049,298.090759,14.355108,0.145234,-0.830569,1092.18103,-0.009071,0.144494,0.1,0.0,1.0,2669.929199
92.416763,338.909241,340.102692,7.211697,2.063769,7.211697,2.063769,340.000153,340.0,395.508301,90.446587,1085.069458,298.164154,14.270416,0.133496,-0.700719,1094.236938,-0.009543,0.14438,0.1,0.0,1.0,2670.001465
92.407097,342.58783,343.781281,7.207158,2.080433,7.207158,2.080433,340.000153,340.0,399.12326,90.521591,1083.963745,298.276184,14.190951,0.127595,-0.614949,1095.36145,-0.009827,0.144234,0.1,0.0,1.0,2670.056152
92.389542,348.104736,349.298187,7.20289,2.122952,7.20289,2.122952,350.000153,350.0,404.53952,90.631165,1082.684937,298.52301,14.042305,0.124258,-0.48888,1096.660767,-0.009907,0.144143,0.1,0.0,1.0,2670.14209
92.374619,351.781311,352.974731,7.200892,2.183234,7.200892,2.183234,350.000153,350.0,408.147522,90.702255,1082.17395,298.719849,13.927072,0.125911,-0.409173,1097.285156,-0.010109,0.144058,0.1,0.0,1.0,2670.197754
92.34758,357.29364,358.487061,7.198659,2.32983,7.198659,2.32983,360.000153,360.0,413.557312,90.805916,1081.817749,299.024139,13.735459,0.132655,-0.301292,1097.920044,-0.010396,0.144018,0.1,0.0,1.0,2670.273926
92.327667,360.966858,362.160309,7.196573,2.458413,7.196573,2.458413,360.000153,360.0,417.163208,90.873016,1081.718994,299.21402,13.5976,0.138422,-0.239385,1098.185181,-0.011094,0.143973,0.1,0.0,1.0,2670.318848
92.297798,366.474487,367.667938,7.192261,2.667586,7.192261,2.667586,370.000153,370.0,422.571259,90.970657,1081.477661,299.461945,13.378234,0.146325,-0.162924,1098.411987,-0.011707,0.143931,0.1,0.0,1.0,2670.37915
92.279343,370.144806,371.338257,7.188371,2.802798,7.188371,2.802798,370.000153,370.0,426.175629,91.033783,1081.118042,299.602203,13.224524,0.149893,-0.121999,1098.475708,-0.012703,0.143845,0.1,0.0,1.0,2670.416748
92.255188,375.647919,376.84137,7.182183,2.971352,7.182183,2.971352,380.000153,380.0,431.57901,91.125626,1080.189941,299.78772,12.984047,0.151901,-0.072345,1098.458496,-0.013347,0.143767,0.1,0.0,1.0,2670.473877
92.241585,379.314789,380.508209,7.177382,3.056717,7.177382,3.056717,380.000153,380.0,435.178223,91.185059,1079.322998,299.906281,12.81817,0.151183,-0.044459,1098.370239,-0.014149,0.143644,0.1,0.0,1.0,2670.514648
92.224251,384.811432,386.004852,7.17043,3.142338,7.17043,3.142338,380.000153,380.0,440.570892,91.27166,1077.767578,300.095947,12.56381,0.148202,-0.006508,1098.108521,-0.014556,0.143548,0.1,0.0,1.0,2670.582031
92.214058,388.472931,389.666382,7.165324,3.179629,7.165324,3.179629,390.000153,390.0,444.16156,91.327782,1076.6521,300.238159,12.392877,0.145827,0.017902,1097.838623,-0.014964,0.143409,0.1,0.0,1.0,2670.630859
92.199478,393.959991,395.153442,7.158478,3.220746,7.158478,3.220746,390.000153,390.0,449.540527,91.409668,1075.014648,300.480133,12.1394,0.143028,0.054384,1097.283081,-0.015141,0.143306,0.1,0.0,1.0,2670.709473
92.18959,397.614258,398.807709,7.153821,3.248302,7.153821,3.248302,400.000153,400.0,453.122162,91.462776,1074.018066,300.658539,11.975585,0.142162,0.078488,1096.814819,-0.015337,0.14317,0.1,0.0,1.0,2670.76416
92.173889,403.08963,404.283081,7.14802,3.299964,7.14802,3.299964,400.000153,400.0,458.4888,91.540253,1072.713745,300.942505,11.743131,0.142556,0.113108,1095.983154,-0.015468,0.143076,0.1,0.0,1.0,2670.847412
92.162819,406.73587,407.929321,7.144156,3.344115,7.144156,3.344115,410.000153,410.0,462.063202,91.590469,1071.96936,301.136078,11.599957,0.14372,0.134282,1095.358398,-0.015714,0.14296,0.1,0.0,1.0,2670.902832
92.145767,412.19928,413.392731,7.139169,3.421233,7.139169,3.421233,410.000153,410.0,467.42041,91.663689,1070.966431,301.423096,11.40718,0.146114,0.161961,1094.346802,-0.015924,0.142883,0.1,0.0,1.0,2670.985352
92.134521,415.837738,417.031189,7.135658,3.476623,7.135658,3.476623,420.000153,420.0,470.989227,91.711113,1070.328979,301.608704,11.295328,0.147669,0.177394,1093.639771,-0.016292,0.142783,0.1,0.0,1.0,2671.039795
92.1185,421.289948,422.483368,7.130816,3.555688,7.130816,3.555688,420.000153,420.0,476.338318,91.78022,1069.33728,301.877502,11.155232,0.149348,0.196235,1092.55249,-0.016555,0.142713,0.1,0.0,1.0,2671.12207
92.108658,424.921143,426.114594,7.127274,3.602661,7.127274,3.602661,420.000153,420.0,479.901581,91.824989,1068.628906,302.052002,11.081529,0.149845,0.206458,1091.817505,-0.016932,0.142616,0.1,0.0,1.0,2671.177979
92.095261,430.36261,431.556061,7.122295,3.659097,7.122295,3.659097,430.000153,430.0,485.241791,91.890259,1067.484863,302.312012,11.00229,0.149709,0.219449,1090.7052,-0.017156,0.142545,0.1,0.0,1.0,2671.263916
92.087166,433.986664,435.180115,7.118654,3.688223,7.118654,3.688223,430.000153,430.0,488.798706,91.932564,1066.684082,302.487396,10.971277,0.149199,0.227249,1089.956909,-0.017424,0.142446,0.1,0.0,1.0,2671.323486
92.075943,439.417297,440.610748,7.113645,3.721035,7.113645,3.721035,440.000153,440.0,494.128998,91.994301,1065.467041,302.757813,10.958976,0.148227,0.2385,1088.821655,-0.017563,0.142373,0.1,0.0,1.0,2671.415527
92.06884,443.033997,444.227448,7.110094,3.738951,7.110094,3.738951,440.000153,440.0,497.679169,92.03434,1064.674683,302.944,10.974385,0.147672,0.245959,1088.05542,-0.017719,0.142273,0.1,0.0,1.0,2671.479004
92.058403,448.453461,449.646912,7.105421,3.763979,7.105421,3.763979,450.000153,450.0,502.999603,92.092796,1063.549194,303.231506,11.034048,0.147246,0.257068,1086.893066,-0.017805,0.142202,0.1,0.0,1.0,2671.576416
92.051712,452.062744,453.256195,7.102217,3.781821,7.102217,3.781821,450.000153,450.0,506.543549,92.13073,1062.855225,303.427216,11.098644,0.147284,0.264242,1086.112183,-0.017924,0.142108,0.1,0.0,1.0,2671.642334
92.050606,457.471222,458.664673,7.098063,3.811761,7.098063,3.811761,460.000153,460.0,511.855499,92.186096,1061.982056,303.72345,11.233075,0.147839,0.274197,1084.940308,-0.018009,0.142044,0.1,0.0,1.0,2671.749268
92.049911,461.073395,462.266815,7.095359,3.834325,7.095359,3.834325,460.000153,460.0,515.394592,92.222008,1061.504761,303.920563,11.347581,0.148405,0.280034,1084.166504,-0.018151,0.141961,0.1,0.0,1.0,2671.826416
92.048874,466.471741,467.665192,7.092361,3.869411,7.092361,3.869411,470.000153,470.0,520.7005,92.274406,1060.899536,304.213501,11.555852,0.149253,0.287338,1083.032593,-0.018259,0.141907,0.1,0.0,1.0,2671.948486
92.048309,470.067627,471.261078,7.090552,3.892303,7.090552,3.892303,470.000153,470.0,524.236267,92.308388,1060.55835,304.406525,11.718266,0.149672,0.291265,1082.302612,-0.018426,0.141847,0.1,0.0,1.0,2672.032959
92.04776,475.457306,476.650757,7.088375,3.922556,7.088375,3.922556,480.000153,480.0,529.537842,92.357971,1060.097046,304.693695,11.995492,0.149964,0.296008,1081.258057,-0.018535,0.141811,0.1,0.0,1.0,2672.163086
92.04763,479.047882,480.241333,7.086922,3.939552,7.086922,3.939552,480.000153,480.0,533.070984,92.390121,1059.811768,304.884613,12.20153,0.149934,0.298655,1080.599365,-0.018679,0.141768,0.1,0.0,1.0,2672.251953
92.047714,484.430206,485.623657,7.085082,3.959548,7.085082,3.959548,480.000153,480.0,538.368958,92.43705,1059.405884,305.172363,12.540198,0.149657,0.302259,1079.671143,-0.01876,0.141738,0.1,0.0,1.0,2672.387939
92.047897,488.016235,489.209656,7.08386,3.970154,7.08386,3.970154,490.000153,490.0,541.899902,92.467484,1059.155884,305.365997,12.784354,0.149406,0.304609,1079.092041,-0.018855,0.141702,0.1,0.0,1.0,2672.47998
92.048187,493.093628,494.287079,7.082436,3.982618,7.082436,3.982618,490.000153,490.0,546.900696,92.509491,1058.837402,305.643494,13.153242,0.149108,0.308005,1078.325073,-0.018905,0.141677,0.1,0.0,1.0,2672.611816
92.048233,496.973267,498.166718,7.081388,3.991488,7.081388,3.991488,500.000153,500.0,550.723877,92.540749,1058.629639,305.858093,13.451944,0.148958,0.310656,1077.731445,-0.018965,0.141649,0.1,0.0,1.0,2672.713867
92.04834,502.344025,503.537445,7.080229,4.004045,7.080229,4.004045,500.000153,500.0,556.016357,92.582825,1058.390381,306.157837,13.886609,0.148956,0.314279,1077.059326,-0.019007,0.141628,0.1,0.0,1.0,2672.855713
92.051476,505.770721,506.964172,7.079554,4.012731,7.079554,4.012731,510.000153,510.0,559.397156,92.608994,1058.267578,306.35022,14.175618,0.149036,0.316472,1076.484253,-0.019067,0.141605,0.1,0.0,1.0,2672.946777
92.047729,510.987976,512.181396,7.078763,4.026679,7.078763,4.026679,510.000153,510.0,564.541077,92.647774,1058.115112,306.64325,14.629745,0.149274,0.319481,1075.970581,-0.019108,0.141591,0.1,0.0,1.0,2673.085693
92.047478,514.861511,516.054932,7.078208,4.037428,7.078208,4.037428,510.000153,510.0,568.361877,92.675781,1058.021118,306.860626,14.976435,0.149481,0.321405,1075.589966,-0.019175,0.141575,0.1,0.0,1.0,2673.188965
92.047272,520.224365,521.417786,7.07759,4.051702,7.07759,4.051702,520.000122,520.0,573.651672,92.71347,1057.902344,307.160889,15.466556,0.149689,0.323618,1075.178345,-0.019226,0.141564,0.1,0.0,1.0,2673.332275
92.040291,523.720276,524.913757,7.077259,4.060275,7.077259,4.060275,520.000122,520.0,577.177856,92.737907,1057.819336,307.360718,15.798077,0.149751,0.324845,1070.753418,-0.019294,0.141552,0.1,0.0,1.0,2673.427002
92.039986,529.098816,530.292236,7.0767,4.071512,7.0767,4.071512,530.000122,530.0,582.466736,92.77356,1057.716187,307.660431,16.299696,0.149782,0.326432,1072.454224,-0.019335,0.141545,0.1,0.0,1.0,2673.571045
92.041245,532.681213,533.874634,7.076298,4.078039,7.076298,4.078039,530.000122,530.0,585.99231,92.797432,1057.640015,307.860535,16.635427,0.14975,0.32739,1073.178833,-0.019388,0.141534,0.1,0.0,1.0,2673.66748
92.042755,538.049744,539.243164,7.075828,4.086273,7.075828,4.086273,540.000122,540.0,591.280212,92.833237,1057.526611,308.16156,17.138456,0.149666,0.328767,1073.791992,-0.019419,0.141526,0.1,0.0,1.0,2673.812256
92.043549,541.625916,542.819397,7.07552,4.091097,7.07552,4.091097,540.000122,540.0,594.805176,92.856476,1057.456543,308.363007,17.472057,0.149609,0.329679,1073.97937,-0.019458,0.141517,0.1,0.0,1.0,2673.908936
92.044365,546.985779,548.179199,7.075119,4.097678,7.075119,4.097678,550.000122,550.0,600.092224,92.890404,1057.360596,308.66629,17.967665,0.149557,0.331048,1074.004395,-0.019481,0.14151,0.1,0.0,1.0,2674.053955
92.044838,550.5578,551.751221,7.074851,4.101977,7.074851,4.101977,550.000122,550.0,603.616638,92.91243,1057.303467,308.86911,18.293736,0.149555,0.331947,1073.967407,-0.019513,0.141502,0.1,0.0,1.0,2674.150879
92.045349,555.913208,557.106689,7.074529,4.108418,7.074529,4.108418,560.000122,560.0,608.902954,92.94458,1057.227051,309.17395,18.774578,0.149597,0.333231,1073.816528,-0.019533,0.141497,0.1,0.0,1.0,2674.296387
92.045464,559.480957,560.674377,7.074325,4.112817,7.074325,4.112817,560.000122,560.0,612.427002,92.965446,1057.182129,309.377411,19.08873,0.149644,0.33402,1073.623413,-0.019564,0.141491,0.1,0.0,1.0,2674.393311
92.045738,564.832397,566.025818,7.07408,4.119326,7.07408,4.119326,560.000122,560.0,617.712708,92.995911,1057.120605,309.682648,19.54899,0.149725,0.335072,1073.414063,-0.019585,0.141486,0.1,0.0,1.0,2674.538818
92.04586,568.398804,569.592285,7.073919,4.123566,7.073919,4.123566,570.000122,570.0,621.236389,93.015678,1057.081787,309.886108,19.84786,0.149772,0.335682,1073.260498,-0.019616,0.141482,0.1,0.0,1.0,2674.635986
92.045944,573.745728,574.939148,7.073715,4.129429,7.073715,4.129429,570.000122,570.0,626.521667,93.04454,1057.02356,310.191254,20.283293,0.149817,0.336474,1072.962769,-0.019636,0.141478,0.1,0.0,1.0,2674.781494
92.04599,577.310303,578.503723,7.073574,4.133002,7.073574,4.133002,580.000122,580.0,630.044983,93.063263,1056.984619,310.394745,20.564596,0.149828,0.336939,1072.8302,-0.019664,0.141474,0.1,0.0,1.0,2674.878662
