airspeed_indicator_indicated_speed_kt,altimeter_indicated_altitude_ft,altimeter_pressure_alt_ft,attitude_indicator_indicated_pitch_deg,attitude_indicator_indicated_roll_deg,attitude_indicator_internal_pitch_deg,attitude_indicator_internal_roll_deg,encoder_indicated_altitude_ft,encoder_pressure_alt_ft,gps_indicated_altitude_ft,gps_indicated_ground_speed_kt,gps_indicated_vertical_speed,indicated_heading_deg,magnetic_compass_indicated_heading_deg,slip_skid_ball_indicated_slip_skid,turn_indicator_indicated_turn_rate,vertical_speed_indicator_indicated_speed_fpm,flight_aileron,flight_elevator,flight_rudder,flight_flaps,engine_throttle,engine_rpm
0.348041,-26.747307,-25.553862,3.068917,1.354032,2.716352,0.178815,-29.999857,-30.0,18.855347,4.0E-5,-2.01E-4,297.866638,14.180672,-0.046367,-0.044085,-13.733147,-0.0,0.0,0.0,0.0,0.0,607.018005
0.314803,-26.748243,-25.5548,3.074044,1.371211,2.716319,0.178791,-29.999857,-30.0,18.855345,3.9E-5,-1.67E-4,297.865784,13.780489,-0.046359,-0.039882,-17.730234,-0.0,0.0,0.0,0.0,0.0,607.015015
0.269684,-26.749367,-25.555922,2.878822,0.724088,2.715156,0.178534,-29.999857,-30.0,18.855343,3.8E-5,-0.001876,297.864471,13.179012,-0.046466,-0.034189,-11.146605,-0.019589,0.054326,4.3E-5,0.0,1.0,684.357727
0.24594,-26.749908,-25.556465,2.766243,0.377699,2.70611,0.177254,-29.999857,-30.0,18.855312,7.5E-5,-0.027567,297.863556,12.818398,-0.046613,-0.031119,-14.040047,-0.010344,0.054303,1.08E-4,0.0,1.0,794.075623
0.22788,-26.750616,-25.557171,2.628212,0.171692,2.628212,0.171692,-29.999857,-30.0,18.855011,6.67E-4,-0.056876,297.861664,12.280378,-0.044158,-0.027018,-17.085562,-0.005396,0.054122,1.54E-4,0.0,1.0,1018.836121
0.23605,-26.75102,-25.557575,2.585183,0.165356,2.585183,0.165356,-29.999857,-30.0,18.854933,0.002175,0.010049,297.860321,11.942587,-0.043278,-0.024674,-18.607626,-0.002453,0.052564,2.49E-4,0.0,1.0,1183.792236
0.356174,-26.751465,-25.558022,2.567986,0.152284,2.567986,0.152284,-29.999857,-30.0,18.85531,0.008464,0.138104,297.858215,11.471745,-0.038991,-0.021676,-8.121078,-0.002362,0.051704,3.16E-4,0.0,1.0,1426.081909
0.538075,-26.751604,-25.558159,2.573732,0.141913,2.573732,0.141913,-29.999857,-30.0,18.855944,0.016921,0.236248,297.856659,11.184095,-0.037874,-0.019972,-9.19157,-0.002175,0.05136,4.21E-4,0.0,1.0,1573.416382
0.945723,-26.751486,-25.558043,2.592286,0.125337,2.592286,0.125337,-29.999857,-30.0,18.857561,0.038767,0.407547,297.852936,10.795441,-0.0287,-0.017991,-8.293168,-0.002027,0.051475,4.99E-4,0.0,1.0,1763.411987
1.293433,-26.751139,-25.557695,2.606583,0.114402,2.606583,0.114402,-29.999857,-30.0,18.859154,0.060945,0.539019,297.846863,10.566518,-0.020979,-0.017399,-4.713028,-0.001791,0.051846,6.85E-4,0.0,1.0,1867.775513
1.908775,-26.75012,-25.556677,2.626582,0.099472,2.626582,0.099472,-29.999857,-30.0,18.862431,0.10786,0.767663,297.83316,10.270473,-0.017784,-0.017322,10.701344,-0.001634,0.052132,9.89E-4,0.0,1.0,1992.568848
2.370644,-26.749048,-25.555605,2.638385,0.090774,2.638385,0.090774,-29.999857,-30.0,18.865278,0.14928,0.934239,297.819153,10.10543,-0.020233,-0.018012,16.073164,-0.001421,0.052532,0.001674,0.0,1.0,2057.018311
3.12394,-26.74675,-25.553305,2.652701,0.079911,2.652701,0.079911,-29.999857,-30.0,18.870649,0.227971,1.207902,297.792816,9.906886,-0.022943,-0.019697,14.966377,-0.001297,0.052768,0.002374,0.0,1.0,2130.564209
3.657799,-26.744698,-25.551252,2.660531,0.074078,2.660531,0.074078,-29.999857,-30.0,18.875019,0.29202,1.403888,297.77182,9.807091,-0.024223,-0.021185,12.484091,-0.001142,0.053054,0.003691,0.0,1.0,2167.04541
4.493722,-26.74074,-25.547297,2.669625,0.06724,2.669625,0.06724,-29.999857,-30.0,18.882824,0.406067,1.711515,297.737823,9.705366,-0.025672,-0.023486,18.609341,-0.001058,0.053211,0.004741,0.0,1.0,2207.291992
5.068615,-26.737465,-25.54402,2.674556,0.063735,2.674556,0.063735,-29.999857,-30.0,18.888899,0.494261,1.924818,297.713898,9.66865,-0.026383,-0.025004,10.008464,-9.61E-4,0.053392,0.006441,0.0,1.0,2226.584229
5.949539,-26.731514,-25.538071,2.680365,0.059725,2.680365,0.059725,-29.999857,-30.0,18.899359,0.644884,2.25241,297.679626,9.658163,-0.027187,-0.026696,14.569408,-9.11E-4,0.053491,0.007637,0.0,1.0,2247.108887
6.545688,-26.726814,-25.533369,2.683641,0.057683,2.683641,0.057683,-29.999857,-30.0,18.907251,0.757472,2.474188,297.658417,9.67942,-0.027511,-0.027411,12.600855,-8.53E-4,0.053607,0.009351,0.0,1.0,2256.495605
7.448606,-26.718601,-25.525156,2.687727,0.055267,2.687727,0.055267,-29.999857,-30.0,18.92049,0.944408,2.812196,297.632294,9.750761,-0.027699,-0.027425,14.974185,-8.24E-4,0.053673,0.010411,0.0,1.0,2265.854492
8.054374,-26.712324,-25.518879,2.690198,0.05397,2.690198,0.05397,-29.999857,-30.0,18.93026,1.080894,3.039467,297.618927,9.822739,-0.027573,-0.02679,19.575623,-7.9E-4,0.053755,0.011717,0.0,1.0,2269.704346
8.965893,-26.701654,-25.508211,2.6935,0.05231,2.6935,0.05231,-29.999857,-30.0,18.946335,1.303049,3.381496,297.606567,9.963871,-0.027021,-0.024724,8.204928,-7.71E-4,0.053804,0.012386,0.0,1.0,2272.871582
9.574485,-26.693686,-25.500242,2.695623,0.051369,2.695623,0.051369,-29.999857,-30.0,18.958002,1.462531,3.609336,297.603119,10.077946,-0.026407,-0.022755,9.176428,-7.47E-4,0.05387,0.013004,0.0,1.0,2273.668701
10.487112,-26.680429,-25.486986,2.699456,0.050124,2.699456,0.050124,-29.999857,-30.0,18.976973,1.718381,3.994909,297.604767,10.27528,-0.025205,-0.019092,11.732487,-7.34E-4,0.053912,0.013176,0.0,1.0,2273.434326
11.094,-26.670662,-25.477217,2.707049,0.045278,2.707049,0.045278,-29.999857,-30.0,18.990993,1.899757,4.339483,297.609375,10.422079,-0.025046,-0.016502,19.556589,-7.16E-4,0.053989,0.013094,0.0,1.0,2272.55957
12.001991,-26.654503,-25.461058,2.71685,0.034858,2.71685,0.034858,-29.999857,-30.0,19.013756,2.187551,4.805715,297.619965,10.661418,-0.022677,-0.012567,9.147253,-6.47E-4,0.054141,0.012863,0.0,1.0,2270.468994
12.605262,-26.642681,-25.449236,2.718929,0.033847,2.718929,0.033847,-29.999857,-30.0,19.030174,2.389615,5.038077,297.628235,10.831608,-0.020954,-0.009937,15.478081,-4.98E-4,0.054337,0.012334,0.0,1.0,2268.685791
13.507404,-26.623367,-25.429924,2.72064,0.033825,2.72064,0.033825,-29.999857,-30.0,19.056273,2.707533,5.392365,297.639862,11.098926,-0.019385,-0.006574,18.674309,-4.84E-4,0.054379,0.01192,0.0,1.0,2265.591309
14.106696,-26.609459,-25.416014,2.722191,0.034,2.722191,0.034,-29.999857,-30.0,19.074659,2.92908,5.629417,297.646271,11.282859,-0.018745,-0.004814,20.588625,-4.83E-4,0.054413,0.011339,0.0,1.0,2263.399658
15.002201,-26.587065,-25.39362,2.725008,0.034755,2.725008,0.034755,-29.999857,-30.0,19.10372,3.275329,5.983839,297.65213,11.563445,-0.01831,-0.003066,14.181003,-4.86E-4,0.054444,0.011018,0.0,1.0,2261.811523
15.597581,-26.571127,-25.377682,2.727175,0.035477,2.727175,0.035477,-29.999857,-30.0,19.124079,3.515187,6.222432,297.653351,11.751398,-0.018402,-0.002459,14.926232,-4.96E-4,0.0545,0.010725,0.0,1.0,2261.73999
16.489124,-26.545729,-25.352283,2.730715,0.036683,2.730715,0.036683,-29.999857,-30.0,19.156099,3.888101,6.576418,297.651031,12.030955,-0.019034,-0.002299,17.702421,-5.07E-4,0.054543,0.010664,0.0,1.0,2262.531494
17.082788,-26.527798,-25.334354,2.733323,0.037475,2.733323,0.037475,-29.999857,-30.0,19.178432,4.145239,6.813537,297.647156,12.213673,-0.019688,-0.002567,12.738235,-5.24E-4,0.054614,0.01078,0.0,1.0,2263.443848
17.97254,-26.499424,-25.305981,2.737439,0.038539,2.737439,0.038539,-29.999857,-30.0,19.213413,4.54338,7.169131,297.639221,12.478922,-0.020834,-0.003238,18.654888,-5.35E-4,0.054666,0.010974,0.0,1.0,2265.155518
18.565306,-26.479527,-25.286081,2.740407,0.039139,2.740407,0.039139,-29.999857,-30.0,19.237722,4.816893,7.407489,297.633301,12.648069,-0.021573,-0.003723,11.567925,-5.51E-4,0.054749,0.011371,0.0,1.0,2266.44043
19.453936,-26.448208,-25.254765,2.744996,0.039766,2.744996,0.039766,-29.999857,-30.0,19.275669,5.238956,7.760069,297.625427,12.887482,-0.022454,-0.004199,12.538416,-5.59E-4,0.054808,0.011667,0.0,1.0,2268.491211
20.046005,-26.426361,-25.232916,2.748262,0.040034,2.748262,0.040034,-29.999857,-30.0,19.301954,5.528004,7.999465,297.621521,13.03613,-0.022788,-0.004268,13.334195,-5.68E-4,0.0549,0.012061,0.0,1.0,2269.908203
20.93363,-26.392113,-25.198669,2.753239,0.040151,2.753239,0.040151,-29.999857,-30.0,19.342863,5.972767,8.355529,297.618774,13.240598,-0.022808,-0.003861,14.512851,-5.72E-4,0.054965,0.012256,0.0,1.0,2272.074219
21.525013,-26.368307,-25.174864,2.756729,0.040128,2.756729,0.040128,-29.999857,-30.0,19.37112,6.276556,8.589398,297.619202,13.363597,-0.022504,-0.003272,18.509466,-5.74E-4,0.055065,0.012393,0.0,1.0,2273.533203
22.413094,-26.331232,-25.137789,2.738214,0.040098,2.738214,0.040098,-29.999857,-30.0,19.413155,6.742867,7.712874,297.623169,13.526824,-0.021583,-0.001971,21.057796,-5.73E-4,0.055135,0.012372,0.0,1.0,2275.732422
23.0075,-26.306147,-25.112701,2.734986,0.039943,2.734986,0.039943,-29.999857,-30.0,19.439251,7.060684,7.943126,297.627899,13.620874,-0.020789,-8.87E-4,21.132698,-5.73E-4,0.054764,0.012173,0.0,1.0,2277.202881
23.897507,-26.268194,-25.074749,2.742697,0.039847,2.742697,0.039847,-29.999857,-30.0,19.479824,7.547549,8.27246,297.635803,13.739202,-0.019552,6.49E-4,15.51094,-5.71E-4,0.0547,0.011937,0.0,1.0,2279.411621
24.490074,-26.242542,-25.049097,2.747935,0.03994,2.747935,0.03994,-29.999857,-30.0,19.507757,7.878718,8.480772,297.640717,13.802803,-0.018878,0.001491,18.939816,-5.69E-4,0.054854,0.011542,0.0,1.0,2280.884766
25.401287,-26.20212,-25.008677,2.76601,0.03575,2.76601,0.03575,-29.999857,-30.0,19.553768,8.399297,9.367078,297.645782,13.877007,-0.018567,0.002124,18.075558,-5.71E-4,0.054959,0.011296,0.0,1.0,2283.155273
25.990671,-26.174982,-24.981539,2.771109,0.035937,2.771109,0.035937,-19.999857,-20.0,19.585344,8.743296,9.570298,297.647034,13.909955,-0.018255,0.002235,14.003701,-5.11E-4,0.05532,0.011043,0.0,1.0,2284.627441
26.849585,-26.134037,-24.940592,2.775644,0.036963,2.775644,0.036963,-19.999857,-20.0,19.632639,9.253624,9.879668,297.645599,13.937161,-0.018626,0.001883,20.447277,-5.13E-4,0.055422,0.01098,0.0,1.0,2286.773193
27.438026,-26.105055,-24.911612,2.778786,0.037848,2.778786,0.037848,-19.999857,-20.0,19.665903,9.609356,10.040114,297.642578,13.941947,-0.019306,0.001356,14.079839,-5.28E-4,0.055513,0.011052,0.0,1.0,2288.244385
28.323116,-26.060671,-24.867226,2.760122,0.039318,2.760122,0.039318,-19.999857,-20.0,19.712673,10.151561,9.157226,297.636322,13.928862,-0.02059,4.13E-4,14.291044,-5.41E-4,0.055576,0.011203,0.0,1.0,2290.451904
28.938574,-26.0298,-24.836357,2.763834,0.04013,2.763834,0.04013,-19.999857,-20.0,19.744881,10.534031,9.382789,297.631317,13.906132,-0.021541,-2.69E-4,16.329704,-5.62E-4,0.055202,0.011516,0.0,1.0,2291.986328
29.79628,-25.986101,-24.792656,2.772248,0.041068,2.772248,0.041068,-19.999857,-20.0,19.791237,11.077427,9.678224,297.624512,13.856827,-0.02282,-0.001072,16.752562,-5.73E-4,0.055277,0.011766,0.0,1.0,2294.135986
30.384119,-25.955799,-24.762354,2.777478,0.041582,2.777478,0.041582,-19.999857,-20.0,19.823837,11.455251,9.872568,297.620636,13.812119,-0.023458,-0.001434,19.157478,-5.87E-4,0.055445,0.012106,0.0,1.0,2295.611084
31.263201,-25.909519,-24.716074,2.79622,0.034932,2.79622,0.034932,-19.999857,-20.0,19.875885,12.029689,10.926488,297.617004,13.730145,-0.024156,-0.001736,19.473097,-5.94E-4,0.05555,0.0123,0.0,1.0,2297.824707
31.847517,-25.877695,-24.684252,2.802211,0.034532,2.802211,0.034532,-19.999857,-20.0,19.912628,12.41763,11.11353,297.616455,13.666755,-0.02367,-0.001514,19.996782,-4.99E-4,0.055924,0.012482,0.0,1.0,2299.300781
32.722977,-25.828436,-24.634991,2.807475,0.034366,2.807475,0.034366,-19.999857,-20.0,19.968948,13.006784,11.409904,297.618652,13.560615,-0.022577,-7.42E-4,20.73871,-4.93E-4,0.056044,0.012509,0.0,1.0,2301.515381
33.306168,-25.79464,-24.601194,2.800735,0.0346,2.800735,0.0346,-19.999857,-20.0,20.006754,13.404253,10.32902,297.621887,13.483681,-0.020959,2.1E-5,21.182543,-4.91E-4,0.05615,0.012399,0.0,1.0,2302.992188
34.183823,-25.743618,-24.550173,2.791437,0.037777,2.791437,0.037777,-19.999857,-20.0,20.05785,14.007333,10.335283,297.628876,13.361017,-0.019698,0.001359,21.130226,-4.94E-4,0.056015,0.012238,0.0,1.0,2305.210205
34.76767,-25.70969,-24.516245,2.796773,0.037848,2.796773,0.037848,-19.999857,-20.0,20.092646,14.41385,10.531772,297.63382,13.275566,-0.018775,0.002144,21.12604,-5.4E-4,0.055829,0.011888,0.0,1.0,2306.690674
35.640926,-25.658546,-24.465103,2.814575,0.032278,2.814575,0.032278,-19.999857,-20.0,20.147165,15.030104,11.615235,297.639557,13.143969,-0.018161,0.002749,21.347599,-5.41E-4,0.055935,0.011641,0.0,1.0,2308.912598
36.220562,-25.623775,-24.430332,2.82373,0.031083,2.82373,0.031083,-19.999857,-20.0,20.186378,15.445122,11.847162,297.641693,13.09962,-0.017418,0.002921,21.574806,-4.61E-4,0.056291,0.011354,0.0,1.0,2310.394531
37.088734,-25.570278,-24.376833,2.829702,0.031946,2.829702,0.031946,-19.999857,-20.0,20.246305,16.073708,12.11761,297.641663,13.09962,-0.017221,0.002681,21.574806,-4.44E-4,0.056475,0.011247,0.0,1.0,2312.617676
37.666466,-25.533764,-24.340321,2.833569,0.032851,2.833569,0.032851,-19.999857,-20.0,20.287022,16.496689,12.305188,297.639496,13.09962,-0.017656,0.002215,21.574806,-4.56E-4,0.056594,0.011249,0.0,1.0,2314.100098
38.532349,-25.477816,-24.28437,2.827114,0.034573,2.827114,0.034573,-19.999857,-20.0,20.347418,17.136852,11.406355,297.63382,13.09962,-0.018984,0.001234,21.574806,-4.69E-4,0.056671,0.011357,0.0,1.0,2316.324219
39.110065,-25.440271,-24.246828,2.827642,0.035605,2.827642,0.035605,-19.999857,-20.0,20.385778,17.567327,11.602441,297.62915,13.09962,-0.020101,5.23E-4,21.574806,-4.94E-4,0.056542,0.011641,0.0,1.0,2317.807861
39.974171,-25.383801,-24.190357,2.837854,0.037011,2.837854,0.037011,-19.999857,-20.0,20.44455,18.218405,11.882535,297.621918,13.09962,-0.02181,-4.42E-4,21.574806,-5.09E-4,0.056553,0.011874,0.0,1.0,2320.034424
40.548939,-25.345901,-24.152456,2.842078,0.037796,2.842078,0.037796,-19.999857,-20.0,20.484463,18.65592,12.057619,297.617645,13.09962,-0.022817,-9.22E-4,21.574806,-5.29E-4,0.056757,0.012236,0.0,1.0,2321.519531
41.409084,-25.288528,-24.095085,2.847974,0.038615,2.847974,0.038615,-19.999857,-20.0,20.545425,19.317209,12.320062,297.613495,13.09962,-0.023801,-0.001196,21.574806,-5.4E-4,0.056842,0.01245,0.0,1.0,2323.74707
41.981117,-25.249838,-24.056393,2.852453,0.037852,2.852453,0.037852,-19.999857,-20.0,20.586872,19.761307,12.469956,297.612579,13.09962,-0.024295,-0.001107,21.574806,-5.52E-4,0.056959,0.012657,0.0,1.0,2325.232422
42.839306,-25.191494,-23.998051,2.846867,0.036365,2.846867,0.036365,-19.999857,-20.0,20.645897,20.432148,11.792365,297.614502,13.09962,-0.023594,-4.47E-4,21.574806,-5.41E-4,0.057049,0.012703,0.0,1.0,2327.460938
43.410107,-25.152685,-23.959242,2.85116,0.036341,2.85116,0.036341,-19.999857,-20.0,20.685507,20.882414,11.963932,297.617645,13.09962,-0.022741,2.39E-4,21.574806,-5.19E-4,0.056937,0.012607,0.0,1.0,2329.065186
44.263912,-25.094343,-23.900898,2.858872,0.036535,2.858872,0.036535,-19.999857,-20.0,20.745968,21.562193,12.210464,297.623718,13.09962,-0.021081,0.001347,21.574806,-5.19E-4,0.057023,0.01245,0.0,1.0,2332.686279
44.832077,-25.055239,-23.861795,2.86379,0.036793,2.86379,0.036793,-19.999857,-20.0,20.786949,22.018208,12.370642,297.627899,13.09962,-0.019927,0.002018,21.574806,-5.22E-4,0.057177,0.012146,0.0,1.0,2335.692139
45.687202,-24.996738,-23.803295,2.840676,0.033686,2.840676,0.033686,-19.999857,-20.0,20.841099,22.706362,9.767195,297.633148,13.09962,-0.018501,0.002656,21.574806,-5.26E-4,0.057276,0.011937,0.0,1.0,2340.73291
46.258549,-24.95911,-23.765665,2.841965,0.034178,2.841965,0.034178,-19.999857,-20.0,20.873947,23.16785,9.932263,297.63559,13.09962,-0.017698,0.002918,21.574806,-4.81E-4,0.056814,0.011675,0.0,1.0,2344.324463
47.114113,-24.904358,-23.710913,2.85096,0.035356,2.85096,0.035356,-19.999857,-20.0,20.924185,23.864044,10.151328,297.635864,13.09962,-0.017269,0.002728,21.574806,-4.88E-4,0.056839,0.011552,0.0,1.0,2349.919678
47.68391,-24.868608,-23.675165,2.856558,0.036347,2.856558,0.036347,-19.999857,-20.0,20.958254,24.330746,10.283302,297.633636,13.09962,-0.017563,0.002243,21.574806,-5.05E-4,0.057019,0.011539,0.0,1.0,2353.738525
48.537975,-24.815668,-23.622225,2.863617,0.038058,2.863617,0.038058,-19.999857,-20.0,21.010162,25.034552,10.475905,297.627319,13.09962,-0.018819,0.001153,21.574806,-5.19E-4,0.057131,0.01165,0.0,1.0,2359.548828
49.106968,-24.780626,-23.587183,2.86822,0.039263,2.86822,0.039263,-19.999857,-20.0,21.045301,25.506195,10.602721,297.621765,13.09962,-0.020057,3.1E-4,21.574806,-5.44E-4,0.057272,0.011966,0.0,1.0,2363.458496
49.959949,-24.728209,-23.534763,2.874852,0.040941,2.874852,0.040941,-19.999857,-20.0,21.09881,26.217216,10.794654,297.61322,13.09962,-0.022139,-8.21E-4,21.574806,-5.61E-4,0.057364,0.012244,0.0,1.0,2369.358154
50.528294,-24.693184,-23.499741,2.879424,0.04195,2.879424,0.04195,-19.999857,-20.0,21.135015,26.693542,10.923816,297.608215,13.09962,-0.023452,-0.001375,21.574806,-5.85E-4,0.057497,0.012671,0.0,1.0,2373.308105
51.38047,-24.640381,-23.446938,2.885849,0.042234,2.885849,0.042234,-19.999857,-20.0,21.190317,27.4114,11.770194,297.603271,13.09962,-0.025206,-0.001743,21.574806,-5.99E-4,0.057588,0.012921,0.0,1.0,2379.251465
51.947311,-24.604748,-23.411303,2.898453,0.025019,2.898453,0.025019,-19.999857,-20.0,21.229858,27.892155,12.213882,297.601715,13.09962,-0.025452,-0.002062,21.574806,-6.03E-4,0.057717,0.013168,0.0,1.0,2383.223389
52.796772,-24.549938,-23.356495,2.907093,0.024556,2.907093,0.024556,-19.999857,-20.0,21.291435,28.616455,12.406619,297.603088,13.09962,-0.024816,-0.001341,21.574806,-3.57E-4,0.057969,0.013246,0.0,1.0,2389.191162
53.363068,-24.512516,-23.319073,2.911031,0.024727,2.911031,0.024727,-19.999857,-20.0,21.333015,29.101379,12.537254,297.605713,13.09962,-0.023928,-6.48E-4,21.574806,-3.51E-4,0.058142,0.013178,0.0,1.0,2393.176758
54.21228,-24.455196,-23.261751,2.916891,0.025019,2.916891,0.025019,-19.999857,-20.0,21.396215,29.831764,12.738499,297.610962,13.09962,-0.022149,4.56E-4,21.574806,-3.53E-4,0.058221,0.013046,0.0,1.0,2399.165283
54.778202,-24.416237,-23.222792,2.921147,0.025281,2.921147,0.025281,-19.999857,-20.0,21.438915,30.320637,12.875834,297.614502,13.09962,-0.020856,0.001107,21.574806,-3.57E-4,0.058338,0.012784,0.0,1.0,2403.164551
55.62672,-24.356731,-23.163286,2.927401,0.025896,2.927401,0.025896,-19.999857,-20.0,21.503817,31.056778,13.078753,297.618317,13.09962,-0.019116,0.001724,21.574806,-3.61E-4,0.058423,0.012607,0.0,1.0,2409.17334
56.192089,-24.31638,-23.122936,2.931692,0.026452,2.931692,0.026452,-19.999857,-20.0,21.547657,31.549377,13.216991,297.619293,13.09962,-0.018258,0.001839,21.574806,-3.7E-4,0.058548,0.012416,0.0,1.0,2413.185547
57.039616,-24.254898,-23.061455,2.937849,0.027534,2.937849,0.027534,-19.999857,-20.0,21.614269,32.290951,13.42182,297.617828,13.09962,-0.017628,0.00154,21.574806,-3.78E-4,0.058634,0.012367,0.0,1.0,2419.213379
57.604492,-24.213282,-23.019836,2.932985,0.028514,2.932985,0.028514,-19.999857,-20.0,21.658661,32.787064,12.795645,297.615021,13.09962,-0.01782,0.001085,21.574806,-3.93E-4,0.058757,0.01244,0.0,1.0,2423.238281
58.45895,-24.152857,-22.959412,2.905177,0.030091,2.905177,0.030091,-19.999857,-20.0,21.704546,33.53384,9.155293,297.609924,13.09962,-0.018336,3.62E-4,21.574806,-4.07E-4,0.05866,0.012581,0.0,1.0,2429.292236
59.027512,-24.114893,-22.92145,2.910176,0.0309,2.910176,0.0309,-19.999857,-20.0,21.73534,34.033382,9.310884,297.606018,13.09962,-0.018967,-1.5E-4,21.574806,-4.3E-4,0.058104,0.012836,0.0,1.0,2433.340332
59.878677,-24.060436,-22.866991,2.920431,0.032116,2.920431,0.032116,-19.999857,-20.0,21.7824,34.785156,9.49893,297.600159,13.09962,-0.020068,-8.12E-4,21.574806,-4.41E-4,0.058204,0.013031,0.0,1.0,2439.424561
60.445156,-24.025305,-22.83186,2.928333,0.029405,2.928333,0.029405,-19.999857,-20.0,21.814783,35.287922,10.143797,297.596771,13.09962,-0.021114,-0.001241,21.574806,-4.59E-4,0.058409,0.013324,0.0,1.0,2443.488281
61.292324,-23.973129,-22.779686,2.940028,0.025367,2.940028,0.025367,-19.999857,-20.0,21.867735,36.04435,10.680772,297.593567,13.09962,-0.021475,-0.001402,21.574806,-4.2E-4,0.058567,0.013493,0.0,1.0,2449.659668
61.856617,-23.93833,-22.744884,2.943868,0.026142,2.943868,0.026142,-19.999857,-20.0,21.9035,36.550106,10.774695,297.592987,13.09962,-0.021678,-0.001197,21.574806,-3.62E-4,0.058801,0.013654,0.0,1.0,2453.824951
62.725956,-23.884533,-22.691088,2.949092,0.02723,2.949092,0.02723,-19.999857,-20.0,21.959263,37.332039,10.92727,297.59436,13.09962,-0.021545,-5.72E-4,21.574806,-3.73E-4,0.058877,0.013683,0.0,1.0,2460.297852
63.265919,-23.850962,-22.657516,2.933286,0.027978,2.933286,0.027978,-19.999857,-20.0,21.991163,37.819427,6.72854,297.596252,13.09962,-0.021248,-6.7E-5,21.574806,-3.89E-4,0.058982,0.013614,0.0,1.0,2464.343262
64.118988,-23.801933,-22.608488,2.917753,0.028974,2.917753,0.028974,-19.999857,-20.0,22.022032,38.584362,6.256815,297.600616,13.09962,-0.020348,8.38E-4,21.574806,-4.0E-4,0.058666,0.013519,0.0,1.0,2470.70874
64.685936,-23.771999,-22.578556,2.92281,0.030639,2.92281,0.030639,-19.999857,-20.0,22.043087,39.095673,6.368659,297.600677,13.09962,-0.020118,7.62E-4,21.574806,-4.14E-4,0.058355,0.0,0.0,1.0,2474.970215
65.534225,-23.730099,-22.536655,2.931069,0.033682,2.931069,0.033682,-19.999857,-20.0,22.075277,39.864601,6.49514,297.552948,13.09962,-0.022545,-0.007081,21.574806,-4.38E-4,0.058456,-3.0E-6,0.0,1.0,2481.37915
66.098007,-23.703688,-22.510242,2.935321,0.033591,2.935321,0.033591,-19.999857,-20.0,22.097055,40.378471,6.567793,297.491028,13.09962,-0.02681,-0.01636,21.574806,-4.81E-4,0.058621,0.002383,0.0,1.0,2485.658936
66.940559,-23.665672,-22.472229,2.94094,0.031468,2.94094,0.031468,-19.999857,-20.0,22.130163,41.151039,6.674077,297.377533,13.09962,-0.036831,-0.031633,21.574806,-4.8E-4,0.058706,0.005479,0.0,1.0,2492.082764
67.50016,-23.641127,-22.447681,2.945163,0.029497,2.945163,0.029497,-19.999857,-20.0,22.152546,41.667187,6.751185,297.302612,13.09962,-0.044743,-0.040334,21.574806,-4.5E-4,0.058819,0.011154,0.0,1.0,2496.365234
68.336983,-23.605055,-22.41161,2.954434,0.013678,2.954434,0.013678,-19.999857,-20.0,22.187908,42.442955,8.183912,297.221191,13.09962,-0.056408,-0.047091,21.574806,-4.21E-4,0.058903,0.0149,0.0,1.0,2502.786133
68.893677,-23.580778,-22.387335,2.946518,-0.027751,2.946518,-0.027751,-19.999857,-20.0,22.216309,42.96109,8.959312,297.197327,13.09962,-0.062419,-0.046966,21.574806,-1.95E-4,0.059089,0.018971,0.0,1.0,2507.066162
69.731865,-23.542603,-22.349159,2.878924,-0.179741,2.878924,-0.179741,-19.999857,-20.0,22.263603,43.739674,9.779665,297.218658,13.09962,-0.065638,-0.039907,21.574806,3.96E-4,0.05893,0.020164,0.0,1.0,2513.497314
70.293015,-23.515757,-22.322313,2.818056,-0.313958,2.818056,-0.313958,-19.999857,-20.0,22.296398,44.259644,9.806294,297.268494,13.09962,-0.062673,-0.030956,21.574806,0.002568,0.057578,0.019098,0.0,1.0,2517.799805
71.137131,-23.473803,-22.280359,2.745232,-0.498908,2.745232,-0.498908,-19.999857,-20.0,22.344803,45.041016,9.576243,297.371826,13.09962,-0.051508,-0.014537,21.574806,0.004485,0.056361,0.016606,0.0,1.0,2524.281006
71.701065,-23.445061,-22.251616,2.706948,-0.606428,2.706948,-0.606428,-19.999857,-20.0,22.37672,45.562908,9.538058,297.439606,13.09962,-0.041132,-0.00495,21.574806,0.007127,0.054905,0.01144,0.0,1.0,2528.619873
72.543884,-23.401119,-22.207674,2.66231,-0.750557,2.66231,-0.750557,-19.999857,-20.0,22.424597,46.347172,9.674689,297.498108,13.09962,-0.024664,9.81E-4,21.574806,0.008663,0.054139,0.008051,0.0,1.0,2535.145752
73.104996,-23.371374,-22.177929,2.611383,-0.857479,2.611383,-0.857479,-19.999857,-20.0,22.454128,46.870911,5.553535,297.493408,13.09962,-0.016767,-0.002881,21.574806,0.010722,0.053246,0.005125,0.0,1.0,2539.502197
73.955902,-23.3298,-22.136354,2.504895,-1.081126,2.504895,-1.081126,-19.999857,-20.0,22.478102,47.657883,4.567546,297.412903,13.09962,-0.005046,-0.02073,21.574806,0.01225,0.052228,0.00536,0.0,1.0,2546.059082
74.522629,-23.30489,-22.111446,2.459569,-1.210489,2.459569,-1.210489,-19.999857,-20.0,22.493355,48.183437,4.568082,297.317047,13.09962,-0.001107,-0.037278,21.574806,0.015445,0.050098,0.009386,0.0,1.0,2550.446289
75.370789,-23.270649,-22.077204,2.437253,-1.403997,2.437253,-1.403997,-19.999857,-20.0,22.518915,48.973114,6.094565,297.138367,13.09962,-0.00208,-0.064385,21.574806,0.017293,0.049191,0.014178,0.0,1.0,2557.04541
75.931671,-23.248587,-22.055141,2.480629,-1.599398,2.480629,-1.599398,-19.999857,-20.0,22.543154,49.500443,8.834844,297.013977,13.09962,-0.00635,-0.082615,21.574806,0.020057,0.048745,0.023112,0.0,1.0,2561.449463
76.760323,-23.21109,-22.017645,2.603835,-1.998457,2.603835,-1.998457,-19.999857,-20.0,22.62182,50.292576,24.423777,296.862335,13.09962,-0.011051,-0.103166,21.574806,0.022849,0.049613,0.029332,0.0,1.0,2568.044434
77.298187,-23.175047,-21.981604,2.697293,-2.25918,2.697293,-2.25918,-19.999857,-20.0,22.73028,50.821201,40.556988,296.797272,13.09962,-0.012064,-0.109287,21.574806,0.028549,0.052077,0.036914,0.0,1.0,2572.421387
78.07547,-23.085602,-21.892159,2.837877,-2.539943,2.837877,-2.539943,-19.999857,-20.0,23.003681,51.614418,68.448853,296.757355,13.09962,-0.010109,-0.105794,21.574806,0.032274,0.053946,0.040167,0.0,1.0,2578.924561
78.571198,-22.991407,-21.797962,2.950235,-2.637063,2.950235,-2.637063,-19.999857,-20.0,23.266071,52.143066,88.415558,296.753418,13.09962,-0.006103,-0.098283,21.574806,0.036285,0.056758,0.042163,0.0,1.0,2583.196045
79.279449,-22.781811,-21.588367,3.121464,-2.635102,3.121464,-2.635102,-19.999857,-20.0,23.788349,52.935123,119.699768,296.745819,13.09962,0.002762,-0.085513,21.574806,0.037672,0.059005,0.04236,0.0,1.0,2589.469971
79.727097,-22.588299,-21.394855,3.241823,-2.55689,3.241823,-2.55689,-19.999857,-20.0,24.223648,53.462112,140.693359,296.719147,13.09962,0.009365,-0.079839,21.574806,0.037644,0.062429,0.04274,0.0,1.0,2593.544189
80.366226,-22.206263,-21.012819,3.393467,-2.376517,3.393467,-2.376517,-19.999857,-20.0,25.005564,54.250263,170.640076,296.630127,13.09962,0.018157,-0.078632,21.574806,0.036527,0.064836,0.044073,0.0,1.0,2599.343262
80.773048,-21.886171,-20.692728,3.486951,-2.242246,3.486951,-2.242246,-19.999857,-20.0,25.606415,54.773743,189.217331,296.539001,13.09962,0.02204,-0.082558,21.574806,0.03395,0.067869,0.048524,0.0,1.0,2602.535889
81.359215,-21.304052,-20.110609,3.604784,-2.072014,3.604784,-2.072014,-19.999857,-20.0,26.623072,55.555428,216.334671,296.383331,13.09962,0.024439,-0.09112,21.574806,0.032032,0.069739,0.053081,0.0,1.0,2606.464844
81.733391,-20.846781,-19.653336,3.689164,-1.981438,3.689164,-1.981438,-19.999857,-20.0,27.374071,56.073872,233.613083,296.284943,13.09962,0.024332,-0.09563,21.574806,0.0296,0.072096,0.060864,0.0,1.0,2608.68042
82.271416,-20.056477,-18.863031,3.811839,-1.880696,3.811839,-1.880696,-19.999857,-20.0,28.60845,56.847008,259.263519,296.184021,13.09962,0.02339,-0.094763,21.574806,0.028306,0.073783,0.065784,0.0,1.0,2611.591309
82.613106,-19.460222,-18.266777,3.900094,-1.814118,3.900094,-1.814118,-19.999857,-20.0,29.501637,57.359112,276.00647,296.156494,13.09962,0.023904,-0.087951,21.574806,0.026867,0.076237,0.07083,0.0,1.0,2613.330811
83.099602,-18.461428,-17.267982,4.01996,-1.688675,4.01996,-1.688675,-19.999857,-20.0,30.944977,58.121731,300.639252,296.174194,13.09962,0.027784,-0.069184,21.574806,0.025916,0.078002,0.072206,0.0,1.0,2615.719482
83.407158,-17.726608,-16.533163,4.104227,-1.571799,4.104227,-1.571799,-19.999857,-20.0,31.977892,58.626133,318.754425,296.210876,13.09962,0.032843,-0.053671,21.574806,0.024124,0.080399,0.071321,0.0,1.0,2617.196289
83.842171,-16.519558,-15.326113,4.235489,-1.353588,4.235489,-1.353588,-19.999857,-20.0,33.647858,59.376167,348.858368,296.265961,13.09962,0.042985,-0.032507,21.574806,0.022454,0.082085,0.069487,0.0,1.0,2619.27417
84.244209,-15.180843,-13.987399,4.389962,-1.105887,4.389962,-1.105887,-9.999858,-10.0,35.471691,60.117676,378.969849,296.283813,13.09962,0.053562,-0.019752,21.574806,0.019337,0.08471,0.066733,0.0,1.0,2621.214844
84.497879,-14.213464,-13.02002,4.472854,-0.952739,4.472854,-0.952739,-9.999858,-10.0,36.764687,60.606995,395.535156,296.264801,13.09962,0.059413,-0.017457,21.574806,0.016969,0.086804,0.065834,0.0,1.0,2622.443115
84.865379,-12.652719,-11.459274,4.558359,-0.764366,4.558359,-0.764366,-9.999858,-10.0,38.794769,61.333164,415.551208,296.200439,13.09962,0.064573,-0.020801,21.574806,0.013611,0.089457,0.066791,0.0,1.0,2624.202393
85.105484,-11.543316,-10.349872,4.589931,-0.684877,4.589931,-0.684877,-9.999858,-10.0,40.201202,61.811989,427.553711,296.150726,13.09962,0.065453,-0.02471,21.574806,0.011689,0.090751,0.068785,0.0,1.0,2625.32959
85.456818,-9.781637,-8.588193,4.652538,-0.62025,4.652538,-0.62025,-9.999858,-10.0,42.381828,62.522217,444.247253,296.095062,13.09962,0.064585,-0.027913,21.574806,0.009784,0.091799,0.072494,0.0,1.0,2626.962402
85.683655,-8.546584,-7.35314,4.708114,-0.601823,4.708114,-0.601823,-9.999858,-10.0,43.882587,62.990303,455.87793,296.084229,13.09962,0.063678,-0.026103,21.574806,0.008861,0.093051,0.075278,0.0,1.0,2628.015625
86.010597,-6.607727,-5.414283,4.792043,-0.580785,4.792043,-0.580785,-9.999858,-10.0,46.209194,63.684158,474.44577,296.11618,13.09962,0.063934,-0.016296,21.574806,0.008597,0.094162,0.075819,0.0,1.0,2629.544434
86.218872,-5.259112,-4.065668,4.852507,-0.551524,4.852507,-0.551524,1.42E-4,0.0,47.813122,64.141113,487.513489,296.162354,13.09962,0.066043,-0.006383,21.574806,0.008297,0.095841,0.074222,0.0,1.0,2630.526367
86.517113,-3.153647,-1.960203,4.936195,-0.470895,4.936195,-0.470895,1.42E-4,0.0,50.30209,64.817917,507.44754,296.239929,13.09962,0.07178,0.008592,21.574806,0.007879,0.09705,0.071913,0.0,1.0,2631.9375
86.707603,-1.694519,-0.501075,4.994728,-0.396222,4.994728,-0.396222,1.42E-4,0.0,52.016361,65.263306,520.638611,296.280884,13.09962,0.076348,0.016,21.574806,0.006727,0.098724,0.068034,0.0,1.0,2632.841309
86.983643,0.663345,1.856789,5.07191,-0.280809,5.07191,-0.280809,1.42E-4,0.0,54.67062,65.922539,540.419312,296.303009,13.09962,0.082384,0.019554,21.574806,0.00566,0.099895,0.065987,0.0,1.0,2634.148193
87.162148,2.308896,3.502341,5.12549,-0.217142,5.12549,-0.217142,1.42E-4,0.0,56.494434,66.35611,553.361389,296.290527,13.09962,0.084537,0.017076,21.574806,0.004012,0.101438,0.06488,0.0,1.0,2634.990967
87.423027,4.862344,6.055788,5.198144,-0.170523,5.198144,-0.170523,10.000142,10.0,59.31007,66.997597,572.193359,296.246613,13.09962,0.084465,0.008919,21.574806,0.003102,0.10251,0.065504,0.0,1.0,2636.21875
87.592308,6.620752,7.814196,5.249455,-0.17195,5.249455,-0.17195,10.000142,10.0,61.238735,67.419365,584.563721,296.215759,13.09962,0.082481,0.003302,21.574806,0.002436,0.103963,0.0677,0.0,1.0,2637.015869
87.83831,9.341388,10.534832,5.322349,-0.21157,5.322349,-0.21157,10.000142,10.0,64.209343,68.043198,603.098633,296.195374,13.09962,0.078317,-6.85E-4,21.574806,0.002456,0.104989,0.069243,0.0,1.0,2638.181152
87.995781,11.209957,12.403401,5.376889,-0.245515,5.376889,-0.245515,10.000142,10.0,66.24102,68.453224,615.484253,296.207214,13.09962,0.076145,8.58E-4,21.574806,0.003022,0.106447,0.070262,0.0,1.0,2638.938232
88.220848,14.093801,15.287246,5.455137,-0.275876,5.455137,-0.275876,10.000142,10.0,69.366753,69.059418,634.248291,296.260193,13.09962,0.075169,0.008809,21.574806,0.003507,0.107538,0.06967,0.0,1.0,2640.041748
88.362999,16.070999,17.264444,5.511536,-0.272818,5.511536,-0.272818,20.000143,20.0,71.502571,69.457619,646.805603,296.308563,13.09962,0.076385,0.015934,21.574806,0.003941,0.109103,0.067021,0.0,1.0,2640.755127
88.565453,19.117783,20.311226,5.5874,-0.230233,5.5874,-0.230233,20.000143,20.0,74.785034,70.045952,665.537415,296.371918,13.09962,0.080104,0.02452,21.574806,0.003897,0.110231,0.064603,0.0,1.0,2641.790283
88.694206,21.202799,22.396244,5.639467,-0.187584,5.639467,-0.187584,20.000143,20.0,77.024628,70.432175,677.752258,296.396149,13.09962,0.082645,0.026943,21.574806,0.003289,0.111748,0.061435,0.0,1.0,2642.45752
88.880447,24.409788,25.603233,5.707152,-0.130908,5.707152,-0.130908,20.000143,20.0,80.459534,71.002495,695.513733,296.394928,13.09962,0.084943,0.024056,21.574806,0.00268,0.112789,0.060223,0.0,1.0,2643.427002
89.000977,26.601124,27.794569,5.753406,-0.11102,5.753406,-0.11102,30.000143,30.0,82.797569,71.376747,706.848572,296.374237,13.09962,0.084583,0.018908,21.574806,0.00187,0.114143,0.060284,0.0,1.0,2644.054443
89.176979,29.965698,31.159143,5.815044,-0.122691,5.815044,-0.122691,30.000143,30.0,86.374283,71.929237,723.189148,296.335571,13.09962,0.081485,0.010176,21.574806,0.001586,0.115068,0.061319,0.0,1.0,2644.970703
89.290749,32.259354,33.452801,5.858755,-0.152728,5.858755,-0.152728,30.000143,30.0,88.803055,72.29171,733.665588,296.318512,13.09962,0.07846,0.006049,21.574806,0.001753,0.116301,0.063252,0.0,1.0,2645.566162
89.455048,35.773655,36.967098,5.919337,-0.20971,5.919337,-0.20971,40.000141,40.0,92.511078,72.826714,748.990051,296.324402,13.09962,0.074231,0.005383,21.574806,0.002182,0.117175,0.064105,0.0,1.0,2646.436279
89.559448,38.164536,39.357983,5.963128,-0.240992,5.963128,-0.240992,40.000141,40.0,95.025002,73.177597,758.994995,296.350525,13.09962,0.072738,0.008618,21.574806,0.002996,0.118387,0.063811,0.0,1.0,2647.000488
89.707863,41.820972,43.014416,6.023144,-0.254767,6.023144,-0.254767,40.000141,40.0,98.858253,73.695274,773.783997,296.408844,13.09962,0.073024,0.016494,21.574806,0.003443,0.119263,0.062505,0.0,1.0,2647.820801
89.80143,44.304325,45.497768,6.065044,-0.241129,6.065044,-0.241129,40.000141,40.0,101.454216,74.034622,783.429565,296.448334,13.09962,0.074608,0.021598,21.574806,0.00364,0.120463,0.059589,0.0,1.0,2648.349854
89.935295,48.09544,49.288883,6.119304,-0.19696,6.119304,-0.19696,50.000141,50.0,105.407867,74.535019,797.480103,296.484741,13.09962,0.077693,0.025124,21.574806,0.003445,0.121301,0.057614,0.0,1.0,2649.116943
90.021294,50.666355,51.859798,6.155647,-0.165464,6.155647,-0.165464,50.000141,50.0,108.081657,74.862892,806.426514,296.488281,13.09962,0.079002,0.02394,21.574806,0.002814,0.122386,0.055794,0.0,1.0,2649.611816
90.147362,54.587505,55.780949,6.202015,-0.140499,6.202015,-0.140499,50.000141,50.0,112.147057,75.346214,819.187195,296.465851,13.09962,0.078853,0.017601,21.574806,0.002364,0.123113,0.055617,0.0,1.0,2650.33252
90.229683,57.242531,58.435978,6.233747,-0.145004,6.233747,-0.145004,60.000141,60.0,114.891617,75.662842,827.218445,296.4422,13.09962,0.077106,0.012142,21.574806,0.002007,0.12404,0.056738,0.0,1.0,2650.800537
90.350357,61.284058,62.477501,6.27649,-0.18275,6.27649,-0.18275,60.000141,60.0,119.057663,76.129555,838.740173,296.416809,13.09962,0.073008,0.006002,21.574806,0.002071,0.124675,0.057921,0.0,1.0,2651.486084
90.428268,64.016319,65.209763,6.3073,-0.21831,6.3073,-0.21831,60.000141,60.0,121.86628,76.435272,846.141052,296.415955,13.09962,0.07033,0.004773,21.574806,0.002611,0.12553,0.05919,0.0,1.0,2651.932373
90.540146,68.169281,69.362724,6.350318,-0.262386,6.350318,-0.262386,70.000145,70.0,126.12513,76.885826,857.015808,296.443878,13.09962,0.067786,0.007935,21.574806,0.003119,0.126146,0.059233,0.0,1.0,2652.585205
90.610802,70.973114,72.166557,6.381308,-0.276105,6.381308,-0.276105,70.000145,70.0,128.994156,77.180885,864.13855,296.476654,13.09962,0.067661,0.012295,21.574806,0.003748,0.127006,0.057837,0.0,1.0,2653.008301
90.712616,75.227875,76.421318,6.422751,-0.263886,6.422751,-0.263886,80.000145,80.0,133.342041,77.615532,874.634216,296.526428,13.09962,0.069463,0.018715,21.574806,0.003944,0.127626,0.056198,0.0,1.0,2653.623535
90.774437,78.098167,79.291611,6.450935,-0.240421,6.450935,-0.240421,80.000145,80.0,136.269226,77.900047,881.412659,296.549561,13.09962,0.07119,0.021145,21.574806,0.00377,0.128455,0.053709,0.0,1.0,2654.020508
90.866524,82.453239,83.64669,6.486365,-0.201659,6.486365,-0.201659,80.000145,80.0,140.701675,78.319008,891.152283,296.556274,13.09962,0.073161,0.019979,21.574806,0.003435,0.129019,0.052553,0.0,1.0,2654.598145
90.926682,85.386589,86.580032,6.509879,-0.185202,6.509879,-0.185202,90.000145,90.0,143.682816,78.593185,897.268677,296.543579,13.09962,0.07317,0.016418,21.574806,0.002881,0.129727,0.052217,0.0,1.0,2654.972656
91.015511,89.83297,91.026413,6.540187,-0.189838,6.540187,-0.189838,90.000145,90.0,148.191757,78.996895,905.937256,296.513062,13.09962,0.071107,0.009396,21.574806,0.002646,0.130198,0.052852,0.0,1.0,2655.52124
91.07383,92.825798,94.019241,6.561506,-0.210955,6.561506,-0.210955,90.000145,90.0,151.221039,79.261093,911.408142,296.49585,13.09962,0.068751,0.00547,21.574806,0.002712,0.130804,0.054378,0.0,1.0,2655.879395
91.158829,97.355148,98.548592,6.591214,-0.256218,6.591214,-0.256218,100.000145,100.0,155.79866,79.650108,919.343445,296.491669,13.09962,0.065093,0.003485,21.574806,0.003014,0.13123,0.055238,0.0,1.0,2656.406006
91.213249,100.401649,101.5951,6.613115,-0.28417,6.613115,-0.28417,100.000145,100.0,158.87207,79.904663,924.519287,296.506073,13.09962,0.06354,0.00508,21.574806,0.00366,0.131824,0.055447,0.0,1.0,2656.749756
91.290443,105.008286,106.201729,6.643674,-0.302906,6.643674,-0.302906,100.000145,100.0,163.514542,80.279404,932.205017,296.545624,13.09962,0.063178,0.010423,21.574806,0.00406,0.132262,0.054727,0.0,1.0,2657.252441
91.338768,108.102577,109.296021,6.665276,-0.297738,6.665276,-0.297738,110.000145,110.0,166.630615,80.524536,937.253418,296.574951,13.09962,0.064183,0.014329,21.574806,0.004327,0.132873,0.05275,0.0,1.0,2657.578369
91.407791,112.780937,113.97438,6.693049,-0.2686,6.693049,-0.2686,110.000145,110.0,171.336044,80.885269,944.634338,296.604279,13.09962,0.066547,0.017521,21.574806,0.004253,0.133306,0.051283,0.0,1.0,2658.052734
91.452217,115.923363,117.116806,6.711372,-0.245198,6.711372,-0.245198,120.000145,120.0,174.492981,81.121155,949.329285,296.608521,13.09962,0.067725,0.017038,21.574806,0.003837,0.133861,0.049817,0.0,1.0,2658.360352
91.517868,120.671753,121.865196,6.734032,-0.224121,6.734032,-0.224121,120.000145,120.0,179.257004,81.468216,955.981384,296.592285,13.09962,0.067968,0.012578,21.574806,0.003503,0.134227,0.049605,0.0,1.0,2658.810059
91.561226,123.857574,125.051018,6.749282,-0.225442,6.749282,-0.225442,120.000145,120.0,182.450806,81.695152,960.126465,296.573212,13.09962,0.066811,0.008394,21.574806,0.003202,0.134681,0.050417,0.0,1.0,2659.103516
91.625244,128.66774,129.861191,6.769782,-0.252048,6.769782,-0.252048,130.000137,130.0,187.2668,82.029068,966.031067,296.55014,13.09962,0.063771,0.003331,21.574806,0.003221,0.134986,0.05137,0.0,1.0,2659.536621
91.667107,131.894852,133.088287,6.78486,-0.278916,6.78486,-0.278916,130.000137,130.0,190.493469,82.247429,969.819702,296.546234,13.09962,0.06167,0.002026,21.574806,0.003601,0.135396,0.052524,0.0,1.0,2659.820313
91.72731,136.763382,137.956818,6.806543,-0.314021,6.806543,-0.314021,140.000137,140.0,195.35704,82.568718,975.423523,296.563141,13.09962,0.059554,0.003999,21.574806,0.003985,0.135697,0.052719,0.0,1.0,2660.238525
91.765213,140.02594,141.219376,6.822567,-0.326099,6.822567,-0.326099,140.000137,140.0,198.614853,82.778786,979.138306,296.585999,13.09962,0.059373,0.007188,21.574806,0.004486,0.136131,0.051874,0.0,1.0,2660.511475
91.818214,144.945816,146.139252,6.844227,-0.318782,6.844227,-0.318782,140.000137,140.0,203.524857,83.087769,984.67041,296.622406,13.09962,0.060729,0.012157,21.574806,0.004659,0.136451,0.050731,0.0,1.0,2660.9104
91.851852,148.244247,149.437698,6.858919,-0.301494,6.858919,-0.301494,150.000137,150.0,206.813324,83.289719,988.268982,296.639618,13.09962,0.062128,0.014171,21.574806,0.004554,0.136885,0.04891,0.0,1.0,2661.169434
91.900589,153.216431,154.409882,6.87693,-0.271489,6.87693,-0.271489,150.000137,150.0,211.768143,83.586685,993.436646,296.644257,13.09962,0.063834,0.013531,21.574806,0.004307,0.137178,0.04805,0.0,1.0,2661.547607
91.932556,156.547134,157.740585,6.888587,-0.258051,6.888587,-0.258051,160.000137,160.0,215.085205,83.780746,996.659973,296.633911,13.09962,0.063978,0.010918,21.574806,0.003878,0.137539,0.047818,0.0,1.0,2661.794434
91.980232,161.564087,162.757538,6.903282,-0.260175,6.903282,-0.260175,160.000137,160.0,220.080338,84.066116,1001.187744,296.608887,13.09962,0.062553,0.005587,21.574806,0.003686,0.137772,0.048335,0.0,1.0,2662.157959
92.011772,164.925186,166.118622,6.913674,-0.275547,6.913674,-0.275547,160.000137,160.0,223.422546,84.252617,1004.026184,296.594269,13.09962,0.060805,0.002549,21.574806,0.003717,0.138066,0.049586,0.0,1.0,2662.396973
92.058273,169.987701,171.181152,6.92857,-0.309521,6.92857,-0.309521,170.000137,170.0,228.453369,84.526901,1008.149963,296.588867,13.017759,0.058039,9.75E-4,4812.419434,0.003936,0.138273,0.050317,0.0,1.0,2662.750488
92.087852,173.375092,174.568527,6.939928,-0.33064,6.939928,-0.33064,170.000137,170.0,231.818542,84.706169,1010.86676,296.598541,12.949538,0.056877,0.002184,4643.560547,0.004422,0.138571,0.050587,0.0,1.0,2662.98291
92.129768,178.477234,179.67067,6.956204,-0.344525,6.956204,-0.344525,180.000137,180.0,236.883423,84.969772,1014.955322,296.627167,12.873724,0.056674,0.006315,4393.787109,0.004723,0.138799,0.050104,0.0,1.0,2663.324951
92.155815,181.891129,183.084579,6.967832,-0.340109,6.967832,-0.340109,180.000137,180.0,240.271301,85.142006,1017.675659,296.648621,12.841151,0.057526,0.009346,4229.769043,0.004922,0.139124,0.048672,0.0,1.0,2663.547852
92.192642,187.030212,188.223648,6.982594,-0.316968,6.982594,-0.316968,190.000137,190.0,245.370071,85.39518,1021.673889,296.669495,12.818911,0.059479,0.011831,3987.816406,0.004859,0.139357,0.0476,0.0,1.0,2663.874023
92.216171,190.467072,191.660522,6.992103,-0.298521,6.992103,-0.298521,190.000137,190.0,248.780045,85.560562,1024.21167,296.671509,12.821098,0.060467,0.01146,3829.423584,0.004528,0.139652,0.046556,0.0,1.0,2664.086426
92.251076,195.64064,196.834091,7.003488,-0.281954,7.003488,-0.281954,200.000137,200.0,253.910446,85.803619,1027.7771,296.657257,12.848019,0.060739,0.008034,3596.636963,0.004265,0.139842,0.046455,0.0,1.0,2664.398926
92.274406,199.101578,200.295013,7.011068,-0.282873,7.011068,-0.282873,200.000137,200.0,257.340179,85.962395,1029.977051,296.641541,12.880488,0.059886,0.004842,3444.90332,0.004028,0.14007,0.047168,0.0,1.0,2664.604004
92.309204,204.308807,205.502258,7.021376,-0.303191,7.021376,-0.303191,200.000137,200.0,262.498199,86.195786,1033.096924,296.622742,12.949,0.057598,0.001065,3222.945068,0.004041,0.140221,0.047954,0.0,1.0,2664.907959
92.331879,207.790421,208.983856,7.029196,-0.323502,7.029196,-0.323502,210.000137,210.0,265.945313,86.348267,1035.105103,296.619354,13.00694,0.056039,1.85E-4,3079.038086,0.004331,0.140428,0.048894,0.0,1.0,2665.108398
92.364159,213.026352,214.219803,7.040869,-0.34933,7.040869,-0.34933,210.000137,210.0,271.128571,86.572403,1038.106934,296.631989,13.110921,0.054546,0.001906,2869.827393,0.004621,0.140584,0.049063,0.0,1.0,2665.405029
92.38858,216.67131,217.864746,7.050053,-0.357537,7.050053,-0.357537,220.000137,220.0,274.736877,86.724861,1040.211426,296.649933,13.194361,0.054527,0.004574,2729.613037,0.00499,0.140817,0.048431,0.0,1.0,2665.607422
92.412033,221.790817,222.984268,7.061614,-0.349892,7.061614,-0.349892,220.000137,220.0,279.800903,86.933968,1043.161743,296.675812,13.325065,0.05576,0.0083,2541.05957,0.005108,0.141001,0.047534,0.0,1.0,2665.884766
92.42939,225.308395,226.501846,7.069529,-0.335551,7.069529,-0.335551,220.000137,220.0,283.281525,87.074463,1045.135376,296.687592,13.422796,0.056923,0.009764,2417.300049,0.004998,0.141232,0.04624,0.0,1.0,2666.070801
92.454292,230.599655,231.793091,7.079022,-0.311988,7.079022,-0.311988,230.000137,230.0,288.514557,87.280869,1047.955322,296.68869,13.579065,0.058284,0.009101,2240.944824,0.004794,0.141391,0.045651,0.0,1.0,2666.343506
92.470818,234.135468,235.328918,7.084959,-0.301953,7.084959,-0.301953,230.000137,230.0,292.010773,87.415627,1049.696167,296.67926,13.687922,0.058387,0.007009,2129.960449,0.004457,0.14158,0.045596,0.0,1.0,2666.522217
92.495766,239.451187,240.644623,7.092207,-0.304528,7.092207,-0.304528,240.000137,240.0,297.265564,87.613632,1052.106689,296.658813,13.855248,0.057264,0.002947,1974.08313,0.004314,0.141699,0.046068,0.0,1.0,2666.786621
92.512451,243.00148,244.194916,7.097392,-0.316801,7.097392,-0.316801,240.000137,240.0,300.775177,87.742928,1053.600952,296.647461,13.967997,0.055935,7.49E-4,1877.582031,0.00435,0.141844,0.04709,0.0,1.0,2666.961426
92.536751,248.339844,249.533295,7.105163,-0.342592,7.105163,-0.342592,250.000137,250.0,306.048828,87.93293,1055.776123,296.64389,14.136895,0.053911,-1.41E-4,1744.65332,0.004526,0.141948,0.047658,0.0,1.0,2667.220947
92.552223,251.90564,253.099075,7.111324,-0.357814,7.111324,-0.357814,250.000137,250.0,309.570557,88.057007,1057.227661,296.651794,14.248458,0.053143,9.99E-4,1664.116821,0.004894,0.142103,0.047836,0.0,1.0,2667.392334
92.573624,257.264252,258.457672,7.120341,-0.366133,7.120341,-0.366133,260.000153,260.0,314.862396,88.239311,1059.442505,296.673737,14.412955,0.05321,0.004347,1555.675659,0.005112,0.142226,0.047441,0.0,1.0,2667.645264
92.586632,260.843079,262.03653,7.12677,-0.361081,7.12677,-0.361081,260.000153,260.0,318.396454,88.358337,1060.930908,296.689423,14.519919,0.053994,0.006657,1491.629517,0.00523,0.142407,0.046344,0.0,1.0,2667.810791
92.604752,266.220795,267.414246,7.134677,-0.341734,7.134677,-0.341734,270.000153,270.0,323.706787,88.53315,1063.115356,296.703217,14.674678,0.055604,0.008363,1407.681274,0.005158,0.142535,0.04556,0.0,1.0,2668.053955
92.616364,269.812103,271.005554,7.139555,-0.327367,7.139555,-0.327367,270.000153,270.0,327.252869,88.647255,1064.485352,296.702972,14.772933,0.056363,0.007892,1359.492798,0.004882,0.142694,0.04487,0.0,1.0,2668.213135
92.633797,275.208038,276.401489,7.145035,-0.315671,7.145035,-0.315671,270.000153,270.0,332.580261,88.814835,1066.373779,296.68985,14.910948,0.0565,0.005078,1298.103027,0.004677,0.142791,0.044882,0.0,1.0,2668.448242
92.645638,278.811066,280.004517,7.148565,-0.317461,7.148565,-0.317461,280.000153,280.0,336.136841,88.924225,1067.512451,296.677032,14.995693,0.055794,0.002628,1263.866333,0.00451,0.142901,0.045538,0.0,1.0,2668.603271
92.663414,284.222717,285.416138,7.153483,-0.334237,7.153483,-0.334237,280.000153,280.0,341.478546,89.084908,1069.10791,296.662872,15.110674,0.054022,-4.8E-5,1221.376465,0.004535,0.142971,0.046179,0.0,1.0,2668.834473
92.675163,287.835327,289.028778,7.157428,-0.349853,7.157428,-0.349853,290.000153,290.0,345.044037,89.189827,1070.13855,296.661072,15.178884,0.052889,-4.82E-4,1198.287109,0.004775,0.14307,0.046887,0.0,1.0,2668.987549
92.689651,293.26355,294.45697,7.165212,-0.397319,7.165212,-0.397319,290.000153,290.0,350.398773,89.343941,1071.723145,296.731812,15.268348,0.040649,0.011643,1170.451538,0.001666,0.143149,0.1,0.0,1.0,2669.214844
92.69046,296.886963,298.080414,7.179044,-0.422271,7.179044,-0.422271,300.000153,300.0,353.973297,89.444473,1073.02002,296.928497,15.320468,0.040051,0.042799,1155.691772,0.001892,0.143304,0.1,0.0,1.0,2669.359131
92.668633,302.328125,303.521576,7.211451,-0.285244,7.211451,-0.285244,300.000153,300.0,359.345947,89.59169,1076.230347,297.352844,15.392246,0.05779,0.107066,1138.19751,0.002011,0.143581,0.1,0.0,1.0,2669.546631
92.639091,305.960999,307.154449,7.233512,-0.055732,7.233512,-0.055732,310.000153,310.0,362.938416,89.68721,1079.22583,297.641968,15.437362,0.078181,0.148199,1129.187988,0.001358,0.144229,0.1,0.0,1.0,2669.643066
92.582794,311.422791,312.616241,7.248166,0.441056,7.248166,0.441056,310.000153,310.0,368.346588,89.826187,1083.785889,297.978943,15.49833,0.112452,0.190221,1119.08252,2.65E-4,0.14467,0.1,0.0,1.0,2669.740479
92.544777,315.072052,316.265503,7.248785,0.820188,7.248785,0.820188,310.000153,310.0,371.96344,89.915886,1086.132324,298.109039,15.52989,0.132348,0.200896,1114.19104,-0.0021,0.144963,0.1,0.0,1.0,2669.780273
92.496078,320.556122,321.749573,7.240574,1.345294,7.240574,1.345294,320.000153,320.0,377.400146,90.046051,1088.163208,298.168884,15.552287,0.151655,0.193085,1108.932617,-0.003906,0.144976,0.1,0.0,1.0,2669.820801
92.471001,324.219574,325.413025,7.233359,1.627725,7.233359,1.627725,320.000153,320.0,381.028107,90.130058,1088.460083,298.14856,15.543734,0.156161,0.177797,1106.585449,-0.006406,0.144811,0.1,0.0,1.0,2669.845459
92.444099,329.727783,330.921234,7.224699,1.904894,7.224699,1.904894,330.000153,330.0,386.469055,90.252251,1087.762085,298.098846,15.486287,0.152272,0.151846,1104.498047,-0.007751,0.144667,0.1,0.0,1.0,2669.890869
92.43145,333.404083,334.597534,7.219015,2.004165,7.219015,2.004165,330.000153,330.0,390.093353,90.33139,1086.80603,298.092102,15.415315,0.145245,0.139156,1103.641846,-0.009071,0.144494,0.1,0.0,1.0,2669.929932
92.416023,338.919434,340.112885,7.211713,2.063798,7.211713,2.063798,340.000153,340.0,395.52298,90.446899,1085.074463,298.165436,15.25965,0.133499,0.133654,1102.701782,-0.009544,0.14438,0.1,0.0,1.0,2670.001953
92.406708,342.597687,343.791138,7.207172,2.080407,7.207172,2.080407,340.000153,340.0,399.137939,90.521896,1083.96814,298.277435,15.125435,0.127592,0.13986,1102.302979,-0.009828,0.144234,0.1,0.0,1.0,2670.056641
92.392319,348.266083,349.459534,7.202817,2.124753,7.202817,2.124753,350.000153,350.0,404.70462,90.63446,1082.662354,298.532104,14.877898,0.12425,0.161293,1101.720947,-0.009907,0.144143,0.1,0.0,1.0,2670.14502
92.373787,351.788971,352.982391,7.200876,2.183121,7.200876,2.183121,350.000153,350.0,408.162262,90.702553,1082.177002,298.72113,14.703485,0.125899,0.17837,1101.436279,-0.010118,0.144056,0.1,0.0,1.0,2670.198242
92.348877,357.300751,358.494202,7.198656,2.329671,7.198656,2.329671,360.000153,360.0,413.572052,90.806206,1081.818115,299.025452,14.405899,0.132646,0.204261,1100.976929,-0.010396,0.144018,0.1,0.0,1.0,2670.274658
92.32695,360.975433,362.168854,7.196585,2.458258,7.196585,2.458258,360.000153,360.0,417.177917,90.873306,1081.720215,299.215363,14.19418,0.138416,0.217968,1100.775879,-0.011094,0.143973,0.1,0.0,1.0,2670.31958
92.296906,366.481476,367.674927,7.192276,2.667472,7.192276,2.667472,370.000153,370.0,422.585999,90.97094,1081.480591,299.463318,13.860896,0.146323,0.230606,1100.272339,-0.011706,0.143932,0.1,0.0,1.0,2670.379639
92.278603,370.153259,371.34671,7.188383,2.802721,7.188383,2.802721,370.000153,370.0,426.190369,91.034058,1081.12146,299.603607,13.630117,0.149895,0.234009,1100.083496,-0.012702,0.143846,0.1,0.0,1.0,2670.417236
92.254646,375.658081,376.851532,7.182194,2.971324,7.182194,2.971324,380.000153,380.0,431.593781,91.125893,1080.193481,299.789093,13.273936,0.151905,0.233975,1099.744385,-0.013346,0.143768,0.1,0.0,1.0,2670.474609
92.242874,379.322266,380.515717,7.177348,3.056875,7.177348,3.056875,380.000153,380.0,435.192993,91.185318,1079.32605,299.907654,13.031736,0.151181,0.232653,1099.282227,-0.014149,0.143644,0.1,0.0,1.0,2670.515381
92.223633,384.820862,386.014313,7.170378,3.142711,7.170378,3.142711,380.000153,380.0,440.585693,91.271919,1077.764526,300.097229,12.665531,0.148193,0.231926,1098.887939,-0.014557,0.143547,0.1,0.0,1.0,2670.58252
92.213562,388.483368,389.676819,7.165301,3.179997,7.165301,3.179997,390.000153,390.0,444.176331,91.328033,1076.648804,300.23941,12.422557,0.145815,0.233597,1098.533813,-0.014965,0.143408,0.1,0.0,1.0,2670.631592
92.199135,393.971649,395.16507,7.158475,3.22104,7.158475,3.22104,390.000153,390.0,449.555298,91.40992,1075.013672,300.481415,12.06601,0.143014,0.239974,1097.86145,-0.015143,0.143306,0.1,0.0,1.0,2670.709961
92.189217,397.624268,398.817688,7.153819,3.248537,7.153819,3.248537,400.000153,400.0,453.136932,91.46302,1074.018066,300.659821,11.837442,0.142147,0.246383,1097.206787,-0.015338,0.14317,0.1,0.0,1.0,2670.764648
92.173401,403.098694,404.292145,7.148013,3.300133,7.148013,3.300133,400.000153,400.0,458.50354,91.540497,1072.714355,300.943848,11.51475,0.142543,0.257578,1096.224854,-0.015469,0.143076,0.1,0.0,1.0,2670.8479
92.16217,406.744934,407.938385,7.144151,3.34426,7.144151,3.34426,410.000153,410.0,462.077972,91.590714,1071.970093,301.137482,11.316493,0.143709,0.264984,1095.562622,-0.015715,0.14296,0.1,0.0,1.0,2670.90332
92.145302,412.209869,413.40332,7.13917,3.421375,7.13917,3.421375,410.000153,410.0,467.435181,91.663925,1070.968018,301.42453,11.049378,0.146108,0.27443,1094.577148,-0.015925,0.142883,0.1,0.0,1.0,2670.98584
92.133957,415.846863,417.040314,7.135662,3.476776,7.135662,3.476776,420.000153,420.0,471.003998,91.711342,1070.331299,301.610168,10.893807,0.147666,0.279144,1093.751831,-0.016292,0.142783,0.1,0.0,1.0,2671.040527
92.117905,421.29953,422.492981,7.130822,3.555866,7.130822,3.555866,420.000153,420.0,476.353119,91.780449,1069.34021,301.878967,10.697288,0.149349,0.283787,1092.661377,-0.016556,0.142713,0.1,0.0,1.0,2671.122803
92.10817,424.931732,426.125183,7.127281,3.602853,7.127281,3.602853,420.000153,420.0,479.916382,91.825211,1068.632202,302.053467,10.592221,0.149848,0.285661,1091.959595,-0.016933,0.142616,0.1,0.0,1.0,2671.178467
92.09491,430.374359,431.56781,7.122303,3.659295,7.122303,3.659295,430.000153,430.0,485.256622,91.89048,1067.488525,302.313446,10.47544,0.149712,0.287596,1090.869751,-0.017156,0.142546,0.1,0.0,1.0,2671.264648
92.086891,433.999023,435.192444,7.118663,3.688415,7.118663,3.688415,430.000153,430.0,488.813538,91.932777,1066.687622,302.488861,10.425731,0.149201,0.288896,1090.124268,-0.017425,0.142446,0.1,0.0,1.0,2671.323975
92.075623,439.42926,440.622711,7.113654,3.721205,7.113654,3.721205,440.000153,440.0,494.143829,91.994507,1065.470459,302.759277,10.394751,0.148227,0.291542,1088.93042,-0.017564,0.142373,0.1,0.0,1.0,2671.41626
92.068581,443.046539,444.23999,7.110103,3.7391,7.110103,3.7391,440.000153,440.0,497.694031,92.034546,1064.677979,302.945435,10.403809,0.147671,0.293942,1088.174805,-0.01772,0.142273,0.1,0.0,1.0,2671.479492
92.058228,448.466675,449.660126,7.10543,3.764098,7.10543,3.764098,450.000153,450.0,503.014465,92.093002,1063.552368,303.232971,10.462746,0.147245,0.298356,1087.015503,-0.017805,0.142202,0.1,0.0,1.0,2671.576904
92.053413,452.075073,453.268524,7.102225,3.781923,7.102225,3.781923,450.000153,450.0,506.558441,92.130928,1062.858154,303.42868,10.532464,0.147281,0.301595,1086.160156,-0.017924,0.142109,0.1,0.0,1.0,2671.642822
92.050186,457.4823,458.675751,7.098072,3.811848,7.098072,3.811848,460.000153,460.0,511.870392,92.186287,1061.985229,303.724915,10.682451,0.147836,0.30634,1084.925171,-0.018009,0.142044,0.1,0.0,1.0,2671.749756
92.049576,461.085205,462.278625,7.095368,3.83441,7.095368,3.83441,460.000153,460.0,515.409485,92.222198,1061.508301,303.922058,10.812219,0.148404,0.309113,1084.193359,-0.018152,0.141961,0.1,0.0,1.0,2671.827148
92.048515,466.483368,467.676819,7.092371,3.8695,7.092371,3.8695,470.000153,470.0,520.715454,92.274597,1060.903198,304.214996,11.050041,0.149253,0.31236,1083.044556,-0.018259,0.141907,0.1,0.0,1.0,2671.949219
92.048019,470.079895,471.273346,7.090563,3.892396,7.090563,3.892396,470.000153,470.0,524.25116,92.308578,1060.562256,304.408051,11.236168,0.149672,0.313902,1082.346802,-0.018426,0.141847,0.1,0.0,1.0,2672.033447
92.047562,475.470337,476.663788,7.088387,3.922651,7.088387,3.922651,480.000153,480.0,529.552795,92.358154,1060.101074,304.69519,11.554207,0.149965,0.315486,1081.329346,-0.018535,0.141811,0.1,0.0,1.0,2672.163818
92.047478,479.061279,480.25473,7.086935,3.939646,7.086935,3.939646,480.000153,480.0,533.085938,92.390305,1059.815796,304.886108,11.790481,0.149935,0.316275,1080.678955,-0.018679,0.141768,0.1,0.0,1.0,2672.252686
92.047615,484.444061,485.637512,7.085094,3.959636,7.085094,3.959636,480.000153,480.0,538.383972,92.437225,1059.409912,305.173859,12.178215,0.149657,0.31742,1079.753906,-0.01876,0.141739,0.1,0.0,1.0,2672.388428
92.047821,488.030334,489.223785,7.083872,3.970235,7.083872,3.970235,490.000153,490.0,541.914917,92.467659,1059.159912,305.367493,12.457072,0.149406,0.318324,1079.173096,-0.018855,0.141702,0.1,0.0,1.0,2672.480469
92.048042,493.405487,494.598938,7.082371,3.98337,7.082371,3.98337,490.000153,490.0,547.209839,92.512093,1058.824219,305.661438,12.902656,0.149079,0.320008,1078.29895,-0.018906,0.141677,0.1,0.0,1.0,2672.620361
92.049393,496.983398,498.176849,7.081404,3.991545,7.081404,3.991545,500.000153,500.0,550.738892,92.540916,1058.633179,305.859619,13.215968,0.148953,0.321332,1077.568481,-0.018968,0.141647,0.1,0.0,1.0,2672.714355
92.047813,502.354523,503.547974,7.080261,4.004061,7.080261,4.004061,500.000153,500.0,556.031433,92.582985,1058.395386,306.159363,13.706923,0.148953,0.323466,1076.964966,-0.019007,0.141628,0.1,0.0,1.0,2672.856445
92.046974,506.080383,507.273834,7.079526,4.013516,7.079526,4.013516,510.000153,510.0,559.706177,92.611404,1058.263916,306.368469,14.060506,0.149056,0.324933,1076.428833,-0.019067,0.141605,0.1,0.0,1.0,2672.955322
92.049477,507.719025,508.912476,7.078744,4.027492,7.078744,4.027492,510.000153,510.0,564.850098,92.650108,1058.112183,306.661499,14.569487,0.149301,0.326791,862.293884,-0.019112,0.141591,0.1,0.0,1.0,2673.093994
92.049477,507.719025,508.912476,7.078241,4.037392,7.078241,4.037392,510.000153,510.0,568.377014,92.675934,1058.026489,306.862152,14.92587,0.149478,0.327876,648.111389,-0.019179,0.141575,0.1,0.0,1.0,2673.189453
92.049477,507.719025,508.912476,7.077626,4.051629,7.077626,4.051629,510.000153,510.0,573.666809,92.713615,1057.909058,307.162415,15.468163,0.149689,0.329185,325.68396,-0.019226,0.141565,0.1,0.0,1.0,2673.332764
92.049477,507.719025,508.912476,7.077285,4.060205,7.077285,4.060205,510.000153,510.0,577.193054,92.738052,1057.826172,307.362244,15.832807,0.149751,0.329881,107.866257,-0.019293,0.141553,0.1,0.0,1.0,2673.42749
92.049477,507.719025,508.912476,7.076718,4.071458,7.076718,4.071458,510.000153,510.0,582.481934,92.773705,1057.721313,307.661957,16.381107,0.149785,0.330763,7.904469,-0.019334,0.141546,0.1,0.0,1.0,2673.571777
92.049477,507.719025,508.912476,7.076312,4.078005,7.076312,4.078005,510.000153,510.0,586.007507,92.797577,1057.644531,307.862061,16.745695,0.149752,0.331307,7.904469,-0.019388,0.141534,0.1,0.0,1.0,2673.667969
92.049477,507.719025,508.912476,7.075839,4.086258,7.075839,4.086258,510.000153,510.0,591.295471,92.833374,1057.530029,308.163086,17.288221,0.149666,0.332135,7.904469,-0.019419,0.141526,0.1,0.0,1.0,2673.812744
92.049477,507.719025,508.912476,7.075531,4.091083,7.075531,4.091083,510.000153,510.0,594.820435,92.856606,1057.459595,308.364502,17.645445,0.149609,0.332725,7.904469,-0.019458,0.141517,0.1,0.0,1.0,2673.909424
92.049477,507.719025,508.912476,7.075127,4.097665,7.075127,4.097665,510.000153,510.0,600.107483,92.890533,1057.363281,308.667786,18.172176,0.149557,0.333668,7.904469,-0.019481,0.141511,0.1,0.0,1.0,2674.054443
92.049477,507.719025,508.912476,7.074858,4.101961,7.074858,4.101961,510.000153,510.0,603.631897,92.912552,1057.305664,308.870605,18.516014,0.149554,0.334317,7.904469,-0.019513,0.141503,0.1,0.0,1.0,2674.151367
92.049477,507.719025,508.912476,7.074537,4.108395,7.074537,4.108395,510.000153,510.0,608.918213,92.94471,1057.229126,309.175446,19.018927,0.149595,0.335272,7.904469,-0.019533,0.141497,0.1,0.0,1.0,2674.296875
92.049477,507.719025,508.912476,7.074333,4.112792,7.074333,4.112792,510.000153,510.0,612.442261,92.965569,1057.184082,309.378906,19.344706,0.149643,0.335867,7.904469,-0.019564,0.141491,0.1,0.0,1.0,2674.393799
92.049477,507.719025,508.912476,7.074087,4.119303,7.074087,4.119303,510.000153,510.0,617.728027,92.996033,1057.122559,309.684143,19.817799,0.149725,0.336661,7.904469,-0.019585,0.141487,0.1,0.0,1.0,2674.539307
92.049477,507.719025,508.912476,7.073925,4.123548,7.073925,4.123548,510.000153,510.0,621.251709,93.0158,1057.083618,309.887604,20.122192,0.149772,0.337121,7.904469,-0.019616,0.141482,0.1,0.0,1.0,2674.636475
92.049477,507.719025,508.912476,7.073721,4.129419,7.073721,4.129419,510.000153,510.0,626.536987,93.044655,1057.025635,310.19278,20.561491,0.149818,0.337712,7.904469,-0.019636,0.141478,0.1,0.0,1.0,2674.781982
92.049477,507.719025,508.912476,7.073581,4.132997,7.073581,4.132997,510.000153,510.0,630.060303,93.063377,1056.98645,310.39624,20.842531,0.14983,0.338059,7.904469,-0.019664,0.141474,0.1,0.0,1.0,2674.87915
92.049477,507.719025,508.912476,7.073395,4.137694,7.073395,4.137694,510.000153,510.0,635.345093,93.090714,1056.92688,310.701691,21.246119,0.149825,0.338538,7.904469,-0.019681,0.141472,0.1,0.0,1.0,2675.025146
