airspeed_indicator_indicated_speed_kt,altimeter_indicated_altitude_ft,altimeter_pressure_alt_ft,attitude_indicator_indicated_pitch_deg,attitude_indicator_indicated_roll_deg,attitude_indicator_internal_pitch_deg,attitude_indicator_internal_roll_deg,encoder_indicated_altitude_ft,encoder_pressure_alt_ft,gps_indicated_altitude_ft,gps_indicated_ground_speed_kt,gps_indicated_vertical_speed,indicated_heading_deg,magnetic_compass_indicated_heading_deg,slip_skid_ball_indicated_slip_skid,turn_indicator_indicated_turn_rate,vertical_speed_indicator_indicated_speed_fpm,flight_aileron,flight_elevator,flight_rudder,flight_flaps,engine_throttle,engine_rpm
0.411301,-26.745264,-25.551819,3.069689,1.356467,2.716404,0.178852,-29.999857,-30.0,18.855347,4.1E-5,-2.34E-4,297.865784,14.686767,-0.046379,-0.037014,-14.374746,-0.0,0.0,0.0,0.0,0.0,607.022888
0.372027,-26.746572,-25.553127,3.067683,1.349895,2.716361,0.178821,-29.999857,-30.0,18.855347,4.0E-5,-2.34E-4,297.864929,14.281536,-0.04637,-0.033486,-6.358459,-0.0,0.0,0.0,0.0,0.0,607.01886
0.320043,-26.748102,-25.554659,2.884763,0.743385,2.715321,0.178579,-29.999857,-30.0,18.855345,3.9E-5,-0.001976,297.863678,13.681493,-0.046462,-0.028827,-15.679541,-0.019284,0.054327,4.3E-5,0.0,1.0,680.473145
0.2901,-26.748898,-25.555452,2.767849,0.378704,2.707418,0.17727,-29.999857,-30.0,18.855322,6.0E-5,-0.01236,297.862732,13.290977,-0.046606,-0.026138,-18.77187,-0.01062,0.054306,1.05E-4,0.0,1.0,794.078369
0.256866,-26.749844,-25.556398,2.661855,0.171772,2.661855,0.171772,-29.999857,-30.0,18.855173,4.76E-4,-0.054733,297.860992,12.726253,-0.045301,-0.022708,-11.762871,-0.00541,0.054148,1.53E-4,0.0,1.0,1018.846252
0.258544,-26.750362,-25.556917,2.609339,0.165398,2.609339,0.165398,-29.999857,-30.0,18.855053,0.001864,-0.008575,297.859589,12.367242,-0.044537,-0.020786,-14.422344,-0.002454,0.053237,2.4E-4,0.0,1.0,1183.805298
0.365912,-26.750959,-25.557514,2.576376,0.152264,2.576376,0.152264,-29.999857,-30.0,18.855345,0.007977,0.127386,297.857452,11.860085,-0.044717,-0.018327,-16.974298,-0.002363,0.052187,3.1E-4,0.0,1.0,1426.099243
0.541062,-26.751186,-25.557743,2.577139,0.141872,2.577139,0.141872,-29.999857,-30.0,18.855938,0.016319,0.229381,297.855865,11.545608,-0.046976,-0.016947,-17.85195,-0.002175,0.051528,4.17E-4,0.0,1.0,1573.436401
0.943607,-26.751184,-25.557739,2.592992,0.125301,2.592992,0.125301,-29.999857,-30.0,18.857523,0.037998,0.406475,297.852417,11.113482,-0.051302,-0.015353,-17.840912,-0.002027,0.051543,4.96E-4,0.0,1.0,1763.435425
1.28963,-26.7509,-25.557457,2.606753,0.114376,2.606753,0.114376,-29.999857,-30.0,18.8591,0.060068,0.540761,297.846375,10.853848,-0.057083,-0.015007,-16.742897,-0.00179,0.05186,6.68E-4,0.0,1.0,1867.800781
1.903858,-26.74996,-25.556515,2.626576,0.099467,2.626576,0.099467,-29.999857,-30.0,18.862364,0.106825,0.765821,297.832703,10.509866,-0.058132,-0.015262,-12.406807,-0.001634,0.052135,9.7E-4,0.0,1.0,1992.596069
2.365317,-26.74893,-25.555485,2.638371,0.09077,2.638371,0.09077,-29.999857,-30.0,18.865204,0.148143,0.933737,297.818695,10.312038,-0.053371,-0.016146,-3.96792,-0.001421,0.052532,0.001654,0.0,1.0,2057.046387
3.118268,-26.746681,-25.553238,2.652697,0.0799,2.652697,0.0799,-29.999857,-30.0,18.870564,0.226685,1.208873,297.792358,10.063784,-0.047332,-0.018092,16.905287,-0.001297,0.052767,0.002354,0.0,1.0,2130.593506
3.652025,-26.744659,-25.551214,2.660533,0.074074,2.660533,0.074074,-29.999857,-30.0,18.874924,0.290637,1.402414,297.771362,9.930885,-0.044048,-0.019736,14.727493,-0.001141,0.053054,0.003671,0.0,1.0,2167.074951
4.487815,-26.740738,-25.547295,2.669626,0.067239,2.669626,0.067239,-29.999857,-30.0,18.882717,0.404544,1.709774,297.737305,9.780204,-0.040223,-0.022244,7.526924,-0.001058,0.053211,0.004721,0.0,1.0,2207.322021
5.062672,-26.737488,-25.544044,2.674545,0.06373,2.674545,0.06373,-29.999857,-30.0,18.888784,0.492647,1.921938,297.713348,9.711664,-0.038162,-0.023887,12.358383,-9.61E-4,0.053393,0.006424,0.0,1.0,2226.614502
5.943549,-26.731567,-25.538124,2.680348,0.059727,2.680348,0.059727,-29.999857,-30.0,18.899233,0.643137,2.250199,297.679016,9.655221,-0.035805,-0.025744,16.046667,-9.1E-4,0.053491,0.007622,0.0,1.0,2247.13916
6.539723,-26.726883,-25.53344,2.683619,0.057681,2.683619,0.057681,-29.999857,-30.0,18.907118,0.75564,2.472446,297.657776,9.647321,-0.034463,-0.026558,13.757624,-8.53E-4,0.053607,0.009338,0.0,1.0,2256.525879
7.442625,-26.718689,-25.525244,2.687706,0.055269,2.687706,0.055269,-29.999857,-30.0,18.920345,0.942452,2.811426,297.631561,9.677595,-0.032787,-0.026704,15.946144,-8.24E-4,0.053672,0.0104,0.0,1.0,2265.884521
8.048353,-26.712421,-25.518978,2.690174,0.053969,2.690174,0.053969,-29.999857,-30.0,18.930107,1.078857,3.037692,297.618134,9.724208,-0.031683,-0.026146,19.770041,-7.9E-4,0.053754,0.011711,0.0,1.0,2269.734375
8.959947,-26.701767,-25.508322,2.693479,0.052306,2.693479,0.052306,-29.999857,-30.0,18.946173,1.300896,3.380022,297.605713,9.830644,-0.030046,-0.02418,8.199471,-7.71E-4,0.053803,0.012382,0.0,1.0,2272.901367
9.822169,-26.690285,-25.496841,2.696449,0.050995,2.696449,0.050995,-29.999857,-30.0,18.962914,1.529359,3.70202,297.601898,9.967759,-0.028283,-0.021345,14.593232,-7.47E-4,0.05387,0.013004,0.0,1.0,2273.785889
10.481215,-26.680561,-25.487116,2.699479,0.050144,2.699479,0.050144,-29.999857,-30.0,18.976789,1.716043,3.993704,297.603699,10.094028,-0.027057,-0.018702,9.507161,-7.29E-4,0.053929,0.013194,0.0,1.0,2273.463867
11.088142,-26.670816,-25.477371,2.707121,0.045515,2.707121,0.045515,-29.999857,-30.0,18.990793,1.897348,4.336536,297.608154,10.225264,-0.026549,-0.01617,18.095949,-7.16E-4,0.05399,0.013104,0.0,1.0,2272.588867
11.996174,-26.654671,-25.461227,2.716964,0.034806,2.716964,0.034806,-29.999857,-30.0,19.013535,2.185041,4.80394,297.618591,10.445292,-0.023946,-0.012308,19.062618,-6.5E-4,0.054142,0.012881,0.0,1.0,2270.498047
12.599459,-26.642859,-25.449413,2.719043,0.033775,2.719043,0.033775,-29.999857,-30.0,19.029949,2.38704,5.035867,297.626862,10.605323,-0.021938,-0.009703,13.134284,-4.97E-4,0.054339,0.01236,0.0,1.0,2268.7146
13.501629,-26.623573,-25.43013,2.720669,0.033798,2.720669,0.033798,-29.999857,-30.0,19.05604,2.704862,5.39126,297.638611,10.86147,-0.020097,-0.006354,16.551775,-4.83E-4,0.054381,0.011946,0.0,1.0,2265.619629
14.100932,-26.609669,-25.416224,2.722193,0.033973,2.722193,0.033973,-29.999857,-30.0,19.074419,2.926348,5.627408,297.645111,11.040627,-0.019326,-0.004594,18.593336,-4.83E-4,0.054413,0.011359,0.0,1.0,2263.42334
14.996468,-26.587282,-25.393839,2.724996,0.034727,2.724996,0.034727,-29.999857,-30.0,19.103468,3.272509,5.982466,297.651215,11.317942,-0.018706,-0.002842,11.011438,-4.85E-4,0.054444,0.011034,0.0,1.0,2261.819336
15.591857,-26.571356,-25.377913,2.727165,0.035441,2.727165,0.035441,-29.999857,-30.0,19.123821,3.512309,6.219384,297.652588,11.506216,-0.018693,-0.002233,11.496595,-4.96E-4,0.0545,0.010728,0.0,1.0,2261.741211
16.483425,-26.545973,-25.35253,2.730699,0.036649,2.730699,0.036649,-29.999857,-30.0,19.155828,3.885139,6.574275,297.650452,11.789815,-0.019193,-0.002076,14.703969,-5.06E-4,0.054543,0.01066,0.0,1.0,2262.526123
17.077089,-26.528055,-25.33461,2.733305,0.037437,2.733305,0.037437,-29.999857,-30.0,19.178154,4.142224,6.812063,297.646667,11.977459,-0.01978,-0.002353,20.866684,-5.24E-4,0.054614,0.010767,0.0,1.0,2263.435791
17.966841,-26.499687,-25.306242,2.737417,0.038515,2.737417,0.038515,-29.999857,-30.0,19.213125,4.540286,7.166418,297.638763,12.25318,-0.020862,-0.00305,15.498123,-5.35E-4,0.054666,0.010956,0.0,1.0,2265.14502
18.559614,-26.479792,-25.286348,2.74038,0.039124,2.74038,0.039124,-29.999857,-30.0,19.237427,4.813747,7.404508,297.632813,12.431189,-0.021581,-0.003559,19.289726,-5.5E-4,0.054748,0.011351,0.0,1.0,2266.428711
19.398905,-26.450277,-25.256832,2.744702,0.039744,2.744702,0.039744,-29.999857,-30.0,19.273207,5.211927,7.739972,297.625183,12.672642,-0.022465,-0.004061,12.453671,-5.59E-4,0.054808,0.011649,0.0,1.0,2268.361816
20.040325,-26.426662,-25.233219,2.748231,0.040055,2.748231,0.040055,-29.999857,-30.0,19.30164,5.524735,7.996819,297.620758,12.847039,-0.022817,-0.004179,20.589605,-5.68E-4,0.054894,0.01203,0.0,1.0,2269.895264
20.928007,-26.392427,-25.198982,2.753211,0.040189,2.753211,0.040189,-29.999857,-30.0,19.342537,5.969427,8.351677,297.617767,13.071357,-0.022882,-0.003823,21.653137,-5.72E-4,0.054965,0.012251,0.0,1.0,2272.060547
21.519329,-26.368624,-25.175179,2.756705,0.040157,2.756705,0.040157,-29.999857,-30.0,19.370787,6.27317,8.587724,297.618042,13.208614,-0.022609,-0.003261,14.421969,-5.74E-4,0.055064,0.012401,0.0,1.0,2273.519287
22.357841,-26.333647,-25.140202,2.738979,0.040122,2.738979,0.040122,-29.999857,-30.0,19.410789,6.71318,7.68045,297.621552,13.384747,-0.021761,-0.002067,19.178989,-5.74E-4,0.055134,0.012387,0.0,1.0,2275.595947
23.298607,-26.293871,-25.100426,2.736334,0.039888,2.736334,0.039888,-29.999857,-30.0,19.452307,7.218114,8.048873,297.629272,13.554503,-0.020524,-3.52E-4,22.172913,-5.73E-4,0.05478,0.012212,0.0,1.0,2277.924805
23.891777,-26.268501,-25.075056,2.742239,0.039833,2.742239,0.039833,-29.999857,-30.0,19.479519,7.543985,8.267302,297.634613,13.646355,-0.019697,6.6E-4,12.661782,-5.71E-4,0.054679,0.011958,0.0,1.0,2279.397461
24.780254,-26.255709,-25.062263,2.751956,0.040033,2.751956,0.040033,-29.999857,-30.0,19.521759,8.04261,8.676825,297.641754,13.687737,-0.018691,0.001854,12.891472,-5.69E-4,0.054845,0.011559,0.0,1.0,2281.607178
25.321634,-26.255709,-25.062263,2.765396,0.035784,2.765396,0.035784,-29.999857,-30.0,19.54949,8.352979,9.344334,297.644562,13.687737,-0.018664,0.002135,21.766422,-5.7E-4,0.054955,0.011307,0.0,1.0,2282.957275
26.254959,-26.255709,-25.062263,2.772861,0.03614,2.772861,0.03614,-19.999857,-20.0,19.599676,8.898861,9.666164,297.64624,13.687737,-0.018261,0.002252,14.310463,-5.11E-4,0.055308,0.011061,0.0,1.0,2285.287598
26.843912,-26.255709,-25.062263,2.775927,0.036897,2.775927,0.036897,-19.999857,-20.0,19.632267,9.249859,9.880238,297.64505,13.687737,-0.018541,0.001975,16.085781,-5.16E-4,0.055457,0.010977,0.0,1.0,2286.759033
27.726788,-26.255709,-25.062263,2.769812,0.038311,2.769812,0.038311,-19.999857,-20.0,19.682085,9.78513,9.964748,297.64032,13.687737,-0.019604,0.001163,14.202614,-5.27E-4,0.055519,0.011037,0.0,1.0,2288.96582
28.317451,-26.255709,-25.062263,2.760379,0.039273,2.760379,0.039273,-19.999857,-20.0,19.712309,10.147702,9.159839,297.636017,13.687737,-0.020461,5.18E-4,21.043056,-5.47E-4,0.055396,0.011273,0.0,1.0,2290.437744
29.177847,-26.255709,-25.062263,2.766788,0.040374,2.766788,0.040374,-19.999857,-20.0,19.757622,10.684443,9.468505,297.629089,13.687737,-0.021864,-4.2E-4,18.840347,-5.61E-4,0.055208,0.011488,0.0,1.0,2292.586182
29.790609,-26.255709,-25.062263,2.772586,0.041067,2.772586,0.041067,-19.999857,-20.0,19.790878,11.073481,9.67541,297.624146,13.687737,-0.022714,-0.001007,22.872875,-5.77E-4,0.055336,0.011835,0.0,1.0,2294.121826
30.672064,-26.255709,-25.062263,2.780838,0.041758,2.780838,0.041758,-19.999857,-20.0,19.84009,11.641722,10.091432,297.61853,13.687737,-0.023628,-0.001505,13.84167,-5.87E-4,0.055452,0.012082,0.0,1.0,2296.334717
31.257549,-26.255709,-25.062263,2.796196,0.035023,2.796196,0.035023,-19.999857,-20.0,19.8755,12.025661,10.919621,297.616119,13.687737,-0.024217,-0.001759,14.270368,-5.97E-4,0.055617,0.012363,0.0,1.0,2297.810547
32.085201,-26.255709,-25.062263,2.803486,0.034542,2.803486,0.034542,-19.999857,-20.0,19.927717,12.57635,11.190772,297.61557,13.687737,-0.023498,-0.001408,15.039481,-5.0E-4,0.055924,0.012483,0.0,1.0,2299.901611
32.717335,-26.255709,-25.062263,2.807459,0.034442,2.807459,0.034442,-19.999857,-20.0,19.968531,13.00268,11.403941,297.61734,13.687737,-0.022771,-8.2E-4,15.594948,-4.93E-4,0.05607,0.012511,0.0,1.0,2301.500977
33.593128,-26.255709,-25.062263,2.791454,0.037579,2.791454,0.037579,-19.999857,-20.0,20.023333,13.600223,10.12322,297.622589,13.687737,-0.021482,4.07E-4,16.086246,-4.92E-4,0.056149,0.012422,0.0,1.0,2303.717041
34.178196,-26.255709,-25.062263,2.791365,0.037793,2.791365,0.037793,-19.999857,-20.0,20.057453,14.003155,10.337562,297.627502,13.687737,-0.020471,0.001288,16.003641,-5.37E-4,0.055829,0.01216,0.0,1.0,2305.196045
35.05357,-26.255709,-25.062263,2.800135,0.037946,2.800135,0.037946,-19.999857,-20.0,20.109896,14.614195,10.626566,297.634705,13.687737,-0.018946,0.002408,16.042322,-5.4E-4,0.055827,0.011914,0.0,1.0,2307.416748
35.635307,-26.255709,-25.062263,2.814983,0.031826,2.814983,0.031826,-19.999857,-20.0,20.146732,15.025857,11.708756,297.638397,13.687737,-0.018594,0.002718,16.2346,-5.42E-4,0.056003,0.011554,0.0,1.0,2308.898438
36.504566,-26.255709,-25.062263,2.826196,0.030901,2.826196,0.030901,-19.999857,-20.0,20.205769,15.649567,11.935257,297.641235,13.687737,-0.017392,0.002925,16.924137,-4.55E-4,0.0563,0.011369,0.0,1.0,2311.121094
37.083157,-26.255709,-25.062263,2.829991,0.031687,2.829991,0.031687,-19.999857,-20.0,20.245869,16.069397,12.117309,297.640991,13.687737,-0.017254,0.002735,17.371641,-4.41E-4,0.056524,0.011227,0.0,1.0,2312.603271
37.949478,-26.255709,-25.062263,2.835582,0.033213,2.835582,0.033213,-19.999857,-20.0,20.307171,16.704979,12.397335,297.637482,13.687737,-0.017909,0.002004,18.018171,-4.53E-4,0.0566,0.01124,0.0,1.0,2314.827148
38.526787,-26.255709,-25.062263,2.826791,0.035385,2.826791,0.035385,-19.999857,-20.0,20.347031,17.132481,11.400426,297.633484,13.687737,-0.018329,0.00135,18.324022,-4.74E-4,0.056712,0.011415,0.0,1.0,2316.309814
39.392891,-26.255709,-25.062263,2.829405,0.036426,2.829405,0.036426,-19.999857,-20.0,20.404774,17.779242,11.70236,297.626526,13.687737,-0.020185,2.9E-4,18.35203,-5.06E-4,0.056536,0.011615,0.0,1.0,2318.535645
39.968765,-26.255709,-25.062263,2.833587,0.039661,2.833587,0.039661,-19.999857,-20.0,20.444159,18.213976,11.860997,297.621704,13.687737,-0.020386,-2.97E-4,18.457918,-5.2E-4,0.056588,0.011963,0.0,1.0,2320.020264
40.782654,-26.255709,-25.062263,2.841693,0.039175,2.841693,0.039175,-19.999857,-20.0,20.500824,18.834558,12.127124,297.615845,13.687737,-0.022328,-9.82E-4,18.684576,-5.67E-4,0.056672,0.012204,0.0,1.0,2322.124023
41.403625,-26.255709,-25.062263,2.847427,0.039218,2.847427,0.039218,-19.999857,-20.0,20.544977,19.312731,12.319592,297.612854,13.687737,-0.02316,-0.001195,18.894793,-5.6E-4,0.056834,0.012497,0.0,1.0,2323.733154
42.261608,-26.255709,-25.062263,2.846109,0.036742,2.846109,0.036742,-19.999857,-20.0,20.606529,19.979794,11.633828,297.611664,13.687737,-0.023716,-0.001041,23.222378,-5.6E-4,0.056949,0.012647,0.0,1.0,2325.960938
42.833843,-26.255709,-25.062263,2.846051,0.036566,2.846051,0.036566,-19.999857,-20.0,20.645506,20.427622,11.783288,297.61319,13.687737,-0.023374,-5.54E-4,23.134283,-5.25E-4,0.056922,0.012706,0.0,1.0,2327.446777
43.642086,-26.255709,-25.062263,2.853355,0.036502,2.853355,0.036502,-19.999857,-20.0,20.701761,21.066168,12.032264,297.617584,13.687737,-0.022214,4.03E-4,23.990927,-5.22E-4,0.056921,0.01263,0.0,1.0,2329.911865
44.258434,-26.255709,-25.062263,2.859024,0.036637,2.859024,0.036637,-19.999857,-20.0,20.745541,21.557621,12.208453,297.622009,13.687737,-0.02116,0.001211,15.358867,-5.21E-4,0.057067,0.01241,0.0,1.0,2332.659424
45.110497,-26.255709,-25.062263,2.863345,0.035496,2.863345,0.035496,-19.999857,-20.0,20.807133,22.242443,12.165177,297.627991,13.687737,-0.019871,0.002106,22.707449,-5.23E-4,0.05718,0.012189,0.0,1.0,2337.282227
45.634068,-26.255709,-25.062263,2.838978,0.034467,2.838978,0.034467,-19.999857,-20.0,20.838156,22.663387,9.721238,297.631348,13.687737,-0.018699,0.002564,22.281712,-5.07E-4,0.057267,0.01189,0.0,1.0,2340.406982
46.538399,-26.255709,-25.062263,2.844015,0.034814,2.844015,0.034814,-19.999857,-20.0,20.890247,23.394751,10.000629,297.63501,13.687737,-0.017561,0.002928,22.937548,-4.92E-4,0.05678,0.011722,0.0,1.0,2346.131592
47.061127,-26.255709,-25.062263,2.850161,0.035384,2.850161,0.035384,-19.999857,-20.0,20.921024,23.820587,10.13545,297.635132,13.687737,-0.017276,0.0028,22.515232,-4.97E-4,0.05688,0.011539,0.0,1.0,2349.567871
47.963203,-26.255709,-25.062263,2.85886,0.036869,2.85886,0.036869,-19.999857,-20.0,20.975092,24.560171,10.345137,297.631531,13.687737,-0.017723,0.002027,22.049671,-5.05E-4,0.057003,0.011533,0.0,1.0,2355.62915
48.532497,-26.255709,-25.062263,2.863728,0.037994,2.863728,0.037994,-19.999857,-20.0,21.0098,25.029854,10.473494,297.627136,13.687737,-0.018563,0.001274,21.884533,-5.27E-4,0.057177,0.011713,0.0,1.0,2359.511475
49.385902,-26.255709,-25.062263,2.87036,0.039748,2.87036,0.039748,-19.999857,-20.0,21.06266,25.738014,10.665192,297.618896,13.687737,-0.020393,3.8E-5,21.776636,-5.43E-4,0.057275,0.011932,0.0,1.0,2365.383301
49.954506,-26.255709,-25.062263,2.874866,0.040872,2.874866,0.040872,-19.999857,-20.0,21.098434,26.212482,10.794353,297.613129,13.687737,-0.02179,-7.18E-4,21.766018,-5.68E-4,0.057407,0.012344,0.0,1.0,2369.320313
50.806938,-26.255709,-25.062263,2.881514,0.042306,2.881514,0.042306,-19.999857,-20.0,21.152895,26.927629,10.986152,297.606049,13.687737,-0.023715,-0.001472,21.872192,-5.84E-4,0.057497,0.012633,0.0,1.0,2375.249023
51.375019,-26.255709,-25.062263,2.885949,0.042652,2.885949,0.042652,-19.999857,-20.0,21.18984,27.406633,11.214025,297.602875,13.687737,-0.025192,-0.001698,21.97998,-6.04E-4,0.05763,0.012987,0.0,1.0,2379.213379
52.225029,-26.255709,-25.062263,2.902375,0.024241,2.902375,0.024241,-19.999857,-20.0,21.249804,28.128384,12.289986,297.601013,13.687737,-0.025697,-0.001919,22.549711,-6.09E-4,0.057719,0.013145,0.0,1.0,2385.173096
52.791306,-26.255709,-25.062263,2.907336,0.024422,2.907336,0.024422,-19.999857,-20.0,21.290979,28.611654,12.410605,297.602051,13.687737,-0.025206,-0.001415,22.984182,-3.46E-4,0.058047,0.013239,0.0,1.0,2389.153076
53.640736,-26.255709,-25.062263,2.912791,0.02481,2.912791,0.02481,-19.999857,-20.0,21.353519,29.339628,12.604347,297.605988,13.687737,-0.023813,-3.89E-4,23.632874,-3.49E-4,0.058147,0.013187,0.0,1.0,2395.133301
54.206833,-26.255709,-25.062263,2.916884,0.025042,2.916884,0.025042,-19.999857,-20.0,21.395765,29.826935,12.739136,297.609497,13.687737,-0.022597,3.47E-4,18.22216,-3.54E-4,0.058256,0.01299,0.0,1.0,2399.127197
55.05566,-26.255709,-25.062263,2.923128,0.025501,2.923128,0.025501,-19.999857,-20.0,21.459982,30.560795,12.942189,297.614502,13.687737,-0.020665,0.001264,23.476076,-3.58E-4,0.058338,0.012814,0.0,1.0,2405.127686
55.574184,-26.255709,-25.062263,2.927108,0.02588,2.927108,0.02588,-19.999857,-20.0,21.499729,31.010935,13.068234,297.616791,13.687737,-0.019497,0.001633,17.349194,-3.64E-4,0.058463,0.012564,0.0,1.0,2408.800781
56.42215,-26.255709,-25.062263,2.933314,0.026748,2.933314,0.026748,-19.999857,-20.0,21.565596,31.750177,13.273465,297.618103,13.687737,-0.018224,0.001789,23.301609,-3.7E-4,0.058542,0.01245,0.0,1.0,2414.820313
57.034153,-26.255709,-25.062263,2.937902,0.027531,2.937902,0.027531,-19.999857,-20.0,21.613804,32.286064,13.421184,297.616974,13.687737,-0.017799,0.001561,23.469887,-3.82E-4,0.058666,0.012384,0.0,1.0,2419.174805
57.883381,-26.255709,-25.062263,2.910875,0.02934,2.910875,0.02934,-19.999857,-20.0,21.673895,33.030743,9.001547,297.612885,13.687737,-0.017905,9.26E-4,18.832613,-3.93E-4,0.058758,0.01244,0.0,1.0,2425.214355
58.40604,-26.255709,-25.062263,2.905063,0.030006,2.905063,0.030006,-19.999857,-20.0,21.701622,33.487358,9.152011,297.609863,13.687737,-0.018259,4.88E-4,22.592258,-4.19E-4,0.058217,0.012645,0.0,1.0,2428.916504
59.282333,-26.255709,-25.062263,2.914917,0.031228,2.914917,0.031228,-19.999857,-20.0,21.749292,34.257854,9.379583,297.603912,13.687737,-0.019177,-2.85E-4,17.842642,-4.29E-4,0.058101,0.012796,0.0,1.0,2435.158936
59.873142,-26.255709,-25.062263,2.921149,0.032094,2.921149,0.032094,-19.999857,-20.0,21.782082,34.780216,9.498662,297.599731,13.687737,-0.019904,-7.58E-4,22.236553,-4.46E-4,0.058298,0.013094,0.0,1.0,2439.385254
60.675198,-26.255709,-25.062263,2.933589,0.024988,2.933589,0.024988,-19.999857,-20.0,21.828989,35.492817,10.572043,297.594971,13.687737,-0.020914,-0.001379,21.680281,-4.58E-4,0.058423,0.013303,0.0,1.0,2445.151367
61.286884,-26.255709,-25.062263,2.940078,0.025385,2.940078,0.025385,-19.999857,-20.0,21.867378,36.039387,10.678629,297.592773,13.687737,-0.021355,-0.001418,21.660917,-3.57E-4,0.058672,0.013541,0.0,1.0,2449.619629
62.08622,-26.255709,-25.062263,2.944889,0.026477,2.944889,0.026477,-19.999857,-20.0,21.918121,36.756203,10.812178,297.592072,13.687737,-0.021655,-0.001109,21.706038,-3.63E-4,0.058802,0.013651,0.0,1.0,2455.528809
62.649986,-26.255709,-25.062263,2.948554,0.027166,2.948554,0.027166,-19.999857,-20.0,21.954334,37.263557,10.913135,297.592987,13.687737,-0.021568,-6.98E-4,21.73382,-3.78E-4,0.058898,0.013686,0.0,1.0,2459.730713
63.545288,-26.255709,-25.062263,2.917964,0.025071,2.917964,0.025071,-19.999857,-20.0,22.001225,38.069134,6.101125,297.596252,13.687737,-0.020455,8.4E-5,21.006483,-3.88E-4,0.058971,0.01364,0.0,1.0,2466.419922
64.113632,-26.255709,-25.062263,2.916382,0.0272,2.916382,0.0272,-19.999857,-20.0,22.021816,38.579357,6.247972,297.599457,13.687737,-0.019941,7.65E-4,19.453636,-3.58E-4,0.058359,0.013477,0.0,1.0,2470.668213
64.916389,-26.255709,-25.062263,2.925917,0.031337,2.925917,0.031337,-19.999857,-20.0,22.051748,39.304016,6.409625,297.592712,13.687737,-0.020087,-4.95E-4,13.549068,-3.89E-4,0.058328,0.0,0.0,1.0,2476.708008
65.528763,-26.255709,-25.062263,2.931594,0.033341,2.931594,0.033341,-19.999857,-20.0,22.075064,39.859577,6.495911,297.551941,13.687737,-0.022017,-0.007086,20.013084,-4.48E-4,0.058518,3.37E-4,0.0,1.0,2481.338135
66.373894,-26.255709,-25.062263,2.937108,0.032958,2.937108,0.032958,-19.999857,-20.0,22.107813,40.63073,6.599749,297.454468,13.687737,-0.028967,-0.021371,22.318213,-4.76E-4,0.058632,0.002376,0.0,1.0,2487.759033
66.935173,-26.255709,-25.062263,2.940979,0.031573,2.940979,0.031573,-19.999857,-20.0,22.129942,41.145996,6.674847,297.376038,13.687737,-0.036015,-0.03174,21.969938,-4.71E-4,0.058742,0.007249,0.0,1.0,2492.041748
67.774063,-26.255709,-25.062263,2.947186,0.028125,2.947186,0.028125,-19.999857,-20.0,22.163603,41.920525,6.789002,297.269775,13.687737,-0.047831,-0.043399,12.478806,-4.51E-4,0.05882,0.011171,0.0,1.0,2498.464844
68.331604,-26.255709,-25.062263,2.954517,0.014005,2.954517,0.014005,-19.999857,-20.0,22.187666,42.437897,8.177447,297.219482,13.687737,-0.055603,-0.047234,18.717239,-4.02E-4,0.058944,0.016484,0.0,1.0,2502.745117
69.167221,-26.255709,-25.062263,2.929639,-0.067811,2.929639,-0.067811,-19.999857,-20.0,22.231346,43.21537,9.331756,297.195282,13.687737,-0.063992,-0.045589,21.050522,-2.0E-4,0.05909,0.018999,0.0,1.0,2509.16626
69.726509,-26.255709,-25.062263,2.878852,-0.179749,2.878852,-0.179749,-19.999857,-20.0,22.26333,43.734604,9.757021,297.217163,13.687737,-0.065514,-0.039979,13.042258,9.69E-4,0.058593,0.020209,0.0,1.0,2513.456055
70.568581,-26.255709,-25.062263,2.793026,-0.37637,2.793026,-0.37637,-19.999857,-20.0,22.312284,44.514832,9.742518,297.298584,13.687737,-0.060235,-0.025716,18.892694,0.002568,0.057577,0.019115,0.0,1.0,2519.915039
71.131813,-26.255709,-25.062263,2.743466,-0.499886,2.743466,-0.499886,-19.999857,-20.0,22.344599,45.035931,9.59681,297.370789,13.687737,-0.052199,-0.014527,20.365538,0.005377,0.055861,0.015044,0.0,1.0,2524.239258
71.976944,-26.255709,-25.062263,2.692962,-0.653031,2.692962,-0.653031,-19.999857,-20.0,22.392229,45.81905,9.531694,297.464661,13.687737,-0.036332,-0.001659,14.963673,0.007141,0.054869,0.011433,0.0,1.0,2530.751709
72.538528,-26.255709,-25.062263,2.661732,-0.750678,2.661732,-0.750678,-19.999857,-20.0,22.424334,46.342072,9.69338,297.497375,13.687737,-0.025406,0.001077,22.751534,0.009329,0.053859,0.00674,0.0,1.0,2535.10376
73.3358,-26.255709,-25.062263,2.576524,-0.92063,2.576524,-0.92063,-19.999857,-20.0,22.460852,47.084244,4.899893,297.478851,13.687737,-0.013538,-0.006674,13.731606,0.010724,0.053235,0.005104,0.0,1.0,2541.278076
73.950546,-26.255709,-25.062263,2.503901,-1.080924,2.503901,-1.080924,-19.999857,-20.0,22.477932,47.652771,4.581815,297.412048,13.687737,-0.005868,-0.020693,19.367046,0.013152,0.05153,0.00603,0.0,1.0,2546.016846
74.800186,-26.255709,-25.062263,2.446904,-1.267131,2.446904,-1.267131,-19.999857,-20.0,22.500832,48.44136,4.781385,297.260345,13.687737,-8.14E-4,-0.045969,21.5369,0.015442,0.050078,0.00937,0.0,1.0,2552.601318
75.365356,-26.255709,-25.062263,2.436334,-1.403355,2.436334,-1.403355,-19.999857,-20.0,22.518803,48.967987,6.108365,297.13623,13.687737,-0.002072,-0.064597,20.769958,0.018102,0.048938,0.016956,0.0,1.0,2557.002686
76.158478,-26.255709,-25.062263,2.510589,-1.702865,2.510589,-1.702865,-19.999857,-20.0,22.557098,49.715221,11.617094,296.965637,13.687737,-0.008364,-0.089385,13.973766,0.020048,0.048727,0.023161,0.0,1.0,2563.241211
76.754921,-26.255709,-25.062263,2.606503,-2.000728,2.606503,-2.000728,-19.999857,-20.0,22.620951,50.287437,24.379763,296.860016,13.687737,-0.011051,-0.103482,13.749116,0.024327,0.050212,0.031691,0.0,1.0,2568.001953
77.556541,-26.255709,-25.062263,2.739118,-2.369162,2.739118,-2.369162,-19.999857,-20.0,22.804905,51.080456,49.376232,296.775391,13.687737,-0.012314,-0.109694,21.808735,0.028582,0.05213,0.036972,0.0,1.0,2574.557373
78.07045,-26.255709,-25.062263,2.838963,-2.543634,2.838963,-2.543634,-19.999857,-20.0,23.001816,51.60928,68.261612,296.754944,13.687737,-0.010529,-0.106092,23.593355,0.033845,0.054782,0.041203,0.0,1.0,2578.883057
78.768066,-26.255709,-25.062263,2.991184,-2.651607,2.991184,-2.651607,-19.999857,-20.0,23.392599,52.358089,96.636894,296.751984,13.687737,-0.004122,-0.094515,37.4254,0.036338,0.056779,0.042226,0.0,1.0,2584.91626
79.275131,-26.255709,-25.062263,3.122249,-2.634121,3.122249,-2.634121,-19.999857,-20.0,23.783655,52.930004,119.279633,296.745239,13.687737,0.002014,-0.085367,50.244473,0.03788,0.059824,0.042374,0.0,1.0,2589.431152
79.94059,-26.255709,-25.062263,3.29031,-2.500916,3.29031,-2.500916,-19.999857,-20.0,24.461132,53.720081,150.580032,296.696869,13.687737,0.011968,-0.07809,70.619209,0.03763,0.062445,0.042711,0.0,1.0,2595.507813
80.362473,-26.255709,-25.062263,3.3974,-2.372197,3.3974,-2.372197,-19.999857,-20.0,24.997452,54.245193,170.305481,296.629822,13.687737,0.017575,-0.078438,85.402138,0.035727,0.065806,0.045129,0.0,1.0,2599.311035
80.968445,-26.255709,-25.062263,3.523763,-2.179943,3.523763,-2.179943,-19.999857,-20.0,25.921455,55.029766,198.285019,296.488922,13.687737,0.022925,-0.085043,108.618568,0.033889,0.067948,0.048482,0.0,1.0,2603.918213
81.355911,-26.255709,-25.062263,3.605111,-2.068737,3.605111,-2.068737,-19.999857,-20.0,26.613398,55.550419,216.103653,296.38269,13.687737,0.024235,-0.091065,124.495621,0.031142,0.070475,0.055527,0.0,1.0,2606.443359
81.913223,-26.255709,-25.062263,3.724388,-1.946694,3.724388,-1.946694,-19.999857,-20.0,27.760345,56.327255,241.828827,296.246185,13.687737,0.023789,-0.096118,148.666672,0.029553,0.072102,0.060838,0.0,1.0,2609.68042
82.2687,-26.255709,-25.062263,3.813471,-1.879209,3.813471,-1.879209,-19.999857,-20.0,28.595877,56.842091,258.872528,296.184998,13.687737,0.023318,-0.09457,164.772827,0.02781,0.074488,0.067664,0.0,1.0,2611.575195
82.776581,-26.255709,-25.062263,3.937603,-1.77766,3.937603,-1.77766,-19.999857,-20.0,29.955372,57.609226,283.981415,296.156433,13.687737,0.024311,-0.082492,188.932587,0.026846,0.076269,0.070723,0.0,1.0,2614.139404
83.071289,-26.255709,-25.062263,4.016123,-1.695303,4.016123,-1.695303,-19.999857,-20.0,30.846693,58.07473,298.958435,296.171814,13.687737,0.027326,-0.070401,203.557602,0.025395,0.078752,0.072151,0.0,1.0,2615.57959
83.55381,-26.255709,-25.062263,4.143127,-1.5047,4.143127,-1.5047,-19.999857,-20.0,32.502312,58.872299,328.238342,296.229095,13.687737,0.035245,-0.046365,228.987061,0.024219,0.080322,0.071382,0.0,1.0,2617.894043
83.840057,-26.255709,-25.062263,4.239888,-1.351282,4.239888,-1.351282,-19.999857,-20.0,33.631382,59.371468,348.733185,296.264099,13.687737,0.04208,-0.032714,245.334763,0.021496,0.082863,0.068518,0.0,1.0,2619.263184
84.242462,-26.255709,-25.062263,4.386389,-1.108381,4.386389,-1.108381,-9.999858,-10.0,35.455467,60.113045,378.956116,296.281525,13.687737,0.052742,-0.020113,270.556183,0.019304,0.084798,0.066768,0.0,1.0,2621.20459
84.495941,-26.255709,-25.062263,4.477448,-0.951477,4.477448,-0.951477,-9.999858,-10.0,36.748062,60.602409,395.563904,296.262909,13.687737,0.05858,-0.017617,287.641968,0.015834,0.087728,0.065897,0.0,1.0,2622.43335
84.863403,-26.255709,-25.062263,4.554492,-0.768256,4.554492,-0.768256,-9.999858,-10.0,38.778942,61.328648,415.568848,296.200439,13.687737,0.064019,-0.02076,313.0896,0.013593,0.089549,0.066827,0.0,1.0,2624.193359
85.103401,-26.255709,-25.062263,4.591225,-0.684305,4.591225,-0.684305,-9.999858,-10.0,40.184898,61.807522,427.426849,296.150482,13.687737,0.065125,-0.02462,329.479095,0.010975,0.09109,0.069951,0.0,1.0,2625.320801
85.454758,-26.255709,-25.062263,4.65218,-0.621799,4.65218,-0.621799,-9.999858,-10.0,42.365459,62.517822,444.249176,296.096313,13.687737,0.064302,-0.027636,352.849823,0.009776,0.091825,0.072449,0.0,1.0,2626.953857
85.681618,-26.255709,-25.062263,4.706989,-0.603235,4.706989,-0.603235,-9.999858,-10.0,43.866093,62.98595,455.803009,296.086365,13.687737,0.063512,-0.025716,367.556152,0.008883,0.093044,0.075157,0.0,1.0,2628.007324
85.990097,-26.255709,-25.062263,4.78676,-0.58229,4.78676,-0.58229,-9.999858,-10.0,46.060455,63.64159,473.258698,296.115112,13.687737,0.063801,-0.016687,387.256897,0.008618,0.09414,0.075655,0.0,1.0,2629.452881
86.216698,-26.255709,-25.062263,4.852486,-0.550269,4.852486,-0.550269,1.42E-4,0.0,47.795647,64.136871,487.397156,296.163391,13.687737,0.065845,-0.006216,402.00238,0.008318,0.095735,0.074217,0.0,1.0,2630.518066
86.51506,-26.255709,-25.062263,4.937119,-0.469242,4.937119,-0.469242,1.42E-4,0.0,50.28429,64.813751,507.441345,296.239166,13.687737,0.071467,0.00846,421.983551,0.007861,0.09705,0.071803,0.0,1.0,2631.929443
86.70562,-26.255709,-25.062263,4.995098,-0.39516,4.995098,-0.39516,1.42E-4,0.0,51.998615,65.259178,520.662781,296.2789,13.687737,0.075987,0.015676,435.108551,0.006703,0.098742,0.068015,0.0,1.0,2632.833496
86.98188,-26.255709,-25.062263,5.070136,-0.282104,5.070136,-0.282104,1.42E-4,0.0,54.652836,65.918472,540.338806,296.299683,13.687737,0.082041,0.019022,454.415955,0.005645,0.099902,0.066028,0.0,1.0,2634.140625
87.160446,-26.255709,-25.062263,5.123694,-0.21999,5.123694,-0.21999,1.42E-4,0.0,56.476185,66.352097,553.174438,296.287079,13.687737,0.084246,0.016543,467.459625,0.00403,0.101403,0.064989,0.0,1.0,2634.983887
87.421623,-26.255709,-25.062263,5.197516,-0.17473,5.197516,-0.17473,10.000142,10.0,59.290787,66.99366,571.992981,296.244171,13.687737,0.084293,0.008598,486.777191,0.003143,0.102474,0.065619,0.0,1.0,2636.212158
87.591003,-26.255709,-25.062263,5.249267,-0.176249,5.249267,-0.176249,10.000142,10.0,61.218853,67.415474,584.40741,296.214447,13.687737,0.082408,0.003199,499.506165,0.002496,0.10395,0.067764,0.0,1.0,2637.009521
87.837067,-26.255709,-25.062263,5.320894,-0.214647,5.320894,-0.214647,10.000142,10.0,64.188774,68.039391,602.938232,296.196075,13.687737,0.07837,-4.38E-4,518.155396,0.002518,0.104985,0.069251,0.0,1.0,2638.175293
87.994385,-26.255709,-25.062263,5.375451,-0.246986,5.375451,-0.246986,10.000142,10.0,66.219818,68.449471,615.2724,296.208771,13.687737,0.076254,0.001251,530.750793,0.003066,0.106418,0.070169,0.0,1.0,2638.932373
88.219681,-26.255709,-25.062263,5.454537,-0.274839,5.454537,-0.274839,10.000142,10.0,69.34449,69.05574,634.053467,296.261566,13.687737,0.075281,0.009158,549.26062,0.003528,0.107509,0.069534,0.0,1.0,2640.036133
88.361717,-26.255709,-25.062263,5.511184,-0.270657,5.511184,-0.270657,20.000143,20.0,71.479729,69.453987,646.652466,296.308929,13.687737,0.076451,0.016105,561.640564,0.003926,0.109091,0.066895,0.0,1.0,2640.749512
88.564377,-26.255709,-25.062263,5.586812,-0.227991,5.586812,-0.227991,20.000143,20.0,74.761528,70.042397,665.415222,296.370148,13.687737,0.080079,0.024335,580.063965,0.003867,0.110224,0.064526,0.0,1.0,2641.784912
88.682175,-26.255709,-25.062263,5.633618,-0.18991,5.633618,-0.18991,20.000143,20.0,76.812569,70.39666,676.598999,296.391724,13.687737,0.082566,0.026459,591.064148,0.003257,0.111736,0.061465,0.0,1.0,2642.397461
88.879768,-26.255709,-25.062263,5.705564,-0.132134,5.705564,-0.132134,20.000143,20.0,80.434471,70.999077,695.229858,296.390289,13.687737,0.084808,0.02344,610.335022,0.002713,0.112672,0.060387,0.0,1.0,2643.422363
89.000404,-26.255709,-25.062263,5.753055,-0.113712,5.753055,-0.113712,30.000143,30.0,82.771667,71.373383,706.637634,296.370026,13.687737,0.084452,0.018388,622.403076,0.001888,0.114111,0.060458,0.0,1.0,2644.050293
89.176552,-26.255709,-25.062263,5.814591,-0.126636,5.814591,-0.126636,30.000143,30.0,86.347542,71.925964,723.052002,296.333374,13.687737,0.081436,0.010027,640.32605,0.001624,0.115061,0.061472,0.0,1.0,2644.967285
89.281502,-26.255709,-25.062263,5.853878,-0.153423,5.853878,-0.153423,30.000143,30.0,88.572197,72.258469,732.661255,296.318939,13.687737,0.07851,0.006455,650.987915,0.001809,0.116292,0.063304,0.0,1.0,2645.513672
89.454407,-26.255709,-25.062263,5.917496,-0.210694,5.917496,-0.210694,40.000141,40.0,92.482903,72.823586,748.727173,296.32666,13.687737,0.074432,0.005986,669.228271,0.002192,0.117078,0.064026,0.0,1.0,2646.43335
89.558846,-26.255709,-25.062263,5.962985,-0.239952,5.962985,-0.239952,40.000141,40.0,94.995987,73.17453,758.780396,296.35321,13.687737,0.073008,0.009266,680.621155,0.00301,0.11835,0.06364,0.0,1.0,2646.997559
89.707069,-26.255709,-25.062263,6.023437,-0.251321,6.023437,-0.251321,40.000141,40.0,98.828575,73.692284,773.715515,296.410095,13.687737,0.073297,0.016858,697.174316,0.003428,0.11926,0.062312,0.0,1.0,2647.818115
89.793617,-26.255709,-25.062263,6.061605,-0.238932,6.061605,-0.238932,40.000141,40.0,101.206818,74.003578,782.582153,296.444855,13.687737,0.074812,0.021295,707.097412,0.00359,0.120469,0.059468,0.0,1.0,2648.303467
89.934814,-26.255709,-25.062263,6.118284,-0.194333,6.118284,-0.194333,50.000141,50.0,105.377731,74.53215,797.383789,296.48111,13.687737,0.07772,0.024664,723.793457,0.003413,0.121232,0.05773,0.0,1.0,2649.114258
90.021019,-26.255709,-25.062263,6.154582,-0.16489,6.154582,-0.16489,50.000141,50.0,108.051186,74.860077,806.320068,296.483521,13.687737,0.078933,0.023304,734.16925,0.002776,0.122366,0.055917,0.0,1.0,2649.609375
90.147224,-26.255709,-25.062263,6.200998,-0.143204,6.200998,-0.143204,50.000141,50.0,112.115891,75.343483,819.030518,296.461243,13.687737,0.078727,0.017028,749.570801,0.002356,0.123092,0.055797,0.0,1.0,2650.330566
90.222916,-26.255709,-25.062263,6.230604,-0.147925,6.230604,-0.147925,60.000141,60.0,114.630257,75.633949,826.406494,296.440735,13.687737,0.07701,0.012233,758.701904,0.002046,0.12402,0.056911,0.0,1.0,2650.760254
90.350327,-26.255709,-25.062263,6.276016,-0.186761,6.276016,-0.186761,60.000141,60.0,119.02536,76.126968,838.620056,296.416473,13.687737,0.073052,0.006187,773.724243,0.002113,0.124612,0.057936,0.0,1.0,2651.484863
90.427902,-26.255709,-25.062263,6.306928,-0.22078,6.306928,-0.22078,60.000141,60.0,121.833641,76.432747,846.059204,296.417297,13.687737,0.070479,0.005238,783.110291,0.002668,0.12552,0.059149,0.0,1.0,2651.931396
90.539803,-26.255709,-25.062263,6.349879,-0.261468,6.349879,-0.261468,70.000145,70.0,126.092072,76.883385,856.930176,296.446259,13.687737,0.068045,0.008546,796.798401,0.003154,0.126139,0.059108,0.0,1.0,2652.584229
90.610474,-26.255709,-25.062263,6.381067,-0.273196,6.381067,-0.273196,70.000145,70.0,128.960831,77.178482,864.0672,296.478333,13.687737,0.067935,0.012777,805.592712,0.003735,0.126998,0.05766,0.0,1.0,2653.007324
90.705208,74.954353,76.147797,6.420361,-0.26136,6.420361,-0.26136,70.000145,70.0,133.065536,77.589302,874.023621,296.523468,13.760319,0.06967,0.018506,817.543274,0.003903,0.127621,0.056056,0.0,1.0,2653.588867
90.774239,78.063049,79.256493,6.450744,-0.236922,6.450744,-0.236922,80.000145,80.0,136.235489,77.897758,881.372742,296.546967,13.843989,0.071292,0.020883,826.473145,0.003734,0.128407,0.053799,0.0,1.0,2654.019531
90.866638,82.418236,83.611687,6.486582,-0.200509,6.486582,-0.200509,80.000145,80.0,140.667816,78.316795,891.151001,296.552185,13.954751,0.073129,0.019486,838.527344,0.003385,0.129015,0.052625,0.0,1.0,2654.597168
90.926857,85.352631,86.546074,6.509946,-0.185939,6.509946,-0.185939,90.000145,90.0,143.648972,78.591019,897.280457,296.539581,14.024259,0.073104,0.015952,846.3078,0.002864,0.129732,0.052364,0.0,1.0,2654.97168
91.015877,89.796005,90.989449,6.539552,-0.192541,6.539552,-0.192541,90.000145,90.0,148.157944,78.994797,905.913513,296.510834,14.120452,0.071085,0.009244,857.425842,0.002656,0.130199,0.052994,0.0,1.0,2655.520752
91.073837,92.788277,93.98172,6.560562,-0.213744,6.560562,-0.213744,90.000145,90.0,151.187088,79.259041,911.345886,296.495514,14.178683,0.068818,0.005636,864.713135,0.002751,0.130791,0.054431,0.0,1.0,2655.87915
91.158951,97.319107,98.51255,6.590814,-0.257066,6.590814,-0.257066,100.000145,100.0,155.764252,79.648125,919.246887,296.493713,14.257154,0.065317,0.004027,875.344788,0.003053,0.131211,0.055197,0.0,1.0,2656.405762
91.213303,100.365723,101.559174,6.613205,-0.283064,6.613205,-0.283064,100.000145,100.0,158.837402,79.902725,924.458313,296.508606,14.303954,0.063835,0.00568,882.150085,0.003672,0.131816,0.055287,0.0,1.0,2656.749512
91.286797,104.713219,105.906662,6.641608,-0.299132,6.641608,-0.299132,100.000145,100.0,163.220779,80.256927,931.755615,296.544403,14.363583,0.06347,0.010446,891.257263,0.004044,0.132264,0.054543,0.0,1.0,2657.224365
91.338669,108.065086,109.25853,6.664331,-0.29337,6.664331,-0.29337,110.000145,110.0,166.595612,80.522697,937.191833,296.574066,14.404369,0.064367,0.014321,898.07373,0.004273,0.132832,0.052753,0.0,1.0,2657.577637
91.408188,112.745659,113.93911,6.692549,-0.26582,6.692549,-0.26582,110.000145,110.0,171.300613,80.883492,944.544067,296.600647,14.454175,0.066529,0.017061,907.361816,0.004191,0.133287,0.05127,0.0,1.0,2658.052246
91.453094,115.887756,117.0812,6.711094,-0.244535,6.711094,-0.244535,120.000145,120.0,174.457275,81.119423,949.259583,296.603973,14.482841,0.067598,0.016435,913.254944,0.003797,0.133851,0.049941,0.0,1.0,2658.359863
91.518631,120.633835,121.827286,6.733742,-0.226542,6.733742,-0.226542,120.000145,120.0,179.221008,81.466545,955.932373,296.588379,14.518324,0.067771,0.012111,921.808167,0.003493,0.134222,0.049774,0.0,1.0,2658.810059
91.561768,123.8209,125.014343,6.749037,-0.229049,6.749037,-0.229049,120.000145,120.0,182.414673,81.693527,960.082886,296.570831,14.536629,0.066659,0.0082,927.43512,0.003236,0.134675,0.050554,0.0,1.0,2659.104004
91.625877,128.630951,129.824387,6.769776,-0.255198,6.769776,-0.255198,130.000137,130.0,187.230484,82.027512,966.005371,296.550568,14.555999,0.063775,0.003608,935.492615,0.003272,0.134981,0.051431,0.0,1.0,2659.537109
91.667618,131.857971,133.051422,6.785022,-0.280553,6.785022,-0.280553,130.000137,130.0,190.457092,82.245911,969.814148,296.548065,14.56391,0.061797,0.002529,940.713135,0.003646,0.135396,0.052444,0.0,1.0,2659.821045
91.727562,136.725357,137.918793,6.806777,-0.312741,6.806777,-0.312741,140.000137,140.0,195.320724,82.567253,975.44519,296.565308,14.56953,0.059804,0.004531,948.166443,0.004008,0.1357,0.05257,0.0,1.0,2660.239014
91.7621,139.715637,140.909088,6.821469,-0.322891,6.821469,-0.322891,140.000137,140.0,198.306656,82.759972,978.855164,296.585236,14.570013,0.059624,0.007265,952.55603,0.004468,0.136136,0.051707,0.0,1.0,2660.489258
91.81823,144.907471,146.100906,6.844442,-0.31554,6.844442,-0.31554,140.000137,140.0,203.488785,83.08638,984.701111,296.621155,14.566916,0.060854,0.012086,959.849121,0.004613,0.136429,0.050711,0.0,1.0,2660.9104
91.851952,148.206177,149.399612,6.859328,-0.299229,6.859328,-0.299229,150.000137,150.0,206.777374,83.288368,988.316772,296.637024,14.562822,0.062148,0.013869,964.417175,0.004508,0.136889,0.048915,0.0,1.0,2661.169434
91.89801,152.900665,154.094116,6.876147,-0.272898,6.876147,-0.272898,150.000137,150.0,211.456512,83.569061,993.217407,296.641174,14.554342,0.063744,0.013241,970.596375,0.004275,0.137187,0.048122,0.0,1.0,2661.5271
91.932541,156.506805,157.700241,6.888311,-0.259799,6.888311,-0.259799,160.000137,160.0,215.049667,83.779465,996.690002,296.630676,14.545592,0.063878,0.010536,975.115906,0.003899,0.137523,0.047914,0.0,1.0,2661.794434
91.980331,161.525848,162.719284,6.903268,-0.263045,6.903268,-0.263045,160.000137,160.0,220.044846,84.06488,1001.186768,296.607178,14.530031,0.062502,0.005479,981.290833,0.003711,0.137766,0.048439,0.0,1.0,2662.158203
92.012016,164.887283,166.080734,6.913891,-0.278208,6.913891,-0.278208,160.000137,160.0,223.38707,84.251419,1004.037537,296.593872,14.517563,0.060825,0.002665,985.299316,0.003758,0.138065,0.049614,0.0,1.0,2662.397217
92.058426,169.950241,171.143692,6.92886,-0.310596,6.92886,-0.310596,170.000137,170.0,228.417999,84.525749,1008.183594,296.589874,14.496506,0.058169,0.00132,991.061646,0.003974,0.138278,0.050279,0.0,1.0,2662.750977
92.099892,174.752884,175.946335,6.944415,-0.335789,6.944415,-0.335789,170.000137,170.0,233.188202,84.778908,1012.032959,296.606354,14.475405,0.05674,0.003493,996.195313,0.004437,0.138577,0.050479,0.0,1.0,2663.078857
92.129623,178.439316,179.632751,6.957257,-0.343096,6.957257,-0.343096,180.000137,180.0,236.848312,84.968681,1015.004944,296.627808,14.459473,0.056825,0.006558,999.97876,0.004797,0.138888,0.049655,0.0,1.0,2663.324951
92.155655,181.853592,183.047043,6.968122,-0.338073,6.968122,-0.338073,180.000137,180.0,240.23645,85.140938,1017.761169,296.647919,14.445468,0.05768,0.009357,1003.424377,0.004901,0.139145,0.048582,0.0,1.0,2663.547607
92.19062,186.707123,187.900558,6.981406,-0.317078,6.981406,-0.317078,190.000137,190.0,245.051682,85.380234,1021.479248,296.666107,14.427222,0.059497,0.011462,1008.135681,0.00483,0.139362,0.047577,0.0,1.0,2663.855957
92.216209,190.429382,191.622818,6.991539,-0.298558,6.991539,-0.298558,190.000137,190.0,248.745453,85.559547,1024.190552,296.667694,14.414527,0.060396,0.010974,1011.506348,0.00453,0.139628,0.046668,0.0,1.0,2664.086182
92.251335,195.603516,196.796951,7.00334,-0.284163,7.00334,-0.284163,200.000137,200.0,253.875656,85.80265,1027.740479,296.653503,14.398391,0.060582,0.007599,1016.182007,0.004265,0.139831,0.046588,0.0,1.0,2664.398926
92.27475,199.064728,200.258163,7.011106,-0.28605,7.011106,-0.28605,200.000137,200.0,257.305298,85.961449,1029.958008,296.638824,14.388361,0.05974,0.0046,1019.231018,0.004059,0.140067,0.047298,0.0,1.0,2664.604248
92.309547,204.272263,205.465714,7.021468,-0.306194,7.021468,-0.306194,200.000137,200.0,262.463287,86.194885,1033.099243,296.622253,14.37439,0.057547,0.001209,1023.628235,0.004086,0.140222,0.048032,0.0,1.0,2664.908447
92.332039,207.752991,208.946426,7.029335,-0.325379,7.029335,-0.325379,210.000137,210.0,265.910431,86.347382,1035.115967,296.620148,14.366068,0.056081,5.41E-4,1026.390503,0.004374,0.140429,0.04886,0.0,1.0,2665.108887
92.364319,212.990341,214.183777,7.041084,-0.348774,7.041084,-0.348774,210.000137,210.0,271.093781,86.571556,1038.130981,296.633423,14.3559,0.054702,0.002351,1030.482544,0.004648,0.140587,0.048965,0.0,1.0,2665.405273
92.382736,216.199158,217.392609,7.049201,-0.355269,7.049201,-0.355269,220.000137,220.0,274.268799,86.705872,1039.985718,296.648529,14.351505,0.054705,0.004575,1032.886597,0.004982,0.140822,0.048302,0.0,1.0,2665.583496
92.411964,221.753906,222.947357,7.061864,-0.347152,7.061864,-0.347152,220.000137,220.0,279.766327,86.933159,1043.194946,296.674896,14.347843,0.055863,0.008325,1036.787598,0.005075,0.140984,0.047546,0.0,1.0,2665.884521
92.429367,225.27066,226.464111,7.069723,-0.333344,7.069723,-0.333344,220.000137,220.0,283.247101,87.073677,1045.180176,296.685486,14.348165,0.056956,0.009584,1039.13855,0.004959,0.141237,0.046228,0.0,1.0,2666.070313
92.454262,230.562622,231.756073,7.078902,-0.311567,7.078902,-0.311567,230.000137,230.0,288.480316,87.280106,1047.976563,296.685364,14.35209,0.058223,0.008728,1042.792969,0.004762,0.141394,0.045699,0.0,1.0,2666.343262
92.470909,234.098816,235.292267,7.08481,-0.3029,7.08481,-0.3029,230.000137,230.0,291.976563,87.414886,1049.700806,296.675934,14.356592,0.05829,0.006646,1045.134033,0.004451,0.141578,0.045705,0.0,1.0,2666.521973
92.495956,239.414978,240.608429,7.092202,-0.306775,7.092202,-0.306775,240.000137,240.0,297.231354,87.612915,1052.105225,296.656616,14.365497,0.057172,0.002795,1048.512573,0.004327,0.141696,0.046176,0.0,1.0,2666.786621
92.519371,244.447189,245.64064,7.09964,-0.325731,7.09964,-0.325731,240.000137,240.0,302.204803,87.795486,1054.221313,296.644073,14.375934,0.055204,3.09E-4,1051.503174,0.004382,0.141844,0.047142,0.0,1.0,2667.033691
92.536972,248.301956,249.495392,7.105887,-0.344157,7.105887,-0.344157,250.000137,250.0,306.014679,87.932259,1055.815186,296.643982,14.385315,0.053997,7.5E-5,1053.646606,0.004653,0.141993,0.047769,0.0,1.0,2667.220947
92.55204,251.868317,253.061768,7.111627,-0.35802,7.111627,-0.35802,250.000137,250.0,309.536621,88.056358,1057.290161,296.652039,14.395256,0.053238,0.001244,1055.702759,0.004917,0.142118,0.047774,0.0,1.0,2667.39209
92.573441,257.227661,258.421112,7.120282,-0.364841,7.120282,-0.364841,260.000153,260.0,314.828705,88.238678,1059.472046,296.673401,14.412869,0.053294,0.004495,1058.642456,0.005115,0.142233,0.047371,0.0,1.0,2667.64502
92.586143,260.507233,261.700684,7.126225,-0.360154,7.126225,-0.360154,260.000153,260.0,318.068115,88.34787,1060.821045,296.687195,14.425332,0.054042,0.006518,1060.293701,0.005212,0.142406,0.046303,0.0,1.0,2667.796631
92.604355,266.18222,267.375671,7.134778,-0.340537,7.134778,-0.340537,270.000153,270.0,323.673187,88.532547,1063.126587,296.70105,14.44968,0.055577,0.008207,1063.097534,0.005145,0.142524,0.045613,0.0,1.0,2668.053467
92.616081,269.774323,270.967773,7.13976,-0.326852,7.13976,-0.326852,270.000153,270.0,327.21936,88.646667,1064.506836,296.700592,14.466511,0.056307,0.007703,1064.893066,0.004865,0.142696,0.04492,0.0,1.0,2668.212646
92.633636,275.171204,276.364655,7.145119,-0.316161,7.145119,-0.316161,270.000153,270.0,332.546875,88.814262,1066.399292,296.687805,14.492971,0.056453,0.004955,1067.476196,0.004669,0.142795,0.044943,0.0,1.0,2668.447754
92.644531,278.474304,279.667755,7.148322,-0.317808,7.148322,-0.317808,280.000153,280.0,335.806976,88.914619,1067.439087,296.676575,14.509446,0.055783,0.002794,1068.994141,0.004517,0.142902,0.045583,0.0,1.0,2668.590088
92.660332,284.183838,285.377289,7.153629,-0.33486,7.153629,-0.33486,280.000153,280.0,341.445313,89.084373,1069.124146,296.662323,14.5379,0.054084,7.5E-5,1071.29895,0.00454,0.142966,0.046144,0.0,1.0,2668.833984
92.674492,287.796326,288.989777,7.157597,-0.349929,7.157597,-0.349929,290.000153,290.0,345.010864,89.189301,1070.162354,296.660858,14.555817,0.05298,-3.06E-4,1072.782227,0.004784,0.143073,0.046857,0.0,1.0,2668.987061
92.689194,293.225922,294.419342,7.165307,-0.396479,7.165307,-0.396479,290.000153,290.0,350.365723,89.34343,1071.744507,296.731659,14.582742,0.040082,0.01182,1075.104126,0.001666,0.143152,0.1,0.0,1.0,2669.214111
92.687691,298.359955,299.553375,7.187266,-0.407407,7.187266,-0.407407,300.000153,300.0,355.431152,89.485321,1073.756226,297.036346,14.610644,0.042145,0.059671,1077.07959,0.001888,0.143306,0.1,0.0,1.0,2669.414795
92.669945,301.987427,303.180878,7.210901,-0.298427,7.210901,-0.298427,300.000153,300.0,359.01413,89.583145,1076.072144,297.327057,14.634807,0.055674,0.103433,1078.388428,0.00194,0.143745,0.1,0.0,1.0,2669.536865
92.638458,305.920471,307.113892,7.232907,-0.055645,7.232907,-0.055645,310.000153,310.0,362.905853,89.686722,1079.300659,297.640839,14.666286,0.075804,0.148167,1079.731201,0.001421,0.144218,0.1,0.0,1.0,2669.64209
92.582024,311.383057,312.576508,7.247403,0.441041,7.247403,0.441041,310.000153,310.0,368.313995,89.825714,1083.719238,297.977661,14.715893,0.110194,0.190164,1082.067261,2.65E-4,0.144658,0.1,0.0,1.0,2669.739502
92.52951,316.556396,317.749847,7.247171,0.974912,7.247171,0.974912,320.000153,320.0,373.439636,89.952103,1086.83728,298.138977,14.759619,0.138795,0.201205,1084.480957,-0.0021,0.144948,0.1,0.0,1.0,2669.792236
92.492493,320.516693,321.710144,7.240815,1.349311,7.240815,1.349311,320.000153,320.0,377.367065,90.045601,1088.143311,298.167389,14.782278,0.150599,0.193103,1086.167114,-0.004642,0.144943,0.1,0.0,1.0,2669.820068
92.470604,324.179993,325.373444,7.233917,1.62784,7.233917,1.62784,320.000153,320.0,380.995026,90.129616,1088.484253,298.147003,14.788814,0.155651,0.177712,1087.849365,-0.006425,0.144816,0.1,0.0,1.0,2669.844727
92.444656,329.382324,330.575775,7.225464,1.890971,7.225464,1.890971,330.000153,330.0,386.134033,90.245148,1087.875366,298.099762,14.766496,0.152478,0.153081,1090.404541,-0.007752,0.144678,0.1,0.0,1.0,2669.886963
92.431679,333.058411,334.251862,7.219554,1.994886,7.219554,1.994886,330.000153,330.0,389.758728,90.32444,1086.933472,298.090454,14.725128,0.145695,0.139957,1092.04834,-0.009005,0.144509,0.1,0.0,1.0,2669.925537
92.41713,338.573029,339.766449,7.211981,2.059855,7.211981,2.059855,340.000153,340.0,395.188934,90.44017,1085.178955,298.157867,14.621941,0.133968,0.133537,1094.021973,-0.009499,0.144391,0.1,0.0,1.0,2669.996582
92.401237,344.089569,345.28302,7.205708,2.086905,7.205708,2.086905,340.000153,340.0,400.610504,90.552284,1083.550537,298.337189,14.473012,0.125885,0.144527,1095.636719,-0.009809,0.14424,0.1,0.0,1.0,2670.079346
92.388046,348.074127,349.267578,7.202421,2.122274,7.202421,2.122274,350.000153,350.0,404.521606,90.631065,1082.669434,298.523407,14.34129,0.124211,0.160603,1096.578979,-0.009938,0.144114,0.1,0.0,1.0,2670.141602
92.373283,351.751862,352.945282,7.200684,2.182674,7.200684,2.182674,350.000153,350.0,408.129486,90.702164,1082.136963,298.719971,14.204961,0.125628,0.17834,1097.282104,-0.010106,0.144048,0.1,0.0,1.0,2670.197266
92.348877,356.958344,358.151794,7.198891,2.319481,7.198891,2.319481,360.000153,360.0,413.238647,90.800163,1081.81189,299.007385,13.992361,0.132145,0.202865,1097.896973,-0.010394,0.144014,0.1,0.0,1.0,2670.269531
92.31871,362.466431,363.659851,7.195593,2.51476,7.195593,2.51476,360.000153,360.0,418.647339,90.900414,1081.67395,299.28714,13.747592,0.14077,0.22233,1098.203003,-0.011045,0.143978,0.1,0.0,1.0,2670.335938
92.296425,366.444122,367.637573,7.191996,2.668518,7.191996,2.668518,370.000153,370.0,422.55307,90.970573,1081.467285,299.461334,13.560542,0.14077,0.230511,1098.203003,-0.011975,0.143912,0.1,0.0,1.0,2670.378662
92.278267,370.116608,371.310059,7.188269,2.802944,7.188269,2.802944,370.000153,370.0,426.157379,91.033699,1081.0979,299.601532,13.381247,0.14077,0.233894,1098.203003,-0.012707,0.14384,0.1,0.0,1.0,2670.41626
92.25457,375.619873,376.813293,7.182247,2.97067,7.182247,2.97067,380.000153,380.0,431.560699,91.125549,1080.182373,299.787201,13.102015,0.14077,0.233886,1098.203003,-0.013347,0.143765,0.1,0.0,1.0,2670.473633
92.235359,380.81311,382.006561,7.17554,3.084021,7.17554,3.084021,380.000153,380.0,436.6586,91.209335,1078.916504,299.956573,12.829571,0.14077,0.23213,1098.203003,-0.014146,0.143645,0.1,0.0,1.0,2670.532471
92.223099,384.782318,385.975769,7.169991,3.142402,7.169991,3.142402,380.000153,380.0,440.552582,91.271584,1077.756958,300.095795,12.617973,0.14077,0.231935,1098.203003,-0.014686,0.143511,0.1,0.0,1.0,2670.581787
92.213135,388.445709,389.63916,7.16521,3.179631,7.16521,3.179631,390.000153,390.0,444.143127,91.327713,1076.625122,300.238098,12.422347,0.14077,0.233619,1098.203003,-0.014964,0.1434,0.1,0.0,1.0,2670.630615
92.207779,393.780731,394.974152,7.158833,3.219595,7.158833,3.219595,390.000153,390.0,449.372742,91.407364,1075.058594,300.472961,12.141158,0.14077,0.239764,1098.203003,-0.015141,0.143304,0.1,0.0,1.0,2670.707031
92.188812,397.587128,398.780579,7.153935,3.248285,7.153935,3.248285,400.000153,400.0,453.103729,91.462715,1074.031372,300.658478,11.946878,0.14077,0.2464,1098.203003,-0.015331,0.143177,0.1,0.0,1.0,2670.763916
92.17395,402.759521,403.952942,7.148278,3.296752,7.148278,3.296752,400.000153,400.0,458.172424,91.535957,1072.786743,300.9263,11.696778,0.14077,0.256939,1098.203003,-0.015468,0.143079,0.1,0.0,1.0,2670.842529
92.162041,406.710144,407.903595,7.144094,3.344265,7.144094,3.344265,410.000153,410.0,462.04483,91.590416,1071.970825,301.135864,11.519943,0.14077,0.264963,1098.203003,-0.015699,0.142966,0.1,0.0,1.0,2670.902588
92.145226,412.175415,413.368835,7.139096,3.4215,7.139096,3.4215,410.000153,410.0,467.402039,91.663635,1070.960571,301.422791,11.300432,0.14077,0.274392,1098.203003,-0.015925,0.142882,0.1,0.0,1.0,2670.985107
92.136047,415.81131,417.004761,7.135626,3.476863,7.135626,3.476863,420.000153,420.0,470.970795,91.71106,1070.322876,301.608368,11.172629,0.14077,0.279099,1098.203003,-0.016293,0.142782,0.1,0.0,1.0,2671.039551
92.118629,420.961578,422.154999,7.131084,3.551695,7.131084,3.551695,420.000153,420.0,476.022858,91.776398,1069.390503,301.862488,11.019517,0.14077,0.28355,1098.203003,-0.016556,0.142713,0.1,0.0,1.0,2671.117188
92.107834,424.894775,426.088196,7.127262,3.602762,7.127262,3.602762,420.000153,420.0,479.883148,91.824944,1068.628052,302.051697,10.925958,0.14077,0.285625,1098.203003,-0.016913,0.142622,0.1,0.0,1.0,2671.177734
92.094681,430.338226,431.531677,7.122212,3.659314,7.122212,3.659314,430.000153,430.0,485.223358,91.890221,1067.479614,302.311737,10.831993,0.14077,0.287579,1098.203003,-0.017156,0.142545,0.1,0.0,1.0,2671.263916
92.082779,435.771454,436.964905,7.117012,3.700407,7.117012,3.700407,440.000153,440.0,490.557678,91.953331,1066.275024,302.576233,10.781329,0.14077,0.289658,1098.203003,-0.017425,0.142444,0.1,0.0,1.0,2671.353516
92.075302,439.389099,440.58252,7.113708,3.721037,7.113708,3.721037,440.000153,440.0,494.110535,91.994263,1065.473877,302.75769,10.77259,0.14077,0.291546,1098.203003,-0.017558,0.142376,0.1,0.0,1.0,2671.415527
92.06459,444.815491,446.008942,7.108434,3.747394,7.108434,3.747394,440.000153,440.0,499.434845,92.054008,1064.292358,303.038727,10.798307,0.14077,0.295333,1098.203003,-0.017719,0.142274,0.1,0.0,1.0,2671.510986
92.0578,448.429016,449.622467,7.105403,3.764095,7.105403,3.764095,450.000153,450.0,502.981171,92.092766,1063.551514,303.231415,10.841903,0.14077,0.298367,1098.203003,-0.017805,0.142202,0.1,0.0,1.0,2671.576172
92.051048,453.689026,454.882477,7.100894,3.790647,7.100894,3.790647,450.000153,450.0,508.148712,92.147812,1062.563843,303.517456,10.94394,0.14077,0.303093,1098.203003,-0.017924,0.142108,0.1,0.0,1.0,2671.67334
92.049782,457.445251,458.638702,7.097756,3.812173,7.097756,3.812173,460.000153,460.0,511.837097,92.186066,1061.973267,303.723297,11.044785,0.14077,0.306342,1098.203003,-0.018051,0.142018,0.1,0.0,1.0,2671.749023
92.048981,462.849396,464.042847,7.094293,3.846213,7.094293,3.846213,460.000153,460.0,517.145081,92.239647,1061.27478,304.018494,11.230375,0.14077,0.31032,1098.203003,-0.018153,0.141955,0.1,0.0,1.0,2671.866211
92.048424,466.448639,467.64209,7.092229,3.869863,7.092229,3.869863,470.000153,470.0,520.682007,92.274391,1060.89209,304.213318,11.379909,0.14077,0.312356,1098.203003,-0.018315,0.141886,0.1,0.0,1.0,2671.948242
92.047729,471.542084,472.735504,7.089963,3.901402,7.089963,3.901402,470.000153,470.0,525.690552,92.322311,1060.419067,304.486359,11.625611,0.14077,0.314406,1098.203003,-0.018428,0.141845,0.1,0.0,1.0,2672.068359
92.047867,475.132324,476.325745,7.088399,3.921358,7.088399,3.921358,470.000153,470.0,529.224792,92.35524,1060.120239,304.677612,11.821826,0.14077,0.315412,1098.203003,-0.018578,0.141799,0.1,0.0,1.0,2672.155518
92.046997,480.817688,482.011139,7.086258,3.947079,7.086258,3.947079,480.000153,480.0,534.818604,92.405922,1059.667603,304.980164,12.168507,0.14077,0.316648,1098.203003,-0.018673,0.141768,0.1,0.0,1.0,2672.296631
92.047226,484.406525,485.599976,7.084928,3.959969,7.084928,3.959969,480.000153,480.0,538.350403,92.437035,1059.398315,305.172272,12.408652,0.14077,0.317431,1098.203003,-0.018796,0.141725,0.1,0.0,1.0,2672.387695
92.047668,489.786194,490.979645,7.083339,3.975092,7.083339,3.975092,490.000153,490.0,543.646423,92.482452,1059.030273,305.46344,12.796941,0.14077,0.318854,1098.203003,-0.018857,0.141699,0.1,0.0,1.0,2672.526123
92.047829,493.369324,494.562775,7.082294,3.983691,7.082294,3.983691,490.000153,490.0,547.176147,92.511917,1058.816528,305.659882,13.072929,0.14077,0.320025,1098.203003,-0.018929,0.141667,0.1,0.0,1.0,2672.619385
92.048027,498.741943,499.935394,7.081008,3.995847,7.081008,3.995847,500.000153,500.0,552.469482,92.554924,1058.542603,305.957733,13.509805,0.14077,0.322048,1098.203003,-0.01897,0.141646,0.1,0.0,1.0,2672.760742
92.048134,502.322662,503.516083,7.080196,4.00436,7.080196,4.00436,500.000153,500.0,555.997681,92.582825,1058.392334,306.157837,13.814628,0.14077,0.323481,1098.203003,-0.019028,0.14162,0.1,0.0,1.0,2672.855469
92.048653,507.389496,508.582947,7.079317,4.017233,7.079317,4.017233,510.000153,510.0,560.995239,92.621323,1058.218018,306.442352,14.262376,0.14077,0.325451,1098.203003,-0.019068,0.141604,0.1,0.0,1.0,2672.990234
92.0467,511.262512,512.455933,7.078698,4.027782,7.078698,4.027782,510.000153,510.0,564.816345,92.649956,1058.111572,306.660004,14.615416,0.14077,0.326806,1098.203003,-0.01913,0.141586,0.1,0.0,1.0,2673.093262
92.047073,516.627014,517.820496,7.078015,4.042472,7.078015,4.042472,520.000122,520.0,570.106567,92.688492,1057.983521,306.960846,15.116229,0.14077,0.328365,1098.203003,-0.01918,0.141574,0.1,0.0,1.0,2673.236328
92.047012,520.202637,521.396118,7.077585,4.051946,7.077585,4.051946,520.000122,520.0,573.633057,92.713478,1057.906616,307.16095,15.455962,0.14077,0.329198,1098.203003,-0.01925,0.14156,0.1,0.0,1.0,2673.332031
92.040245,525.492188,526.685669,7.077095,4.06443,7.077095,4.06443,530.000122,530.0,578.922241,92.749931,1057.790039,307.460663,15.971252,0.14077,0.330204,1098.203003,-0.019295,0.141552,0.1,0.0,1.0,2673.474609
92.041504,529.075928,530.269348,7.076685,4.071822,7.076685,4.071822,530.000122,530.0,582.44812,92.773575,1057.718994,307.660492,16.316833,0.14077,0.330778,1098.203003,-0.019354,0.141542,0.1,0.0,1.0,2673.570801
92.041512,534.449524,535.642944,7.076156,4.081176,7.076156,4.081176,530.000122,530.0,587.73645,92.809456,1057.60498,307.960815,16.835451,0.14077,0.331592,1098.203003,-0.01939,0.141534,0.1,0.0,1.0,2673.715332
92.042534,538.028442,539.221924,7.075819,4.086532,7.075819,4.086532,540.000122,540.0,591.261658,92.833199,1057.530396,308.161652,17.179819,0.14077,0.332151,1098.203003,-0.019434,0.141523,0.1,0.0,1.0,2673.812012
92.043144,543.389343,544.582764,7.075402,4.09352,7.075402,4.09352,540.000122,540.0,596.549011,92.867874,1057.426514,308.46405,17.691864,0.14077,0.333049,1098.203003,-0.01946,0.141516,0.1,0.0,1.0,2673.957031
92.044273,546.663696,547.857117,7.075141,4.09752,7.075141,4.09752,550.000122,550.0,599.779968,92.888519,1057.369873,308.649536,18.001001,0.14077,0.333632,1098.203003,-0.019493,0.141508,0.1,0.0,1.0,2674.045654
92.044395,552.31842,553.511841,7.074757,4.104251,7.074757,4.104251,550.000122,550.0,605.360291,92.923233,1057.280518,308.970795,18.526112,0.14077,0.334658,1098.203003,-0.019512,0.141503,0.1,0.0,1.0,2674.199219
92.044815,555.889465,557.082886,7.07452,4.10861,7.07452,4.10861,560.000122,560.0,608.88446,92.944557,1057.230713,309.174103,18.850914,0.14077,0.33529,1098.203003,-0.019544,0.141495,0.1,0.0,1.0,2674.296143
92.045074,561.241394,562.434875,7.074253,4.115154,7.074253,4.115154,560.000122,560.0,614.17041,92.975685,1057.163818,309.479309,19.326607,0.14077,0.336161,1098.203003,-0.019565,0.14149,0.1,0.0,1.0,2674.44165
92.045418,564.807434,566.000854,7.074082,4.119521,7.074082,4.119521,560.000122,560.0,617.694275,92.995888,1057.123657,309.6828,19.635296,0.14077,0.336676,1098.203003,-0.019596,0.141485,0.1,0.0,1.0,2674.538574
92.045418,570.158386,571.351807,7.073865,4.125731,7.073865,4.125731,570.000122,570.0,622.979736,93.025383,1057.065918,309.987976,20.084599,0.14077,0.337341,1098.203003,-0.019617,0.141482,0.1,0.0,1.0,2674.684082
92.045616,573.724365,574.917786,7.073718,4.129608,7.073718,4.129608,570.000122,570.0,626.503174,93.044525,1057.027344,310.191437,20.374489,0.14077,0.337724,1098.203003,-0.019646,0.141477,0.1,0.0,1.0,2674.78125
92.046547,578.773438,579.966858,7.073537,4.134507,7.073537,4.134507,580.000122,580.0,631.494568,93.07093,1056.97229,310.479736,20.771427,0.14077,0.338206,1098.203003,-0.019665,0.141474,0.1,0.0,1.0,2674.918945
