airspeed_indicator_indicated_speed_kt,altimeter_indicated_altitude_ft,altimeter_pressure_alt_ft,attitude_indicator_indicated_pitch_deg,attitude_indicator_indicated_roll_deg,attitude_indicator_internal_pitch_deg,attitude_indicator_internal_roll_deg,encoder_indicated_altitude_ft,encoder_pressure_alt_ft,gps_indicated_altitude_ft,gps_indicated_ground_speed_kt,gps_indicated_vertical_speed,indicated_heading_deg,magnetic_compass_indicated_heading_deg,slip_skid_ball_indicated_slip_skid,turn_indicator_indicated_turn_rate,vertical_speed_indicator_indicated_speed_fpm,flight_aileron,flight_elevator,flight_rudder,flight_flaps,engine_throttle,Command_fault,Command
24.888819,-229.234024,-228.040573,3.021048,0.684632,2.691191,-0.414891,-229.999863,-230,17.857527,5.90E-05,1.67E-04,297.864319,103.27372,0.043726,-0.031085,-1672.706787,0,0,0,0,0,, takeoff
24.888367,-234.864899,-233.671463,3.027341,0.701966,2.692283,-0.414895,-229.999863,-230,17.857538,5.70E-05,0.011523,297.863464,100.205795,0.043718,-0.028007,-1673.190918,0,0,0,0,0,, takeoff
24.893175,-242.978104,-241.784653,2.856053,0.092993,2.703614,-0.415136,-239.999863,-240,17.857601,6.40E-05,0.006163,297.862122,96.011108,0.043607,-0.02412,-1673.903809,-0.010028,0.053846,4.30E-05,0,1,, takeoff
24.888359,-248.387985,-247.194534,2.747835,-0.250189,2.697953,-0.416462,-239.999863,-240,17.857582,1.01E-04,-0.019461,297.861267,93.38649,0.043458,-0.021862,-1674.311523,-0.001328,0.054072,1.10E-04,0,1,, takeoff
24.896599,-256.502899,-255.309448,2.664034,-0.42201,2.664034,-0.42201,-249.999863,-250,17.857477,7.79E-04,-0.006331,297.859863,89.744293,0.043707,-0.018978,-1674.795166,0.003574,0.053959,1.53E-04,0,1,, takeoff
24.893269,-261.913788,-263.425049,2.656564,-0.43237,2.656564,-0.43237,-259.999847,-260,17.857569,0.004325,0.041334,297.857819,86.491211,0.044631,-0.016707,-1675.159058,0.006029,0.053281,2.23E-04,0,1,, takeoff
24.906845,-270.029663,-268.836212,2.664434,-0.44153,2.664434,-0.44153,-269.999847,-270,17.857758,0.009896,0.071447,297.855591,84.554497,0.045315,-0.015563,-1675.360107,0.00612,0.053115,2.84E-04,0,1,, takeoff
24.918575,-278.153137,-276.959686,2.683856,-0.457297,2.683856,-0.457297,-269.999847,-270,17.858221,0.025808,0.113116,297.850159,82.015015,0.046631,-0.014436,-1675.793701,0.006308,0.053289,4.36E-04,0,1,, takeoff
24.935925,-283.563385,-282.369934,2.698232,-0.468278,2.698232,-0.468278,-279.999847,-280,17.858646,0.043058,0.140616,297.844452,80.572792,0.047436,-0.014121,-1675.822388,0.006533,0.053677,7.08E-04,0,1,, takeoff
24.338493,-291.606415,-290.412994,2.718529,-0.484139,2.718529,-0.484139,-289.999847,-290,17.859468,0.081409,0.188181,297.831604,78.79229,0.049735,-0.014375,-1672.948364,0.00669,0.053965,9.93E-04,0,1,, takeoff
22.093102,-296.155823,-294.962372,2.730603,-0.493675,2.730603,-0.493675,-289.999847,-290,17.860149,0.116533,0.220605,297.819366,77.861435,0.051454,-0.01508,-1640.112549,0.006916,0.054371,0.001636,0,1,, takeoff
19.183947,-301.475067,-300.281647,2.745357,-0.50579,2.745357,-0.50579,-299.999847,-300,17.861393,0.18523,0.276543,297.795471,76.846031,0.053063,-0.016831,-1538.441528,0.007052,0.054612,0.002248,0,1,, takeoff
17.668694,-304.018677,-302.825226,2.752787,-0.511826,2.752787,-0.511826,-299.999847,-300,17.862297,0.237296,0.313423,297.777252,76.446541,0.053884,-0.018313,-1453.42981,0.007226,0.054907,0.003442,0,1,, takeoff
15.549929,-307.368347,-306.174896,2.762443,-0.519695,2.762443,-0.519695,-309.999847,-310,17.864084,0.342959,0.380649,297.742188,76.140663,0.055209,-0.021151,-1282.328491,0.007312,0.055056,0.004353,0,1,, takeoff
13.988593,-309.767822,-308.574371,2.769501,-0.524979,2.769501,-0.524979,-309.999847,-310,17.866171,0.468135,0.452331,297.703491,76.263824,0.05601,-0.02415,-1091.526611,0.007424,0.055249,0.006107,0,1,, takeoff
13.212522,-311.008942,-309.815491,2.77325,-0.527425,2.77325,-0.527425,-309.999847,-310,17.867764,0.56399,0.501335,297.676422,76.562988,0.056428,-0.026082,-955.298157,0.0075,0.05539,0.008041,0,1,, takeoff
12.426282,-312.459076,-311.265625,2.777747,-0.529851,2.777747,-0.529851,-309.999847,-310,17.870466,0.726375,0.578175,297.637421,77.313812,0.056832,-0.028319,-743.141663,0.007535,0.055465,0.009395,0,1,, takeoff
12.13588,-313.20874,-312.015289,2.780397,-0.530808,2.780397,-0.530808,-309.999847,-310,17.872482,0.846941,0.630228,297.612976,78.000458,0.057093,-0.029378,-600.121338,0.007569,0.055555,0.011345,0,1,, takeoff
12.008914,-314.063141,-312.86969,2.783835,-0.531561,2.783835,-0.531561,-309.999847,-310,17.875736,1.040166,0.707168,297.582367,79.241814,0.057442,-0.029898,-397.446594,0.007583,0.055608,0.012567,0,1,, takeoff
12.10373,-314.536072,-313.342621,2.786227,-0.531695,2.786227,-0.531695,-309.999847,-310,17.878292,1.190609,0.764212,297.564392,80.284485,0.057823,-0.029611,-266.241608,0.007594,0.055677,0.014098,0,1,, takeoff
12.456547,-315.063171,-313.86972,2.789557,-0.531516,2.789557,-0.531516,-309.999847,-310,17.882311,1.425027,0.843698,297.545563,81.982323,0.058519,-0.028119,-128.186203,0.007596,0.055725,0.014996,0,1,, takeoff
13.005755,-315.451263,-314.257813,2.792996,-0.530911,2.792996,-0.530911,-309.999847,-310,17.886738,1.679886,0.924491,297.533997,83.872681,0.059444,-0.025719,-74.486069,0.007593,0.055791,0.015938,0,1,, takeoff
13.433267,-315.643433,-314.449982,2.79525,-0.530308,2.79525,-0.530308,-309.999847,-310,17.889776,1.853118,0.975572,297.529724,85.160812,0.060015,-0.023876,-59.441349,0.007584,0.05586,0.016516,0,1,, takeoff
14.211557,-315.882751,-314.689301,2.798883,-0.529034,2.798883,-0.529034,-309.999847,-310,17.895016,2.148316,1.059245,297.526703,87.330887,0.06116,-0.020665,-42.305363,0.007576,0.055905,0.01673,0,1,, takeoff
14.760419,-316.001465,-314.808014,2.801361,-0.527937,2.801361,-0.527937,-309.999847,-310,17.898642,2.350393,1.113006,297.52597,88.783852,0.061775,-0.018647,-33.97802,0.007558,0.055978,0.016881,0,1,, takeoff
15.654306,-316.141571,-314.94812,2.805214,-0.525502,2.805214,-0.525502,-309.999847,-310,17.904587,2.677731,1.196881,297.524536,91.060051,0.062431,-0.01596,-24.187401,0.007542,0.056027,0.016917,0,1,, takeoff
16.231846,-316.207886,-315.014435,2.807806,-0.523628,2.807806,-0.523628,-309.999847,-310,17.908501,2.890607,1.248464,297.522278,92.480064,0.062571,-0.014708,-19.523003,0.007507,0.056104,0.016989,0,1,, takeoff
17.160204,-316.287079,-315.093628,2.812052,-0.520356,2.812052,-0.520356,-319.999847,-320,17.914957,3.237839,1.330128,297.515106,94.68187,0.062225,-0.013548,-16.586235,0.00748,0.056156,0.017102,0,1,, takeoff
17.791502,-316.32663,-315.133179,2.81511,-0.517983,2.81511,-0.517983,-319.999847,-320,17.919479,3.478603,1.327013,297.507172,96.119743,0.061622,-0.013366,-17.311163,0.007434,0.056241,0.017461,0,1,, takeoff
18.779577,-316.371735,-315.178284,2.813314,-0.520854,2.813314,-0.520854,-319.999847,-320,17.926159,3.863917,1.313045,297.490112,98.262352,0.05955,-0.014026,-18.195913,0.0074,0.056302,0.017857,0,1,, takeoff
19.427286,-316.392914,-315.199463,2.814692,-0.520305,2.814692,-0.520305,-319.999847,-320,17.930294,4.122798,1.260255,297.476227,99.589859,0.059204,-0.01477,-13.035828,0.007441,0.056266,0.01871,0,1,, takeoff
20.406199,-316.415588,-315.222137,2.820575,-0.516488,2.820575,-0.516488,-319.999847,-320,17.936779,4.523951,1.331735,297.452454,101.467743,0.057693,-0.016138,-17.848246,0.007433,0.056294,0.019405,0,1,, takeoff
21.03511,-316.425507,-315.232056,2.82455,-0.513849,2.82455,-0.513849,-319.999847,-320,17.941105,4.788111,1.373706,297.435791,102.586105,0.056448,-0.017135,-14.858344,0.007378,0.056412,0.020593,0,1,, takeoff
22.022108,-316.435486,-315.242035,2.830516,-0.509898,2.830516,-0.509898,-319.999847,-320,17.948147,5.213548,1.440497,297.40976,104.193474,0.054606,-0.01849,-12.877154,0.007341,0.056491,0.021426,0,1,, takeoff
22.984245,-316.440125,-315.246674,2.836461,-0.50622,2.836461,-0.50622,-319.999847,-320,17.955313,5.640786,1.503838,297.385376,105.573845,0.053203,-0.019476,-9.891658,0.007284,0.05661,0.022728,0,1,, takeoff
23.672342,-316.44104,-315.247589,2.840845,-0.503654,2.840845,-0.503654,-319.999847,-320,17.960625,5.953942,1.550866,297.369171,106.442436,0.052255,-0.019906,-14.866714,0.007232,0.056729,0.023947,0,1,, takeoff
24.636349,-316.439697,-315.246246,2.847013,-0.5003,2.847013,-0.5003,-319.999847,-320,17.968327,6.403223,1.614777,297.349518,107.486847,0.051586,-0.01995,-6.338945,0.007195,0.056817,0.024757,0,1,, takeoff
25.324957,-316.437195,-315.243774,2.851645,-0.497859,2.851645,-0.497859,-319.999847,-320,17.974022,6.731697,1.661269,297.337402,108.107277,0.051296,-0.019687,17.110821,0.007147,0.05694,0.02574,0,1,, takeoff
26.343739,-316.431671,-315.238251,2.858541,-0.494296,2.858541,-0.494296,-319.999847,-320,17.982744,7.229057,1.728663,297.322021,108.831123,0.05128,-0.018946,18.661352,0.007112,0.057033,0.026346,0,1,, takeoff
27.00419,-316.427124,-315.233704,2.86317,-0.49184,2.86317,-0.49184,-319.999847,-320,17.98859,7.558639,1.773213,297.312714,109.176811,0.051343,-0.018427,16.180826,0.007061,0.057171,0.027115,0,1,, takeoff
27.966928,-316.419464,-315.226013,2.87138,-0.488115,2.87138,-0.488115,-319.999847,-320,17.99703,8.048821,1.939219,297.299194,109.508888,0.050632,-0.01776,15.640151,0.007026,0.057263,0.02758,0,1,, takeoff
28.625614,-316.413513,-315.220062,2.883811,-0.485328,2.883811,-0.485328,-319.999847,-320,18.00408,8.391314,2.3263,297.288605,109.621483,0.050504,-0.017574,18.393379,0.006973,0.057428,0.028256,0,1,, takeoff
29.639093,-316.403046,-315.209595,2.891232,-0.480616,2.891232,-0.480616,-319.999847,-320,18.016182,8.929143,2.385421,297.269226,109.619041,0.049768,-0.017788,18.522287,0.006933,0.057676,0.028786,0,1,, takeoff
30.295973,-316.395508,-315.202087,2.89508,-0.477263,2.89508,-0.477263,-319.999847,-320,18.024214,9.284202,2.433689,297.254028,109.508591,0.048838,-0.018324,17.191244,0.006866,0.057825,0.029755,0,1,, takeoff
31.280233,-316.383331,-315.18988,2.9014,-0.472006,2.9014,-0.472006,-319.999847,-320,18.036575,9.825645,2.508653,297.227875,109.192757,0.046834,-0.019551,12.646663,0.006818,0.057902,0.030515,0,1,, takeoff
32.23547,-316.370605,-315.177155,2.908207,-0.46665,2.908207,-0.46665,-319.999847,-320,18.048967,10.361919,2.585024,297.198303,108.726555,0.044203,-0.021208,11.023437,0.006743,0.058028,0.031822,0,1,, takeoff
32.862293,-316.361816,-315.168396,2.912838,-0.463062,2.912838,-0.463062,-319.999847,-320,18.057314,10.71946,2.636809,297.177185,108.342682,0.042569,-0.022435,15.476357,0.006666,0.058164,0.033301,0,1,, takeoff
33.868996,-316.347107,-315.153656,2.9189,-0.45781,2.9189,-0.45781,-319.999847,-320,18.070948,11.302904,2.496259,297.142761,107.610558,0.039134,-0.024242,8.769003,0.006615,0.058257,0.034357,0,1,, takeoff
34.494179,-316.337677,-315.144257,2.921087,-0.45954,2.921087,-0.45954,-319.999847,-320,18.078899,11.670585,2.458877,297.121216,107.092415,0.037685,-0.025359,16.224815,0.00654,0.058378,0.036078,0,1,, takeoff
35.52417,-316.321777,-315.128326,2.931772,-0.454803,2.931772,-0.454803,-319.999847,-320,18.093328,12.286166,2.782449,297.088165,106.147354,0.035635,-0.026398,16.565044,0.006565,0.058422,0.037155,0,1,, takeoff
36.146507,-316.311829,-315.118408,2.936856,-0.451803,2.936856,-0.451803,-319.999847,-320,18.102291,12.663519,2.826664,297.06958,105.530487,0.034762,-0.026731,14.097809,0.006497,0.058635,0.038808,0,1,, takeoff
37.118248,-316.295898,-315.102478,2.944268,-0.447374,2.944268,-0.447374,-319.999847,-320,18.116623,13.261119,2.900925,297.043915,104.512932,0.034119,-0.026649,14.633698,0.006454,0.058737,0.039737,0,1,, takeoff
37.791428,-316.284576,-315.091125,2.949626,-0.444253,2.949626,-0.444253,-319.999847,-320,18.126799,13.680965,2.956696,297.027527,103.77877,0.034012,-0.026388,16.951059,0.006391,0.058885,0.04102,0,1,, takeoff
38.758896,-316.267853,-315.074432,2.955776,-0.440858,2.955776,-0.440858,-319.999847,-320,18.141607,14.292278,2.896034,297.005585,102.698067,0.034018,-0.02584,18.917183,0.006346,0.058993,0.04184,0,1,, takeoff
39.402306,-316.256561,-315.06311,2.959677,-0.439586,2.959677,-0.439586,-319.999847,-320,18.151186,14.704099,2.920654,296.990906,101.971146,0.034266,-0.025546,10.030316,0.006298,0.059116,0.042937,0,1,, takeoff
40.365864,-316.239441,-315.04599,2.96644,-0.431948,2.96644,-0.431948,-319.999847,-320,18.165714,15.328017,2.900623,296.967804,100.885643,0.034647,-0.025207,16.512825,0.00628,0.059194,0.043671,0,1,, takeoff
40.980026,-316.228424,-315.034973,2.970203,-0.427133,2.970203,-0.427133,-319.999847,-320,18.174896,15.730396,2.88163,296.951111,100.202721,0.03419,-0.025353,18.411968,0.006171,0.059329,0.044826,0,1,, takeoff
41.965553,-316.210602,-315.017151,2.977872,-0.421324,2.977872,-0.421324,-319.999847,-320,18.189907,16.383633,2.953948,296.920959,99.134659,0.032801,-0.0261,15.426356,0.006102,0.059404,0.04566,0,1,, takeoff
42.895042,-316.193573,-315.000122,2.985263,-0.415484,2.985263,-0.415484,-319.999847,-320,18.204447,17.008038,3.020338,296.887604,98.172607,0.030529,-0.027461,19.375042,0.006019,0.059557,0.047168,0,1,, takeoff
43.530846,-316.181763,-314.988312,2.990251,-0.411322,2.990251,-0.411322,-309.999847,-310,18.2146,17.439699,3.06415,296.862061,97.546974,0.028567,-0.028698,12.671948,0.005935,0.059705,0.048836,0,1,, takeoff
44.507072,-316.163208,-314.969757,3.007513,-0.415198,3.007513,-0.415198,-309.999847,-310,18.232584,18.110523,3.986767,296.820587,96.646446,0.024908,-0.030923,12.774184,0.005876,0.059805,0.050113,0,1,, takeoff
45.08543,-316.151611,-314.95816,3.013756,-0.411782,3.013756,-0.411782,-309.999847,-310,18.244833,18.512348,4.027364,296.795197,96.152016,0.023303,-0.032066,17.801764,0.005931,0.06015,0.052187,0,1,, takeoff
46.083694,-316.130524,-314.937103,3.020321,-0.405758,3.020321,-0.405758,-309.999847,-310,18.266277,19.211412,4.097907,296.75293,95.377197,0.020377,-0.033526,15.633597,0.005883,0.060275,0.053456,0,1,, takeoff
46.713451,-316.116638,-314.923218,3.024914,-0.402004,3.024914,-0.402004,-309.999847,-310,18.280039,19.656094,4.151466,296.727081,94.942734,0.018902,-0.03421,17.104078,0.005797,0.060406,0.055569,0,1,, takeoff
47.631691,-316.095703,-314.902252,3.031886,-0.397157,3.031886,-0.397157,-309.999847,-310,18.30043,20.308842,4.238523,296.692627,94.389244,0.017447,-0.034574,14.798529,0.005743,0.060498,0.056862,0,1,, takeoff
48.233597,-316.081543,-314.888092,3.036756,-0.394025,3.036756,-0.394025,-309.999847,-310,18.314047,20.740463,4.285384,296.671692,94.078743,0.01701,-0.034532,17.542349,0.005674,0.060638,0.058585,0,1,, takeoff
49.202225,-316.058136,-314.864685,3.044405,-0.389442,3.044405,-0.389442,-309.999847,-310,18.336309,21.439121,4.371435,296.641022,93.669426,0.017063,-0.034008,16.555891,0.005629,0.060735,0.059631,0,1,, takeoff
49.803909,-316.043274,-314.849823,3.049314,-0.386507,3.049314,-0.386507,-309.999847,-310,18.350374,21.876032,4.425665,296.622498,93.471291,0.01735,-0.033654,14.044496,0.005563,0.060888,0.061165,0,1,, takeoff
50.729034,-316.018158,-314.824707,3.056821,-0.382369,3.056821,-0.382369,-309.999847,-310,18.373924,22.602125,4.490413,296.59256,93.237701,0.017937,-0.033033,19.762653,0.005522,0.060986,0.062091,0,1,, takeoff
51.56683,-315.994598,-314.801178,3.057528,-0.386228,3.057528,-0.386228,-309.999847,-310,18.39459,23.275448,3.940474,296.566864,93.123566,0.018047,-0.032417,17.571529,0.005462,0.061136,0.063588,0,1,, takeoff
52.165623,-315.977875,-314.784424,3.060775,-0.385077,3.060775,-0.385077,-309.999847,-310,18.408382,23.759001,4.001571,296.551086,93.099144,0.018614,-0.031511,19.825651,0.005518,0.061151,0.064873,0,1,, takeoff
53.003315,-315.95462,-314.761169,3.067574,-0.383473,3.067574,-0.383473,-309.999847,-310,18.428034,24.439524,4.08042,296.533875,93.141037,0.020104,-0.029629,17.286224,0.005501,0.061216,0.065662,0,1,, takeoff
53.577324,-315.93869,-314.745239,3.072237,-0.38252,3.072237,-0.38252,-309.999847,-310,18.441729,24.908499,4.13244,296.524963,93.218376,0.021595,-0.028041,17.282148,0.005478,0.061351,0.066522,0,1,, takeoff
54.461754,-315.914093,-314.720642,3.078846,-0.381365,3.078846,-0.381365,-309.999847,-310,18.463171,25.635109,4.209983,296.515106,93.40947,0.024552,-0.025297,19.695629,0.005465,0.061445,0.066968,0,1,, takeoff
55.011059,-315.898743,-314.705292,3.082991,-0.380642,3.082991,-0.380642,-309.999847,-310,18.476702,26.088932,4.259021,296.510132,93.568863,0.026807,-0.023631,17.396852,0.005448,0.061577,0.067461,0,1,, takeoff
55.870293,-315.874542,-314.681091,3.090344,-0.379507,3.090344,-0.379507,-309.999847,-310,18.498596,26.802464,4.454672,296.502167,93.874489,0.030249,-0.021368,17.638573,0.005438,0.06166,0.067709,0,1,, takeoff
56.466614,-315.857483,-314.664063,3.096157,-0.378649,3.096157,-0.378649,-309.999847,-310,18.514257,27.300207,4.631799,296.495087,94.12278,0.032443,-0.020249,20.259401,0.005422,0.061807,0.068108,0,1,, takeoff
57.299862,-315.832916,-314.639465,3.107786,-0.379625,3.107786,-0.379625,-309.999847,-310,18.539812,28.000017,5.324264,296.481873,94.513046,0.034893,-0.019423,18.764807,0.005409,0.061923,0.068462,0,1,, takeoff
57.870461,-315.815369,-314.621918,3.111664,-0.378599,3.111664,-0.378599,-309.999847,-310,18.55765,28.481831,5.377187,296.469971,94.805161,0.035957,-0.019344,10.800131,0.005423,0.062156,0.069122,0,1,, takeoff
58.722393,-315.788788,-314.595337,3.116498,-0.377011,3.116498,-0.377011,-309.999847,-310,18.584736,29.207428,5.45731,296.448578,95.273102,0.036675,-0.019773,18.991505,0.005409,0.062233,0.069717,0,1,, takeoff
59.313782,-315.770233,-314.576782,3.115939,-0.379655,3.115939,-0.379655,-309.999847,-310,18.6031,29.713285,4.976239,296.43158,95.614204,0.036412,-0.020474,17.817457,0.005386,0.06233,0.070787,0,1,, takeoff
60.14225,-315.744659,-314.551208,3.117843,-0.379916,3.117843,-0.379916,-309.999847,-310,18.62631,30.424128,4.820482,296.407776,96.106323,0.036231,-0.021185,21.052378,0.005424,0.062319,0.071637,0,1,, takeoff
60.709549,-315.727417,-314.533966,3.122023,-0.378966,3.122023,-0.378966,-309.999847,-310,18.64249,30.913292,4.883589,296.392212,96.449234,0.035954,-0.021476,21.249666,0.005427,0.062357,0.072827,0,1,, takeoff
61.559456,-315.701843,-314.508392,3.128193,-0.378048,3.128193,-0.378048,-309.999847,-310,18.667135,31.649588,4.98736,296.37207,96.964745,0.035985,-0.021351,21.020317,0.005414,0.06244,0.073605,0,1,, takeoff
62.431496,-315.675659,-314.482208,3.135086,-0.377545,3.135086,-0.377545,-309.999847,-310,18.693419,32.409412,5.164286,296.356079,97.487404,0.036818,-0.020521,12.519045,0.005401,0.062564,0.074612,0,1,, takeoff
62.97258,-315.659271,-314.46582,3.144076,-0.378931,3.144076,-0.378931,-309.999847,-310,18.7113,32.883247,5.949568,296.348602,97.804573,0.037746,-0.019723,21.21143,0.005393,0.062702,0.075412,0,1,, takeoff
63.817741,-315.632751,-314.439301,3.150552,-0.379375,3.150552,-0.379375,-309.999847,-310,18.741243,33.627136,6.025068,296.340363,98.283516,0.040421,-0.018041,18.725094,0.005413,0.062882,0.075786,0,1,, takeoff
64.380768,-315.614502,-314.421082,3.15385,-0.379605,3.15385,-0.379605,-309.999847,-310,18.761423,34.124531,6.082614,296.33606,98.587929,0.042689,-0.016878,16.098642,0.00542,0.063011,0.076198,0,1,, fly_strait
65.251022,-315.585632,-314.392212,3.157648,-0.367215,3.157648,-0.367215,-309.999847,-310,18.792913,34.893585,6.16957,296.250977,99.028854,0.040103,-0.029631,11.664444,0.005423,0.063077,0,0,1,, fly_strait
65.822296,-315.566498,-314.373047,3.155948,-0.36522,3.155948,-0.36522,-309.999847,-310,18.813553,35.393879,6.21,296.009247,99.293198,0.027847,-0.066915,11.163266,0.005246,0.063153,0.004254,0,1,, fly_strait
66.663681,-315.538055,-314.344604,3.14889,-0.378868,3.14889,-0.378868,-309.999847,-310,18.843859,36.125546,6.25609,295.453888,99.640228,-0.012157,-0.145973,17.103987,0.005217,0.063119,0.016341,0,1,, fly_strait
67.26857,-315.517395,-314.323975,3.140933,-0.401979,3.140933,-0.401979,-309.999847,-310,18.864941,36.649731,5.801783,294.985565,99.853867,-0.050854,-0.206393,12.327742,0.005412,0.062978,0.044109,0,1, set /instrumentation/heading-indicator/serviceable false, fly_strait
68.144188,-315.487915,-314.294464,3.131814,-0.439008,3.131814,-0.439008,-309.999847,-310,18.892441,37.407749,5.494389,294.981995,100.100632,-0.111844,-0.269776,21.356514,0.005743,0.062819,0.067525,0,1, set /instrumentation/heading-indicator/serviceable false, fly_strait
68.990227,-315.459717,-314.266266,3.137263,-0.461892,3.137263,-0.461892,-309.999847,-310,18.919296,38.149681,5.574914,294.977417,100.262596,-0.16138,-0.290632,15.227012,0.006272,0.062636,0.067703,0,1, set /instrumentation/heading-indicator/serviceable false, fly_strait
69.567909,-315.44046,-314.247009,3.137681,-0.489052,3.137681,-0.489052,-309.999847,-310,18.939043,38.659832,6.328374,294.974426,100.326653,-0.182984,-0.285108,15.721558,0.006598,0.062745,0.067932,0,1, set /instrumentation/heading-indicator/serviceable false, fly_strait
70.437225,-315.410797,-314.217346,3.087794,-0.622023,3.087794,-0.622023,-309.999847,-310,18.973753,39.427082,7.369868,294.970276,100.350403,-0.195861,-0.253722,13.860202,0.006986,0.062754,0.068082,0,1, set /instrumentation/heading-indicator/serviceable false, fly_strait
71.044815,-315.38913,-314.195709,3.027899,-0.758465,3.027899,-0.758465,-309.999847,-310,18.999575,39.961338,7.38387,294.967834,100.316589,-0.191658,-0.218862,16.263483,0.008886,0.061756,0.068289,0,1, set /instrumentation/heading-indicator/serviceable false, fly_strait
71.894371,-315.357605,-314.164185,2.961291,-0.928753,2.961291,-0.928753,-309.999847,-310,19.034288,40.711338,6.890807,294.965454,100.203072,-0.168267,-0.158109,12.879434,0.010835,0.060558,0.068411,0,1, set /instrumentation/heading-indicator/serviceable false, fly_strait
72.469284,-315.335602,-314.142181,2.935901,-1.014612,2.935901,-1.014612,-309.999847,-310,19.056917,41.226921,6.666584,294.964691,100.084,-0.14318,-0.113572,13.080578,0.013268,0.059226,0.06853,0,1, set /instrumentation/heading-indicator/serviceable false, fly_strait
73.318115,-315.302338,-314.108887,2.924778,-1.101686,2.924778,-1.101686,-309.999847,-310,19.091705,42.002014,7.093726,294.964935,99.850639,-0.096846,-0.05191,13.372982,0.014494,0.058718,0.068568,0,1, set /instrumentation/heading-indicator/serviceable false, fly_strait
73.900566,-315.278778,-314.085327,2.904053,-1.148396,2.904053,-1.148396,-309.999847,-310,19.117983,42.541325,8.122156,294.965851,99.655724,-0.063846,-0.017663,17.85602,0.015738,0.058496,0.068556,0,1, set /instrumentation/heading-indicator/serviceable false, fly_strait
74.711899,-315.244263,-314.050842,2.816,-1.138313,2.816,-1.138313,-309.999847,-310,19.159975,43.297554,8.771176,294.967926,99.345963,-0.017835,0.015582,18.005056,0.016406,0.058081,0.06851,0,1, set /instrumentation/heading-indicator/serviceable false, fly_strait
75.545006,-315.206726,-314.013275,2.724838,-1.036438,2.724838,-1.036438,-309.999847,-310,19.202127,44.076675,8.315127,294.970673,98.990601,0.019169,0.028954,22.11393,0.016262,0.05632,0.068407,0,1, set /instrumentation/heading-indicator/serviceable false, fly_strait
76.122139,-315.179779,-313.986359,2.71376,-0.943284,2.71376,-0.943284,-309.999847,-310,19.234709,44.618431,10.979004,294.972565,98.726135,0.037483,0.025561,19.138447,0.014806,0.054497,0.068269,0,1, set /instrumentation/heading-indicator/serviceable false, fly_strait
76.921562,-315.137115,-313.943665,2.794327,-0.845787,2.794327,-0.845787,-309.999847,-310,19.314459,45.37772,23.354469,294.974609,98.337723,0.054983,0.006366,14.971434,0.013475,0.054275,0.068175,0,1, set /instrumentation/heading-indicator/serviceable false, fly_strait
77.459999,-315.0979,-313.90448,2.885261,-0.823769,2.885261,-0.823769,-309.999847,-310,19.416382,45.898796,37.92701,294.975403,98.063118,0.060573,-0.012903,18.917952,0.012083,0.055887,0.068073,0,1, set /instrumentation/heading-indicator/serviceable false, fly_strait
78.267525,-315.003082,-313.809631,3.026967,-0.880262,3.026967,-0.880262,-309.999847,-310,19.683498,46.702415,65.927124,294.975555,97.633743,0.062056,-0.044563,23.960917,0.011768,0.057705,0.068033,0,1, set /instrumentation/heading-indicator/serviceable false, fly_strait
78.754494,-314.912628,-313.719177,3.122937,-0.96197,3.122937,-0.96197,-309.999847,-310,19.92519,47.201927,84.781342,294.975098,97.366631,0.060063,-0.061582,32.557373,0.012575,0.060539,0.068025,0,1, set /instrumentation/heading-indicator/serviceable false, fly_strait
79.510117,-314.697815,-313.504364,3.272224,-1.129153,3.272224,-1.129153,-309.999847,-310,20.442627,48.004971,115.662048,294.973785,96.94281,0.055232,-0.079661,50.103989,0.013742,0.062459,0.068048,0,1, set /instrumentation/heading-indicator/serviceable false, fly_strait
79.979736,-314.504944,-313.311493,3.380497,-1.239335,3.380497,-1.239335,-309.999847,-310,20.862595,48.525196,135.573929,294.972839,96.675446,0.052231,-0.084254,63.136627,0.016131,0.065444,0.068114,0,1, set /instrumentation/heading-indicator/serviceable false, fly_strait
80.653725,-314.125488,-312.932037,3.532337,-1.360497,3.532337,-1.360497,-309.999847,-310,21.615904,49.303905,164.571533,294.971619,96.292236,0.049629,-0.081141,84.539742,0.017705,0.06761,0.068161,0,1, set /instrumentation/heading-indicator/serviceable false, fly_strait
81.065018,-313.822632,-312.629181,3.630226,-1.400171,3.630226,-1.400171,-309.999847,-310,22.170887,49.800037,182.210236,294.9711,96.062347,0.049601,-0.074553,98.897423,0.019436,0.070647,0.068222,0,1, set /instrumentation/heading-indicator/serviceable false, fly_strait
81.664452,-313.266327,-312.072876,3.761049,-1.392509,3.761049,-1.392509,-309.999847,-310,23.124395,50.552341,209.224762,294.970764,95.741158,0.05161,-0.061026,121.756897,0.020002,0.072605,0.068248,0,1, set /instrumentation/heading-indicator/serviceable false, fly_strait
82.088264,-312.776611,-311.58316,3.863353,-1.340738,3.863353,-1.340738,-309.999847,-310,23.91688,51.108688,229.010132,294.970856,95.529068,0.054753,-0.050886,139.184586,0.019893,0.075221,0.068265,0,1, set /instrumentation/heading-indicator/serviceable false, fly_strait
82.648071,-311.988556,-310.795135,3.992533,-1.225271,3.992533,-1.225271,-309.999847,-310,25.132341,51.874836,256.231567,294.971313,95.278931,0.059572,-0.039723,163.729568,0.019153,0.077267,0.06826,0,1, set /instrumentation/heading-indicator/serviceable false, fly_strait
83.004898,-311.390717,-310.197266,4.079118,-1.13313,4.079118,-1.13313,-309.999847,-310,26.016933,52.382568,273.802368,294.97168,95.143211,0.062555,-0.035013,180.3535,0.017504,0.079851,0.068237,0,1, set /instrumentation/heading-indicator/serviceable false, fly_strait
83.517929,-310.385162,-309.191711,4.191182,-1.00179,4.191182,-1.00179,-309.999847,-310,27.450985,53.139111,298.693451,294.972137,94.990005,0.065991,-0.032051,205.332489,0.016188,0.081582,0.068219,0,1, set /instrumentation/heading-indicator/serviceable false, fly_strait
83.846581,-309.642975,-308.449524,4.26699,-0.924873,4.26699,-0.924873,-309.999847,-310,28.475683,53.639835,315.818115,294.972321,94.922882,0.067243,-0.03203,221.840729,0.014311,0.083824,0.068196,0,1, set /instrumentation/heading-indicator/serviceable false, fly_strait
84.308708,-308.457886,-307.264435,4.379849,-0.843663,4.379849,-0.843663,-309.999847,-310,30.079073,54.364437,343.485992,294.972321,94.876442,0.067674,-0.03332,245.860458,0.013212,0.08534,0.068187,0,1, set /instrumentation/heading-indicator/serviceable false, fly_strait
84.75486,-307.107239,-305.913788,4.528605,-0.791588,4.528605,-0.791588,-309.999847,-310,31.875418,55.102283,374.103485,294.972107,94.892975,0.06702,-0.034211,271.27356,0.012052,0.087597,0.068187,0,1, set /instrumentation/heading-indicator/serviceable false, fly_strait
85.036331,-306.130737,-304.937317,4.633012,-0.768793,4.633012,-0.768793,-309.999847,-310,33.154507,55.589695,392.3255,294.971832,94.940392,0.066484,-0.033678,288.565094,0.011308,0.090572,0.068198,0,1, set /instrumentation/heading-indicator/serviceable false, fly_strait
85.439224,-304.551544,-303.358093,4.734291,-0.741018,4.734291,-0.741018,-299.999847,-300,35.17588,56.313744,414.449432,294.971344,95.065659,0.06617,-0.030246,314.659058,0.010983,0.09266,0.068211,0,1, set /instrumentation/heading-indicator/serviceable false, fly_strait
85.688751,-303.47345,-302.279999,4.778216,-0.719594,4.778216,-0.719594,-299.999847,-300,36.520351,56.771759,426.745087,294.971039,95.178665,0.066369,-0.026357,330.980591,0.010586,0.094686,0.068236,0,1, set /instrumentation/heading-indicator/serviceable false, fly_strait
86.087593,-301.582214,-300.388763,4.84455,-0.671914,4.84455,-0.671914,-299.999847,-300,38.82478,57.520473,445.795868,294.970734,95.418419,0.067731,-0.018083,356.723328,0.01028,0.095564,0.068251,0,1, set /instrumentation/heading-indicator/serviceable false, fly_strait
86.333549,-300.320618,-299.127167,4.901068,-0.631625,4.901068,-0.631625,-299.999847,-300,40.331642,57.988091,457.974426,294.970703,95.601868,0.069044,-0.012507,372.189941,0.009599,0.096891,0.068266,0,1, set /instrumentation/heading-indicator/serviceable false, fly_strait
86.667671,-298.448792,-297.255371,4.982439,-0.567205,4.982439,-0.567205,-299.999847,-300,42.538311,58.643394,476.198914,294.970734,95.901169,0.071131,-0.005292,393.209229,0.009023,0.098021,0.068268,0,1, set /instrumentation/heading-indicator/serviceable false, fly_strait
86.913864,-296.952606,-295.759186,5.048156,-0.513835,5.048156,-0.513835,-299.999847,-300,44.285049,59.138725,490.830811,294.970795,96.158997,0.073,-7.24E-04,408.723511,0.008103,0.099649,0.068266,0,1, set /instrumentation/heading-indicator/serviceable false, fly_strait
87.233383,-294.851593,-293.658142,5.129445,-0.446039,5.129445,-0.446039,-289.999847,-290,46.721447,59.797432,510.933197,294.970917,96.541908,0.075098,0.003856,429.069672,0.007341,0.100963,0.068263,0,1, set /instrumentation/heading-indicator/serviceable false, fly_strait
87.446754,-293.352753,-292.159302,5.189122,-0.403085,5.189122,-0.403085,-289.999847,-290,48.448109,60.243694,524.56842,294.970978,96.825737,0.076176,0.006143,442.898529,0.006372,0.102589,0.068257,0,1, set /instrumentation/heading-indicator/serviceable false, fly_strait
87.757889,-290.950958,-289.757507,5.274248,-0.34922,5.274248,-0.34922,-289.999847,-290,51.199436,60.922939,545.61084,294.970978,97.292389,0.077291,0.008745,464.030365,0.005758,0.103782,0.068254,0,1, set /instrumentation/heading-indicator/serviceable false, fly_strait
88.045845,-288.577332,-287.383881,5.357703,-0.30962,5.357703,-0.30962,-289.999847,-290,53.901455,61.55563,565.530273,294.970886,97.760605,0.077929,0.010936,483.903229,0.004989,0.105485,0.068254,0,1, set /instrumentation/heading-indicator/serviceable false, fly_strait
88.235588,-286.892517,-285.699066,5.416707,-0.28754,5.416707,-0.28754,-289.999847,-290,55.810009,61.983898,579.091125,294.970825,98.093468,0.078206,0.012592,497.473541,0.004423,0.107154,0.068259,0,1, set /instrumentation/heading-indicator/serviceable false, fly_strait
88.515503,-284.203644,-283.010193,5.497573,-0.259437,5.497573,-0.259437,-279.999847,-280,58.840687,62.635193,599.75647,294.970642,98.620316,0.078645,0.015658,518.443665,0.004108,0.108334,0.068262,0,1, set /instrumentation/heading-indicator/serviceable false, fly_strait
88.683563,-282.47876,-281.285309,5.551278,-0.242355,5.551278,-0.242355,-279.999847,-280,60.77774,63.03455,612.522095,294.970551,98.953423,0.079025,0.017911,531.220581,0.003706,0.109951,0.068271,0,1, set /instrumentation/heading-indicator/serviceable false, fly_strait
88.941826,-279.694916,-278.501465,5.630519,-0.214982,5.630519,-0.214982,-279.999847,-280,63.891605,63.651108,632.390442,294.970459,99.478775,0.079809,0.021748,551.169556,0.003462,0.111026,0.068275,0,1, set /instrumentation/heading-indicator/serviceable false, fly_strait
89.098198,-277.781494,-276.588043,5.68945,-0.194346,5.68945,-0.194346,-279.999847,-280,66.022461,64.056343,645.670044,294.970428,99.829132,0.080437,0.024349,564.55072,0.003071,0.11261,0.06828,0,1, set /instrumentation/heading-indicator/serviceable false, fly_strait
89.336555,-274.744049,-273.550598,5.77281,-0.160966,5.77281,-0.160966,-269.999847,-270,69.394821,64.671928,666.163147,294.970428,100.365089,0.081483,0.028083,584.986389,0.002776,0.113789,0.068282,0,1, set /instrumentation/heading-indicator/serviceable false, fly_strait
89.479004,-272.80304,-271.609589,5.826634,-0.13901,5.826634,-0.13901,-269.999847,-270,71.543701,65.048965,678.728394,294.970428,100.693512,0.08218,0.030155,597.556152,0.0023,0.115456,0.068282,0,1, set /instrumentation/heading-indicator/serviceable false, fly_strait
89.692444,-269.681885,-268.488464,5.901592,-0.106365,5.901592,-0.106365,-269.999847,-270,74.98703,65.630432,697.897034,294.970428,101.196693,0.083171,0.032934,617.236938,0.001986,0.116533,0.068282,0,1, set /instrumentation/heading-indicator/serviceable false, fly_strait
89.833282,-267.455811,-266.26236,5.956805,-0.084385,5.956805,-0.084385,-269.999847,-270,77.433609,66.027992,710.861145,294.970428,101.536194,0.083742,0.034596,630.846375,0.00152,0.118032,0.068282,0,1, set /instrumentation/heading-indicator/serviceable false, fly_strait
90.027306,-264.262939,-263.069489,6.026651,-0.057281,6.026651,-0.057281,-259.999847,-260,80.933868,66.575989,728.590393,294.970398,101.994812,0.084469,0.036634,649.4599,0.001205,0.119136,0.068282,0,1, set /instrumentation/heading-indicator/serviceable false, fly_strait
90.216881,-260.882141,-259.68869,6.100346,-0.032166,6.100346,-0.032166,-259.999847,-260,84.6222,67.129189,746.234253,294.970367,102.44294,0.085071,0.038609,668.601685,8.18E-04,0.120533,0.068283,0,1, set /instrumentation/heading-indicator/serviceable false, fly_strait
90.335655,-258.476593,-257.283173,6.150949,-0.016217,6.150949,-0.016217,-259.999847,-260,87.235031,67.507133,758.296814,294.970337,102.738373,0.085421,0.039975,681.914551,4.60E-04,0.122007,0.068285,0,1, set /instrumentation/heading-indicator/serviceable false, fly_strait
90.495193,-255.135864,-253.942413,6.209344,0.003183,6.209344,0.003183,-259.999847,-260,90.854469,68.012962,773.970764,294.970276,103.117584,0.085909,0.041903,699.511292,2.32E-04,0.123019,0.068286,0,1, set /instrumentation/heading-indicator/serviceable false, fly_strait
90.612579,-252.628769,-251.435333,6.254855,0.017499,6.254855,0.017499,-249.999863,-250,93.561646,68.378914,784.943542,294.970245,103.378784,0.086378,0.043405,712.167542,-4.50E-05,0.124187,0.068289,0,1, set /instrumentation/heading-indicator/serviceable false, fly_strait
90.771744,-248.942139,-247.748703,6.316504,0.037853,6.316504,0.037853,-249.999863,-250,97.526352,68.897026,800.397095,294.970215,103.727371,0.087023,0.045574,730.165283,-2.50E-04,0.125097,0.068291,0,1, set /instrumentation/heading-indicator/serviceable false, fly_strait
90.867264,-246.543716,-245.350281,6.35761,0.051426,6.35761,0.051426,-249.999863,-250,100.099152,69.22258,810.018127,294.970184,103.932571,0.087395,0.046935,741.274109,-5.41E-04,0.12633,0.068292,0,1, set /instrumentation/heading-indicator/serviceable false, fly_strait
91.019836,-242.612335,-241.4189,6.41474,0.072605,6.41474,0.072605,-239.999863,-240,104.301781,69.737419,824.999023,294.970154,104.233551,0.088166,0.048979,758.960022,-7.35E-04,0.127152,0.068294,0,1, set /instrumentation/heading-indicator/serviceable false, fly_strait
91.116158,-239.905731,-238.71228,6.454774,0.087161,6.454774,0.087161,-239.999863,-240,107.183807,70.079132,834.678223,294.970154,104.416466,0.088621,0.050265,770.763123,-0.001037,0.128295,0.068295,0,1, set /instrumentation/heading-indicator/serviceable false, fly_strait
91.247505,-236.056381,-234.862946,6.504409,0.106175,6.504409,0.106175,-239.999863,-240,111.274261,70.549232,847.732422,294.970154,104.645004,0.089276,0.051893,786.585815,-0.001245,0.129095,0.068295,0,1, set /instrumentation/heading-indicator/serviceable false, fly_strait
91.383568,-232.022186,-230.828735,6.556119,0.124852,6.556119,0.124852,-229.999863,-230,115.545944,71.022774,860.543152,294.970123,104.84713,0.08988,0.053417,802.395996,-0.001517,0.130088,0.068295,0,1, set /instrumentation/heading-indicator/serviceable false, fly_strait
91.465416,-229.179932,-227.986496,6.592473,0.137298,6.592473,0.137298,-229.999863,-230,118.549622,71.345703,869.237,294.970123,104.968422,0.090238,0.054396,812.909729,-0.001784,0.131122,0.068297,0,1, set /instrumentation/heading-indicator/serviceable false, fly_strait
91.581474,-225.142639,-223.949188,6.634811,0.152474,6.634811,0.152474,-229.999863,-230,122.804504,71.789742,880.856323,294.970093,105.113037,0.090753,0.0557,827.397034,-0.001961,0.131849,0.068297,0,1, set /instrumentation/heading-indicator/serviceable false, fly_strait
91.658257,-222.335007,-221.141571,6.665644,0.16269,6.665644,0.16269,-219.999863,-220,125.75383,72.088844,888.433105,294.970093,105.195969,0.091083,0.056593,837.194153,-0.002178,0.132696,0.068298,0,1, set /instrumentation/heading-indicator/serviceable false, fly_strait
91.773537,-218.070786,-216.87735,6.707676,0.176906,6.707676,0.176906,-219.999863,-220,130.224609,72.52935,899.458252,294.970062,105.297127,0.091572,0.057902,851.298767,-0.002324,0.133313,0.068298,0,1, set /instrumentation/heading-indicator/serviceable false, fly_strait
91.872574,-213.741898,-212.548462,6.750353,0.190888,6.750353,0.190888,-209.999863,-210,134.749176,72.96022,910.044495,294.969849,105.372513,0.092055,0.059187,865.003967,-0.002527,0.134154,0.0683,0,1, set /instrumentation/heading-indicator/serviceable false, fly_strait
91.943306,-210.69928,-209.505844,6.779402,0.200443,6.779402,0.200443,-209.999863,-210,137.921997,73.253822,917.221741,294.969849,105.411087,0.092365,0.060044,874.262939,-0.002727,0.135007,0.068301,0,1, set /instrumentation/heading-indicator/serviceable false, fly_strait
92.039352,-206.395157,-205.201721,6.813622,0.212929,6.813622,0.212929,-209.999863,-210,142.404892,73.657219,926.755737,294.969849,105.448158,0.092842,0.061186,886.606567,-0.002863,0.135588,0.068301,0,1, set /instrumentation/heading-indicator/serviceable false, fly_strait
92.100311,-203.536514,-202.343063,6.837748,0.221227,6.837748,0.221227,-199.999863,-200,145.375259,73.917511,932.704712,294.969849,105.462891,0.093102,0.061915,894.553589,-0.003042,0.136272,0.068303,0,1, set /instrumentation/heading-indicator/serviceable false, fly_strait
92.201958,-198.897491,-197.704056,6.873331,0.233789,6.873331,0.233789,-199.999863,-200,150.193192,74.328377,942.034729,294.969849,105.472832,0.093602,0.063,906.505066,-0.00316,0.136755,0.068303,0,1, set /instrumentation/heading-indicator/serviceable false, fly_strait
92.255798,-195.727783,-194.534348,6.898606,0.242204,6.898606,0.242204,-199.999863,-200,153.475143,74.600548,948.148499,294.969849,105.47139,0.093878,0.063688,914.64325,-0.00334,0.137467,0.068304,0,1, set /instrumentation/heading-indicator/serviceable false, fly_strait
92.341949,-191.253464,-190.060028,6.928569,0.252906,6.928569,0.252906,-189.999863,-190,158.105118,74.974319,956.401306,294.969849,105.460571,0.094278,0.064577,925.381653,-0.00346,0.137972,0.068304,0,1, set /instrumentation/heading-indicator/serviceable false, fly_strait
92.395905,-188.028259,-186.834808,6.950855,0.260378,6.950855,0.260378,-189.999863,-190,161.436035,75.236176,961.997192,294.969849,105.447929,0.094531,0.065193,932.896606,-0.003613,0.138571,0.068304,0,1, set /instrumentation/heading-indicator/serviceable false, fly_strait
92.476349,-183.477448,-182.283997,6.978922,0.270006,6.978922,0.270006,-179.999863,-180,166.131577,75.595711,969.579468,294.969849,105.425461,0.094897,0.06601,942.932434,-0.00372,0.139017,0.068304,0,1, set /instrumentation/heading-indicator/serviceable false, fly_strait
92.524094,-180.33165,-179.138214,6.999005,0.276497,6.999005,0.276497,-179.999863,-180,169.372177,75.83754,974.581299,294.969849,105.408066,0.09513,0.066559,949.653503,-0.003857,0.139578,0.068306,0,1, set /instrumentation/heading-indicator/serviceable false, fly_strait
92.592949,-175.709183,-174.515747,7.025435,0.285345,7.025435,0.285345,-179.999863,-180,174.127579,76.183449,981.65686,294.969849,105.381714,0.095431,0.067322,959.154114,-0.00395,0.13998,0.068306,0,1, set /instrumentation/heading-indicator/serviceable false, fly_strait
92.663734,-172.388199,-171.194763,7.045307,0.291651,7.045307,0.291651,-169.999863,-170,177.544891,76.425674,986.539063,294.969849,105.363365,0.095686,0.067853,965.388916,-0.004076,0.140509,0.068307,0,1, set /instrumentation/heading-indicator/serviceable false, fly_strait
92.715088,-167.567703,-166.374268,7.070653,0.300138,7.070653,0.300138,-169.999863,-170,182.495331,76.767494,993.370789,294.969849,105.339493,0.096004,0.068576,974.414856,-0.004166,0.140906,0.068307,0,1, set /instrumentation/heading-indicator/serviceable false, fly_strait
92.782448,-162.70752,-161.514084,7.095825,0.308399,7.095825,0.308399,-159.999863,-160,187.478958,77.101173,999.869446,294.969849,105.320656,0.096316,0.069271,983.188721,-0.004288,0.141413,0.068307,0,1, set /instrumentation/heading-indicator/serviceable false, fly_strait
92.820976,-159.446701,-158.253265,7.112533,0.313774,7.112533,0.313774,-159.999863,-160,190.819153,77.319183,1004.080688,294.969849,105.311913,0.096513,0.069713,988.849731,-0.004406,0.141916,0.068307,0,1, set /instrumentation/heading-indicator/serviceable false, fly_strait
92.882095,-154.526886,-153.33345,7.134002,0.32121,7.134002,0.32121,-149.999863,-150,195.85524,77.639626,1010.097656,294.969849,105.305855,0.096809,0.070343,996.978638,-0.004482,0.142251,0.068309,0,1, set /instrumentation/heading-indicator/serviceable false, fly_strait
92.918869,-151.363922,-150.170471,7.148829,0.325982,7.148829,0.325982,-149.999863,-150,199.088043,77.840286,1013.770874,294.969849,105.307022,0.096968,0.070737,1002.114929,-0.004589,0.14268,0.068309,0,1, set /instrumentation/heading-indicator/serviceable false, fly_strait
92.9748,-146.388657,-145.195221,7.169636,0.332945,7.169636,0.332945,-149.999863,-150,204.171448,78.148094,1019.375671,294.969849,105.317711,0.097243,0.071315,1009.730164,-0.004657,0.142977,0.068309,0,1, set /instrumentation/heading-indicator/serviceable false, fly_strait
93.012383,-142.777344,-141.583893,7.185224,0.337922,7.185224,0.337922,-139.999863,-140,207.859818,78.365715,1023.274475,294.969849,105.332672,0.09745,0.071716,1014.937683,-0.004756,0.143393,0.068309,0,1, set /instrumentation/heading-indicator/serviceable false, fly_strait
93.065742,-137.750092,-136.556656,7.20392,0.344273,7.20392,0.344273,-139.999863,-140,212.9897,78.660652,1028.463257,294.969849,105.364075,0.097705,0.072237,1021.953369,-0.004827,0.143704,0.068311,0,1, set /instrumentation/heading-indicator/serviceable false, fly_strait
93.114212,-133.121262,-131.927811,7.221551,0.349968,7.221551,0.349968,-129.999863,-130,217.714188,78.924622,1032.98999,294.969849,105.404167,0.097922,0.072698,1027.84082,-0.004918,0.144078,0.068311,0,1, set /instrumentation/heading-indicator/serviceable false, fly_strait
93.145462,-129.455475,-128.262039,7.235271,0.354309,7.235271,0.354309,-129.999863,-130,221.450958,79.128357,1036.473389,294.969849,105.443558,0.098103,0.073043,1032.521606,-0.005,0.144431,0.068311,0,1, set /instrumentation/heading-indicator/serviceable false, fly_strait
93.192513,-124.353073,-123.15963,7.251906,0.359892,7.251906,0.359892,-119.999855,-120,226.645355,79.404396,1041.095337,294.969849,105.509491,0.098327,0.073496,1038.945557,-0.005062,0.144705,0.068311,0,1, set /instrumentation/heading-indicator/serviceable false, fly_strait
93.224251,-120.936897,-119.743454,7.263469,0.363579,7.263469,0.363579,-119.999855,-120,230.120773,79.584579,1044.036987,294.969818,105.560738,0.098471,0.073791,1043.077271,-0.005141,0.145038,0.068311,0,1, set /instrumentation/heading-indicator/serviceable false, fly_strait
93.264832,-115.792801,-114.59935,7.278904,0.368717,7.278904,0.368717,-119.999855,-120,235.35202,79.849182,1048.297119,294.969818,105.64827,0.098683,0.074211,1048.995117,-0.005194,0.145269,0.068312,0,1, set /instrumentation/heading-indicator/serviceable false, fly_strait
93.287315,-112.347519,-111.154076,7.28961,0.372112,7.28961,0.372112,-109.999855,-110,238.851074,80.021866,1051.025635,294.969818,105.713509,0.098819,0.074484,1052.955566,-0.005267,0.145578,0.068312,0,1, set /instrumentation/heading-indicator/serviceable false, fly_strait
93.329887,-107.023125,-105.829681,7.304288,0.376993,7.304288,0.376993,-109.999855,-110,244.26297,80.282372,1055.074463,294.969818,105.824295,0.099018,0.074883,1058.433105,-0.005316,0.145792,0.068312,0,1, set /instrumentation/heading-indicator/serviceable false, fly_strait
93.357155,-103.702667,-102.509224,7.313948,0.380029,7.313948,0.380029,-99.999855,-100,247.63739,80.440872,1057.500977,294.969818,105.899055,0.099144,0.075122,1061.639648,-0.005386,0.146086,0.068312,0,1, set /instrumentation/heading-indicator/serviceable false, fly_strait
93.392509,-98.483475,-97.290031,7.326893,0.3844,7.326893,0.3844,-99.999855,-100,252.934433,80.683754,1061.162231,294.969818,106.024399,0.099331,0.075473,1066.79187,-0.005429,0.146279,0.068312,0,1, set /instrumentation/heading-indicator/serviceable false, fly_strait
93.417831,-94.992577,-93.799133,7.336185,0.387322,7.336185,0.387322,-99.999855,-100,256.475677,80.842216,1063.498901,294.969818,106.113129,0.099448,0.075701,1070.094482,-0.005491,0.146538,0.068312,0,1, set /instrumentation/heading-indicator/serviceable false, fly_strait
93.451279,-89.73967,-88.546227,7.348525,0.391381,7.348525,0.391381,-89.999855,-90,261.802032,81.074806,1066.910889,294.969788,106.253082,0.099618,0.076019,1074.877808,-0.005533,0.146724,0.068312,0,1, set /instrumentation/heading-indicator/serviceable false, fly_strait
93.491638,-84.472054,-83.27861,7.360819,0.395299,7.360819,0.395299,-79.999855,-80,267.144989,81.301399,1070.161865,294.969788,106.400116,0.099779,0.076323,1079.202393,-0.005591,0.14697,0.068314,0,1, set /instrumentation/heading-indicator/serviceable false, fly_strait
93.502403,-80.800194,-79.60675,7.369462,0.397954,7.369462,0.397954,-79.999855,-80,270.864807,81.455292,1072.364014,294.969788,106.505661,0.099878,0.076524,1082.322754,-0.005647,0.147216,0.068314,0,1, set /instrumentation/heading-indicator/serviceable false, fly_strait
93.538284,-75.647995,-74.454552,7.379657,0.401354,7.379657,0.401354,-79.999855,-80,276.085175,81.666069,1075.312866,294.969788,106.657196,0.100026,0.076793,1086.38623,-0.005685,0.147389,0.068314,0,1, set /instrumentation/heading-indicator/serviceable false, fly_strait
93.554955,-72.10524,-70.911797,7.387068,0.40368,7.387068,0.40368,-69.999855,-70,279.672852,81.807503,1077.233765,294.969788,106.763039,0.100122,0.076976,1089.114014,-0.005734,0.147593,0.068314,0,1, set /instrumentation/heading-indicator/serviceable false, fly_strait
93.586235,-66.779678,-65.586235,7.397252,0.406962,7.397252,0.406962,-69.999855,-70,285.066315,82.015022,1080.037964,294.969788,106.923721,0.100261,0.077236,1092.954346,-0.005767,0.147741,0.068314,0,1, set /instrumentation/heading-indicator/serviceable false, fly_strait
93.601707,-63.069214,-61.875771,7.40464,0.409234,7.40464,0.409234,-59.999859,-60,288.819855,82.155922,1081.924316,294.969788,107.036034,0.100349,0.077411,1095.71106,-0.005814,0.147945,0.068314,0,1, set /instrumentation/heading-indicator/serviceable false, fly_strait
93.62748,-57.716106,-56.522659,7.413767,0.412257,7.413767,0.412257,-59.999859,-60,294.236267,82.354286,1084.540771,294.969788,107.197792,0.100479,0.077646,1099.386597,-0.005846,0.148093,0.068314,0,1, set /instrumentation/heading-indicator/serviceable false, fly_strait
93.648033,-54.291229,-53.097782,7.419928,0.414184,7.419928,0.414184,-49.999859,-50,297.70343,82.478264,1086.136719,294.969788,107.300629,0.100562,0.077793,1101.486572,-0.005889,0.148275,0.068314,0,1, set /instrumentation/heading-indicator/serviceable false, fly_strait
93.668068,-48.765472,-47.572029,7.428833,0.417071,7.428833,0.417071,-49.999859,-50,303.291626,82.673302,1088.62854,294.969757,107.464317,0.100683,0.078015,1105.029297,-0.005917,0.148399,0.068314,0,1, set /instrumentation/heading-indicator/serviceable false, fly_strait
93.688011,-45.326401,-44.132957,7.434636,0.418852,7.434636,0.418852,-49.999859,-50,306.771667,82.791847,1090.125366,294.969757,107.564522,0.100759,0.078148,1106.983154,-0.005958,0.148577,0.068315,0,1, set /instrumentation/heading-indicator/serviceable false, fly_strait
93.706985,-39.779953,-38.58651,7.442807,0.4215,7.442807,0.4215,-39.999859,-40,312.379913,82.978317,1092.447998,294.969757,107.722404,0.100869,0.078351,1110.21814,-0.005984,0.148693,0.068315,0,1, set /instrumentation/heading-indicator/serviceable false, fly_strait
93.721321,-36.175304,-34.981861,7.448388,0.423209,7.448388,0.423209,-39.999859,-40,316.023895,83.096527,1093.901123,294.969757,107.822227,0.100939,0.078479,1112.258911,-0.006021,0.148856,0.068315,0,1, set /instrumentation/heading-indicator/serviceable false, fly_strait
93.744286,-30.758329,-29.564886,7.45575,0.425587,7.45575,0.425587,-29.999857,-30,321.498871,83.269867,1096.00061,294.969757,107.967499,0.101042,0.078661,1115.218628,-0.006046,0.148968,0.068315,0,1, set /instrumentation/heading-indicator/serviceable false, fly_strait
93.76757,-25.484369,-24.290924,7.463071,0.427855,7.463071,0.427855,-29.999857,-30,326.831573,83.433929,1097.959229,294.969757,108.102997,0.101142,0.078832,1117.78894,-0.00608,0.149115,0.068315,0,1, set /instrumentation/heading-indicator/serviceable false, fly_strait
93.777351,-21.860126,-20.666683,7.468127,0.42938,7.468127,0.42938,-19.999857,-20,330.493713,83.54393,1099.274292,294.969757,108.192352,0.101204,0.078944,1119.618652,-0.006112,0.149261,0.068315,0,1, set /instrumentation/heading-indicator/serviceable false, fly_strait
93.796501,-16.418293,-15.224849,7.474582,0.431486,7.474582,0.431486,-19.999857,-20,335.995026,83.705215,1101.167847,294.969757,108.32061,0.101294,0.079101,1122.089478,-0.006134,0.149363,0.068315,0,1, set /instrumentation/heading-indicator/serviceable false, fly_strait
93.808861,-12.782613,-11.589169,7.479171,0.432891,7.479171,0.432891,-9.999858,-10,339.667664,83.810303,1102.373657,294.969757,108.4021,0.101352,0.079204,1123.820435,-0.006164,0.149492,0.068315,0,1, set /instrumentation/heading-indicator/serviceable false, fly_strait
93.826546,-7.320771,-6.127326,7.485269,0.434849,7.485269,0.434849,-9.999858,-10,345.184082,83.964348,1104.129028,294.969757,108.51815,0.101438,0.079351,1126.338135,-0.006184,0.149583,0.068315,0,1, set /instrumentation/heading-indicator/serviceable false, fly_strait
93.83873,-3.521329,-2.327884,7.4898,0.436221,7.4898,0.436221,1.42E-04,0,349.019989,84.068848,1105.304321,294.969757,108.594299,0.101492,0.07945,1128.071533,-0.006212,0.149705,0.068315,0,1, set /instrumentation/heading-indicator/serviceable false, fly_strait
93.862473,1.948027,3.141471,7.495356,0.438017,7.495356,0.438017,1.42E-04,0,354.397064,84.211815,1106.905518,294.970276,108.694786,0.10157,0.07958,1130.169434,-0.006232,0.149796,0.068315,0,1, set /instrumentation/heading-indicator/serviceable true, fly_strait
93.866676,5.782666,6.976111,7.499345,0.441019,7.499345,0.441019,10.000142,10,358.088562,84.307625,1107.958008,295.019653,108.759613,0.097991,0.081154,1131.608032,-0.002086,0.149907,0.1,0,1, set /instrumentation/heading-indicator/serviceable true, turn_+45
93.871323,11.703161,12.896605,7.508774,0.505242,7.508774,0.505242,10.000142,10,363.786713,84.451828,1109.729736,295.230927,108.853859,0.09463,0.105516,1133.826782,-0.0021,0.149987,0.1,0,1, set /instrumentation/heading-indicator/serviceable true, turn_+45
93.874863,17.309134,18.502579,7.524533,0.684827,7.524533,0.684827,20.000143,20,369.186981,84.584198,1112.191895,295.527863,108.939964,0.103308,0.142252,1135.704712,-0.002406,0.150175,0.1,0,1, set /instrumentation/heading-indicator/serviceable true, turn_+45
93.853134,21.321848,22.515293,7.535888,0.888674,7.535888,0.888674,20.000143,20,373.052734,84.676231,1114.449097,295.744537,109.003006,0.113823,0.167385,1137.213867,-0.003261,0.150491,0.1,0,1, set /instrumentation/heading-indicator/serviceable true, turn_+45
93.828232,27.10675,28.300196,7.544459,1.254076,7.544459,1.254076,30.000143,30,378.633606,84.804947,1117.725098,296.005676,109.10183,0.131658,0.192508,1139.29126,-0.004232,0.150718,0.1,0,1, set /instrumentation/heading-indicator/serviceable true, turn_+45
93.810402,30.969501,32.162949,7.546708,1.515712,7.546708,1.515712,30.000143,30,382.362579,84.888245,1119.536621,296.131226,109.176125,0.141931,0.199935,1140.713257,-0.005972,0.150889,0.1,0,1, set /instrumentation/heading-indicator/serviceable true, turn_+45
93.793373,36.608456,37.801903,7.545712,1.862862,7.545712,1.862862,40.000141,40,387.809814,85.006203,1121.374268,296.250549,109.300476,0.151666,0.198873,1142.658203,-0.007218,0.150934,0.1,0,1, set /instrumentation/heading-indicator/serviceable true, turn_+45
93.778328,40.647133,41.84058,7.543715,2.068163,7.543715,2.068163,40.000141,40,391.704834,85.088013,1122.045044,296.307526,109.402504,0.153695,0.192978,1144.33252,-0.008871,0.150914,0.1,0,1, set /instrumentation/heading-indicator/serviceable true, turn_+45
93.769775,46.306568,47.500011,7.540394,2.274746,7.540394,2.274746,50.000141,50,397.160065,85.199356,1122.269043,296.38501,109.564911,0.151224,0.183821,1146.470947,-0.009848,0.150874,0.1,0,1, set /instrumentation/heading-indicator/serviceable true, turn_+45
93.76371,50.188824,51.382267,7.537689,2.370731,7.537689,2.370731,50.000141,50,400.900696,85.273682,1122.076782,296.456787,109.689484,0.147402,0.180352,1147.721436,-0.010832,0.150808,0.1,0,1, set /instrumentation/heading-indicator/serviceable true, turn_+45
93.759514,56.023682,57.217125,7.534058,2.466648,7.534058,2.466648,60.000141,60,406.509796,85.382294,1121.563965,296.614166,109.895943,0.141364,0.182567,1149.793457,-0.011289,0.150754,0.1,0,1, set /instrumentation/heading-indicator/serviceable true, turn_+45
93.774612,61.857418,63.050861,7.531051,2.545707,7.531051,2.545707,60.000141,60,412.116364,85.487579,1121.104126,296.834503,110.125252,0.137729,0.193822,1151.312866,-0.011746,0.150681,0.1,0,1, set /instrumentation/heading-indicator/serviceable true, turn_+45
93.749344,65.914436,67.10788,7.529637,2.609201,7.529637,2.609201,70.000145,70,416.008759,85.5588,1120.939819,297.015991,110.297798,0.137384,0.20527,1152.476685,-0.012122,0.150621,0.1,0,1, set /instrumentation/heading-indicator/serviceable true, turn_+45
93.73542,71.752434,72.945877,7.528771,2.724973,7.528771,2.724973,70.000145,70,421.613434,85.658638,1120.987915,297.297089,110.56572,0.139798,0.223234,1153.661499,-0.012425,0.150593,0.1,0,1, set /instrumentation/heading-indicator/serviceable true, turn_+45
93.732185,75.482643,76.676086,7.528286,2.815174,7.528286,2.815174,70.000145,70,425.194611,85.720757,1121.148926,297.477478,110.749252,0.14267,0.233762,1154.277466,-0.012976,0.150575,0.1,0,1, set /instrumentation/heading-indicator/serviceable true, turn_+45
93.718315,81.321938,82.515381,7.527183,2.969241,7.527183,2.969241,80.000145,80,430.801117,85.815384,1121.434448,297.746857,111.05645,0.147405,0.246489,1155.106079,-0.013406,0.150566,0.1,0,1, set /instrumentation/heading-indicator/serviceable true, turn_+45
93.709732,85.216789,86.410233,7.52602,3.073551,7.52602,3.073551,80.000145,80,434.539459,85.876747,1121.552124,297.914276,111.274956,0.15002,0.252069,1155.671265,-0.014139,0.150544,0.1,0,1, set /instrumentation/heading-indicator/serviceable true, turn_+45
93.701805,91.056213,92.249657,7.523792,3.21425,7.523792,3.21425,90.000145,90,440.147247,85.966278,1121.514038,298.149994,111.623138,0.152324,0.25673,1156.229248,-0.014636,0.15052,0.1,0,1, set /instrumentation/heading-indicator/serviceable true, turn_+45
93.68766,95.112679,96.306122,7.521717,3.297193,7.521717,3.297193,90.000145,90,444.041077,86.026741,1121.312256,298.308319,111.87886,0.15265,0.258458,1156.631714,-0.015306,0.150476,0.1,0,1, set /instrumentation/heading-indicator/serviceable true, turn_+45
93.682014,100.951782,102.145226,7.518494,3.389774,7.518494,3.389774,100.000145,100,449.646423,86.111481,1120.803101,298.539703,112.265816,0.151747,0.260653,1157.02356,-0.015701,0.150434,0.1,0,1, set /instrumentation/heading-indicator/serviceable true, turn_+45
93.679596,104.681267,105.87471,7.516092,3.43595,7.516092,3.43595,100.000145,100,453.226074,86.16423,1120.38501,298.69458,112.523636,0.150652,0.262753,1157.18103,-0.016142,0.15037,0.1,0,1, set /instrumentation/heading-indicator/serviceable true, turn_+45
93.672134,110.681763,111.875206,7.512485,3.495368,7.512485,3.495368,110.000145,110,458.98172,86.246941,1119.672485,298.960358,112.953743,0.149084,0.268021,1157.463623,-0.016362,0.150322,0.1,0,1, set /instrumentation/heading-indicator/serviceable true, turn_+45
93.679367,114.404686,115.598129,7.510125,3.529093,7.510125,3.529093,110.000145,110,462.557739,86.29705,1119.244263,299.135956,113.229538,0.148438,0.272463,1157.243286,-0.016645,0.15025,0.1,0,1, set /instrumentation/heading-indicator/serviceable true, turn_+45
93.671455,120.235832,121.429276,7.507083,3.582834,7.507083,3.582834,120.000145,120,468.152405,86.37355,1118.66272,299.423065,113.672325,0.148359,0.280514,1157.192505,-0.016805,0.150202,0.1,0,1, set /instrumentation/heading-indicator/serviceable true, turn_+45
93.657455,124.286957,125.4804,7.50504,3.623995,7.50504,3.623995,120.000145,120,472.036041,86.425308,1118.3302,299.627594,113.986702,0.148857,0.286288,1157.289185,-0.017061,0.150142,0.1,0,1, set /instrumentation/heading-indicator/serviceable true, turn_+45
93.647957,130.111664,131.305115,7.502646,3.687849,7.502646,3.687849,130.000137,130,477.626617,86.497932,1117.928223,299.923492,114.447655,0.150119,0.293882,1157.014526,-0.017257,0.150101,0.1,0,1, set /instrumentation/heading-indicator/serviceable true, turn_+45
93.653572,135.772003,136.965439,7.50036,3.752608,7.50036,3.752608,140.000137,140,483.06012,86.566422,1117.577759,300.20816,114.903343,0.151491,0.2998,1156.697998,-0.017561,0.150053,0.1,0,1, set /instrumentation/heading-indicator/serviceable true, turn_+45
93.639969,139.816116,141.009567,7.498693,3.797526,7.498693,3.797526,140.000137,140,486.940125,86.614105,1117.310547,300.408661,115.2323,0.152212,0.303047,1156.602539,-0.01787,0.150007,0.1,0,1, set /instrumentation/heading-indicator/serviceable true, turn_+45
93.629814,145.63266,146.826096,7.496456,3.855422,7.496456,3.855422,150.000137,150,492.525604,86.681015,1116.885254,300.694458,115.709435,0.152818,0.306567,1156.187622,-0.018083,0.149974,0.1,0,1, set /instrumentation/heading-indicator/serviceable true, turn_+45
93.626167,149.51091,150.704361,7.494775,3.889045,7.494775,3.889045,150.000137,150,496.248016,86.72451,1116.56604,300.884583,116.02877,0.15289,0.308474,1156.019775,-0.018359,0.149929,0.1,0,1, set /instrumentation/heading-indicator/serviceable true, turn_+45
93.635986,155.321854,156.515289,7.492328,3.930751,7.492328,3.930751,150.000137,150,501.829498,86.788162,1116.042114,301.172119,116.507912,0.152645,0.311189,1155.509521,-0.018519,0.149896,0.1,0,1, set /instrumentation/heading-indicator/serviceable false, turn_+45
93.6222,159.198975,160.39241,7.490518,3.954324,7.490518,3.954324,160.000137,160,505.549011,86.829567,1115.672852,301.172028,116.826424,0.152368,0.313151,1155.433228,-0.018718,0.149847,0.1,0,1, set /instrumentation/heading-indicator/serviceable false, turn_+45
93.619743,164.844727,166.038177,7.488173,3.98405,7.488173,3.98405,160.000137,160,510.971069,86.888535,1115.139282,301.171875,117.28804,0.15201,0.316383,1154.971558,-0.01883,0.14981,0.1,0,1, set /instrumentation/heading-indicator/serviceable false, turn_+45
93.61731,168.55571,169.749146,7.486565,4.002307,7.486565,4.002307,170.000137,170,514.532776,86.926399,1114.807495,301.171814,117.58873,0.151855,0.318737,1154.797729,-0.018972,0.149763,0.1,0,1, set /instrumentation/heading-indicator/serviceable false, turn_+45
93.618515,174.679749,175.873184,7.484232,4.029082,7.484232,4.029082,170.000137,170,520.4151,86.987473,1114.302979,301.171631,118.079453,0.151332,0.323031,1154.267456,-0.019059,0.149731,0.1,0,1, set /instrumentation/heading-indicator/serviceable false, turn_+45
93.628609,180.315826,181.509277,7.482224,4.051279,7.482224,4.051279,180.000137,180,525.830811,87.042137,1113.910278,301.171509,118.523407,0.150993,0.327462,1153.705078,-0.019186,0.149685,0.1,0,1, set /instrumentation/heading-indicator/serviceable false, turn_+45
