airspeed_indicator_indicated_speed_kt,altimeter_indicated_altitude_ft,altimeter_pressure_alt_ft,attitude_indicator_indicated_pitch_deg,attitude_indicator_indicated_roll_deg,attitude_indicator_internal_pitch_deg,attitude_indicator_internal_roll_deg,encoder_indicated_altitude_ft,encoder_pressure_alt_ft,gps_indicated_altitude_ft,gps_indicated_ground_speed_kt,gps_indicated_vertical_speed,indicated_heading_deg,magnetic_compass_indicated_heading_deg,slip_skid_ball_indicated_slip_skid,turn_indicator_indicated_turn_rate,vertical_speed_indicator_indicated_speed_fpm,flight_aileron,flight_elevator,flight_rudder,flight_flaps,engine_throttle,engine_rpm,Command_fault,Command
24.878872,-230.814911,-229.621475,3.043641,0.688981,2.712346,-0.415333,-229.999863,-230.0,17.857666,5.8E-5,0.00268,297.864044,102.427795,0.043807,-0.030526,-1672.328003,-0.0,0.0,0.0,0.0,0.0,605.237,, takeoff
24.941084,-236.452713,-235.259262,3.05051,0.706365,2.714003,-0.415324,-229.999863,-230.0,17.857676,5.7E-5,0.002479,297.863159,99.393364,0.043801,-0.027501,-1673.127686,-0.0,0.0,0.0,0.0,0.0,605.126282,, takeoff
24.892763,-244.339355,-243.14592,2.867122,0.11325,2.708496,-0.415503,-239.999863,-240.0,17.857641,7.9E-5,-0.017485,297.862,95.367599,0.043704,-0.023765,-1673.790405,-0.010091,0.05428,4.4E-5,0.0,1.0,674.737732,, takeoff
24.896412,-249.520142,-248.326691,2.746474,-0.225211,2.689036,-0.416671,-249.999863,-250.0,17.857553,1.79E-4,-0.038956,297.861237,92.885712,0.043548,-0.021616,-1674.057617,-0.001618,0.05417,1.02E-4,0.0,1.0,781.257202,, takeoff
24.897837,-257.867828,-256.674377,2.636163,-0.422194,2.636163,-0.422194,-249.999863,-250.0,17.857342,9.03E-4,-0.025792,297.859924,89.201462,0.042946,-0.018672,-1674.849121,0.003217,0.053781,1.4E-4,0.0,1.0,1009.974304,, takeoff
24.923559,-263.506744,-262.313324,2.617354,-0.428873,2.617354,-0.428873,-259.999847,-260.0,17.857315,0.002849,0.010886,297.858704,86.945625,0.042541,-0.017044,-1675.235352,0.006031,0.052723,2.06E-4,0.0,1.0,1181.266113,, takeoff
24.912327,-271.396454,-270.203003,2.61595,-0.441759,2.61595,-0.441759,-269.999847,-270.0,17.857492,0.009864,0.060159,297.855865,84.126366,0.042632,-0.015291,-1675.463257,0.006127,0.052347,2.67E-4,0.0,1.0,1416.054077,, takeoff
24.922598,-279.510742,-278.317291,2.631868,-0.457837,2.631868,-0.457837,-279.999847,-280.0,17.857925,0.02552,0.110905,297.850708,81.658981,0.04368,-0.014169,-1675.557251,0.006311,0.052319,4.09E-4,0.0,1.0,1630.446655,, takeoff
24.963352,-284.918579,-283.725128,2.647409,-0.469078,2.647409,-0.469078,-279.999847,-280.0,17.858351,0.042529,0.143631,297.845276,80.265244,0.044964,-0.013839,-1675.520508,0.006541,0.052637,6.67E-4,0.0,1.0,1752.160645,, takeoff
23.851171,-292.631775,-291.438324,2.671929,-0.484999,2.671929,-0.484999,-289.999847,-290.0,17.859169,0.079143,0.191296,297.833557,78.598404,0.04756,-0.014008,-1668.609009,0.006701,0.052948,9.38E-4,0.0,1.0,1897.560669,, takeoff
21.489901,-297.311096,-296.117645,2.68957,-0.495763,2.68957,-0.495763,-289.999847,-290.0,17.859934,0.116802,0.229314,297.821167,77.641525,0.049721,-0.014677,-1624.046875,0.006929,0.053439,0.001524,0.0,1.0,1982.603516,, takeoff
18.768639,-302.19812,-301.0047,2.709885,-0.508198,2.709885,-0.508198,-299.999847,-300.0,17.861183,0.183248,0.283611,297.799622,76.728157,0.051665,-0.016181,-1515.786865,0.007082,0.053791,0.002144,0.0,1.0,2070.551758,, takeoff
17.191442,-304.810577,-303.617126,2.721712,-0.515253,2.721712,-0.515253,-299.999847,-300.0,17.8622,0.239981,0.32451,297.781433,76.345375,0.052991,-0.017598,-1418.026245,0.00726,0.054198,0.003221,0.0,1.0,2116.189697,, takeoff
15.248567,-307.864594,-306.671143,2.735747,-0.523663,2.735747,-0.523663,-309.999847,-310.0,17.863985,0.342957,0.388789,297.75061,76.129944,0.054656,-0.019951,-1245.555908,0.007361,0.054434,0.004131,0.0,1.0,2167.038818,, takeoff
14.227039,-309.444489,-308.251068,2.743363,-0.527995,2.743363,-0.527995,-309.999847,-310.0,17.865364,0.423825,0.434779,297.728119,76.215683,0.055661,-0.021608,-1117.794312,0.007481,0.054715,0.005672,0.0,1.0,2191.65625,, takeoff
13.090949,-311.290924,-310.097473,2.752383,-0.532854,2.752383,-0.532854,-309.999847,-310.0,17.867727,0.563698,0.5078,297.694275,76.668022,0.056705,-0.02375,-913.202759,0.007543,0.054867,0.006796,0.0,1.0,2218.125977,, takeoff
12.404092,-312.655609,-311.462158,2.759636,-0.536201,2.759636,-0.536201,-309.999847,-310.0,17.870462,0.725877,0.583769,297.66156,77.480392,0.057509,-0.025363,-699.961731,0.007612,0.055048,0.008488,0.0,1.0,2235.27002,, takeoff
12.174086,-313.361053,-312.167603,2.763729,-0.537784,2.763729,-0.537784,-309.999847,-310.0,17.872499,0.846296,0.635386,297.641724,78.204414,0.057986,-0.025978,-557.303833,0.00766,0.055193,0.010124,0.0,1.0,2242.902588,, takeoff
12.126371,-314.184601,-312.99115,2.768981,-0.539486,2.768981,-0.539486,-309.999847,-310.0,17.875881,1.045115,0.715275,297.617767,79.535393,0.058756,-0.02584,-352.343475,0.007683,0.055275,0.011116,0.0,1.0,2250.191162,, takeoff
12.271297,-314.625763,-313.432312,2.772405,-0.540275,2.772405,-0.540275,-309.999847,-310.0,17.878464,1.19581,0.770342,297.605286,80.613586,0.05945,-0.025094,-227.861099,0.007707,0.05538,0.012314,0.0,1.0,2253.033447,, takeoff
12.666785,-315.105621,-313.91217,2.77689,-0.541013,2.77689,-0.541013,-309.999847,-310.0,17.882406,1.423778,0.848522,297.594574,82.30426,0.0604,-0.023101,-111.500923,0.007718,0.055448,0.012938,0.0,1.0,2254.795898,, takeoff
13.040989,-315.361115,-314.167664,2.779962,-0.54126,2.779962,-0.54126,-309.999847,-310.0,17.885332,1.591303,0.903991,297.591187,83.567169,0.061206,-0.021271,-78.531815,0.007729,0.055538,0.013473,0.0,1.0,2254.875732,, takeoff
13.739673,-315.665222,-314.471771,2.784526,-0.541312,2.784526,-0.541312,-309.999847,-310.0,17.890196,1.86694,0.986626,297.591248,85.645035,0.062678,-0.017972,-54.57526,0.007732,0.055599,0.013643,0.0,1.0,2253.695801,, takeoff
14.251811,-315.816498,-314.623047,2.787517,-0.541094,2.787517,-0.541094,-309.999847,-310.0,17.893579,2.056705,1.041191,297.593567,87.058113,0.063543,-0.015739,-43.796833,0.007733,0.055691,0.01364,0.0,1.0,2252.297119,, takeoff
15.035038,-315.983215,-314.789764,2.791636,-0.540351,2.791636,-0.540351,-309.999847,-310.0,17.898685,2.33987,1.117763,297.597931,89.118706,0.064582,-0.01277,-32.112507,0.00773,0.05575,0.013524,0.0,1.0,2250.390137,, takeoff
15.964927,-316.118805,-314.925354,2.796385,-0.538617,2.796385,-0.538617,-309.999847,-310.0,17.904823,2.675609,1.203948,297.601837,91.463402,0.065446,-0.010077,-22.639662,0.007719,0.055833,0.013306,0.0,1.0,2250.378906,, takeoff
16.547308,-316.180878,-314.987427,2.79938,-0.537261,2.79938,-0.537261,-309.999847,-310.0,17.90876,2.888398,1.256303,297.602448,92.884407,0.065605,-0.008922,-21.154398,0.007695,0.055928,0.01311,0.0,1.0,2251.084473,, takeoff
17.509583,-316.256622,-315.063202,2.804297,-0.534746,2.804297,-0.534746,-319.999847,-320.0,17.915445,3.245424,1.340746,297.59903,95.143066,0.065299,-0.007974,-23.697475,0.007675,0.055988,0.01308,0.0,1.0,2252.867676,, takeoff
18.145397,-316.293152,-315.099701,2.807641,-0.532938,2.807641,-0.532938,-319.999847,-320.0,17.920002,3.486471,1.384492,297.593475,96.574043,0.064716,-0.007955,-15.548124,0.007639,0.056086,0.013251,0.0,1.0,2254.285645,, takeoff
19.058447,-316.331787,-315.138336,2.806248,-0.536146,2.806248,-0.536146,-319.999847,-320.0,17.92618,3.840359,1.317567,297.581451,98.532494,0.062892,-0.008725,-14.236826,0.007613,0.056153,0.013528,0.0,1.0,2256.488525,, takeoff
19.763506,-316.35321,-315.15979,2.807837,-0.536664,2.807837,-0.536664,-319.999847,-320.0,17.930717,4.120562,1.270638,297.569489,99.961052,0.06241,-0.009609,-12.000629,0.007659,0.056125,0.01413,0.0,1.0,2258.261475,, takeoff
20.747911,-316.373993,-315.180542,2.814109,-0.533826,2.814109,-0.533826,-319.999847,-320.0,17.937256,4.52187,1.341315,297.550049,101.818703,0.061088,-0.011044,-20.275562,0.007667,0.056157,0.014728,0.0,1.0,2260.777832,, takeoff
21.40502,-316.38327,-315.189819,2.818484,-0.531713,2.818484,-0.531713,-319.999847,-320.0,17.941811,4.797799,1.388344,297.53595,102.968613,0.060006,-0.012059,-15.576558,0.007626,0.056282,0.0157,0.0,1.0,2262.473145,, takeoff
22.395939,-316.391907,-315.198456,2.824763,-0.52869,2.824763,-0.52869,-319.999847,-320.0,17.948923,5.223927,1.453862,297.515381,104.545113,0.058496,-0.013287,-18.878128,0.007596,0.05637,0.016405,0.0,1.0,2265.023926,, takeoff
23.057755,-316.394836,-315.201385,2.829049,-0.526763,2.829049,-0.526763,-319.999847,-320.0,17.953852,5.515969,1.50022,297.502533,105.489693,0.057682,-0.013875,-7.259326,0.007553,0.056495,0.017433,0.0,1.0,2266.723389,, takeoff
24.052591,-316.395905,-315.202454,2.835499,-0.524073,2.835499,-0.524073,-319.999847,-320.0,17.961525,5.96563,1.566476,297.486145,106.736778,0.056911,-0.014192,-14.005329,0.007525,0.056581,0.018076,0.0,1.0,2269.266846,, takeoff
25.046833,-316.393829,-315.200378,2.842227,-0.521454,2.842227,-0.521454,-319.999847,-320.0,17.969536,6.428811,1.635343,297.473053,107.771545,0.056675,-0.013956,9.026135,0.007487,0.05671,0.018895,0.0,1.0,2271.800781,, takeoff
25.682678,-316.391205,-315.197784,2.846668,-0.519741,2.846668,-0.519741,-319.999847,-320.0,17.974831,6.731609,1.676744,297.466125,108.318703,0.056692,-0.013606,9.388774,0.007449,0.056845,0.01955,0.0,1.0,2273.415039,, takeoff
26.704927,-316.385315,-315.191864,2.853759,-0.516906,2.853759,-0.516906,-319.999847,-320.0,17.983639,7.229644,1.747957,297.456665,109.010864,0.056922,-0.01285,13.815211,0.007425,0.056933,0.019896,0.0,1.0,2276.005127,, takeoff
27.340284,-316.380768,-315.187317,2.85832,-0.51496,2.85832,-0.51496,-319.999847,-320.0,17.989296,7.545852,1.790229,297.450867,109.324699,0.057019,-0.012425,10.279272,0.007384,0.057075,0.020369,0.0,1.0,2277.611816,, takeoff
28.361559,-316.372375,-315.178925,2.866424,-0.512837,2.866424,-0.512837,-319.999847,-320.0,17.998404,8.064864,1.930142,297.440582,109.645561,0.057071,-0.012013,13.610282,0.007357,0.057166,0.020659,0.0,1.0,2280.192627,, takeoff
28.995125,-316.366516,-315.173065,2.878807,-0.510044,2.878807,-0.510044,-319.999847,-320.0,18.005219,8.393745,2.340871,297.432495,109.733627,0.05681,-0.012032,16.405298,0.007326,0.057328,0.021173,0.0,1.0,2281.794922,, takeoff
29.957605,-316.356445,-315.163025,2.886492,-0.505681,2.886492,-0.505681,-319.999847,-320.0,18.016745,8.903121,2.399523,297.417145,109.710732,0.055795,-0.012534,15.118683,0.007286,0.057576,0.021577,0.0,1.0,2284.230469,, takeoff
30.671881,-316.348206,-315.154755,2.890886,-0.502328,2.890886,-0.502328,-319.999847,-320.0,18.025515,9.288286,2.452647,297.402893,109.576996,0.054456,-0.013309,16.826977,0.007224,0.05773,0.022345,0.0,1.0,2286.038574,, takeoff
31.661057,-316.335846,-315.142426,2.897387,-0.497643,2.897387,-0.497643,-319.999847,-320.0,18.037989,9.830823,2.531631,297.379913,109.238647,0.052219,-0.014748,13.297089,0.007176,0.057818,0.023058,0.0,1.0,2288.54126,, takeoff
32.207611,-316.328583,-315.135132,2.901359,-0.494941,2.901359,-0.494941,-319.999847,-320.0,18.04509,10.136742,2.579061,297.36557,108.979126,0.050774,-0.015705,10.811857,0.007109,0.057948,0.024207,0.0,1.0,2289.931152,, takeoff
33.30386,-316.313354,-315.119904,2.909413,-0.489723,2.909413,-0.489723,-319.999847,-320.0,18.059662,10.757936,2.664878,297.335571,108.321381,0.047786,-0.017587,20.060467,0.007071,0.058027,0.024924,0.0,1.0,2292.712158,, takeoff
34.258537,-316.299255,-315.105804,2.915682,-0.485519,2.915682,-0.485519,-319.999847,-320.0,18.072699,11.311394,2.525769,297.308228,107.611267,0.045325,-0.01917,12.315762,0.006996,0.058188,0.026424,0.0,1.0,2295.14502,, takeoff
34.941029,-316.28891,-315.095459,2.918817,-0.487684,2.918817,-0.487684,-319.999847,-320.0,18.081493,11.712198,2.706112,297.289154,107.037926,0.043543,-0.020194,11.32987,0.006936,0.058314,0.027791,0.0,1.0,2296.883301,, takeoff
35.893375,-316.274109,-315.080658,2.928275,-0.484112,2.928275,-0.484112,-319.999847,-320.0,18.094955,12.280741,2.806834,297.265198,106.157593,0.042441,-0.020862,19.058655,0.006967,0.058376,0.028745,0.0,1.0,2299.316895,, takeoff
36.573044,-316.263214,-315.069763,2.933883,-0.481279,2.933883,-0.481279,-319.999847,-320.0,18.104805,12.691982,2.859725,297.249786,105.483093,0.04181,-0.021022,9.182424,0.006916,0.058566,0.029942,0.0,1.0,2301.055908,, takeoff
37.521275,-316.247559,-315.054108,2.94124,-0.47757,2.94124,-0.47757,-319.999847,-320.0,18.1189,13.274676,2.934052,297.230988,104.490219,0.041588,-0.020788,20.012358,0.006875,0.058678,0.030713,0.0,1.0,2303.490234,, takeoff
38.198063,-316.236115,-315.042664,2.946678,-0.474829,2.946678,-0.474829,-319.999847,-320.0,18.129192,13.695704,2.988651,297.218689,103.756104,0.041666,-0.020474,10.419075,0.006822,0.058825,0.031653,0.0,1.0,2305.229248,, takeoff
39.140781,-316.219238,-315.025818,2.952858,-0.471749,2.952858,-0.471749,-319.999847,-320.0,18.144176,14.308791,2.922194,297.201752,102.678337,0.041704,-0.019986,15.0694,0.006783,0.058934,0.032268,0.0,1.0,2307.725342,, takeoff
39.685051,-316.208801,-315.01535,2.956206,-0.4715,2.956206,-0.4715,-319.999847,-320.0,18.153009,14.687297,2.92685,297.191467,102.015411,0.041801,-0.019734,14.421828,0.006739,0.059057,0.033115,0.0,1.0,2309.218262,, takeoff
40.325375,-316.196625,-315.003174,2.961189,-0.46832,2.961189,-0.46832,-319.999847,-320.0,18.16353,15.13827,2.883674,297.180298,101.235092,0.041986,-0.019236,20.192184,0.006736,0.059124,0.033629,0.0,1.0,2310.947754,, takeoff
41.209896,-316.180328,-314.986908,2.966158,-0.463115,2.966158,-0.463115,-309.999847,-310.0,18.177906,15.769025,2.884411,297.167297,100.172691,0.041946,-0.018236,19.964951,0.00669,0.059224,0.034187,0.0,1.0,2313.29541,, takeoff
42.067112,-316.164948,-314.971497,2.972892,-0.461161,2.972892,-0.461161,-309.999847,-310.0,18.192102,16.389061,2.95348,297.157562,99.17485,0.042197,-0.01701,17.92412,0.006616,0.059323,0.034837,0.0,1.0,2315.544434,, takeoff
42.628967,-316.154968,-314.961517,2.977405,-0.460039,2.977405,-0.460039,-309.999847,-310.0,18.201611,16.800035,2.997393,297.15271,98.545128,0.042657,-0.016063,16.003962,0.006588,0.059458,0.035324,0.0,1.0,2317.010986,, takeoff
43.554699,-316.138641,-314.94519,2.984522,-0.458363,2.984522,-0.458363,-309.999847,-310.0,18.217627,17.48494,3.070113,297.146942,97.561409,0.043873,-0.014341,19.112522,0.006572,0.059548,0.035567,0.0,1.0,2319.438232,, takeoff
44.088711,-316.12915,-314.935699,2.994104,-0.462795,2.994104,-0.462795,-309.999847,-310.0,18.227823,17.884714,3.619649,297.144104,97.029205,0.043723,-0.013562,15.921253,0.006548,0.05969,0.035855,0.0,1.0,2321.332031,, takeoff
45.007351,-316.11203,-314.918579,3.007243,-0.465994,3.007243,-0.465994,-309.999847,-310.0,18.248886,18.580606,4.044514,297.13916,96.183472,0.045932,-0.01218,20.377798,0.006611,0.059882,0.035997,0.0,1.0,2325.763428,, takeoff
45.538517,-316.101563,-314.908112,3.01095,-0.464674,3.01095,-0.464674,-309.999847,-310.0,18.261316,18.986511,4.0898,297.135468,95.740089,0.046677,-0.01156,20.112984,0.006657,0.060145,0.036244,0.0,1.0,2328.758789,, takeoff
46.455421,-316.082703,-314.889252,3.016836,-0.462112,3.016836,-0.462112,-309.999847,-310.0,18.283129,19.692669,4.175316,297.126862,95.060127,0.047437,-0.010967,9.466368,0.006638,0.060219,0.036429,0.0,1.0,2334.366943, set /instrumentation/slip-skid-ball/serviceable false, takeoff
46.985935,-316.07135,-314.877899,3.020694,-0.460481,3.020694,-0.460481,-309.999847,-310.0,18.295973,20.104345,4.228876,297.120178,94.718399,0.047444,-0.010933,15.176095,0.006602,0.060337,0.036859,0.0,1.0,2337.774902, set /instrumentation/slip-skid-ball/serviceable false, takeoff
47.877895,-316.051697,-314.858246,3.02724,-0.457649,3.02724,-0.457649,-309.999847,-310.0,18.317944,20.801281,4.319583,297.106506,94.232491,0.047444,-0.011251,19.916965,0.006578,0.060414,0.037193,0.0,1.0,2343.664551, set /instrumentation/slip-skid-ball/serviceable false, takeoff
48.456352,-316.038635,-314.845215,3.031681,-0.455727,3.031681,-0.455727,-309.999847,-310.0,18.332441,21.256338,4.377264,297.0961,93.977791,0.047444,-0.011672,18.300493,0.006538,0.060545,0.037877,0.0,1.0,2347.553223, set /instrumentation/slip-skid-ball/serviceable false, takeoff
49.323524,-316.018616,-314.825165,3.03804,-0.453025,3.03804,-0.453025,-309.999847,-310.0,18.354555,21.943211,4.46519,297.079865,93.685287,0.047444,-0.012311,9.68963,0.00651,0.060634,0.038397,0.0,1.0,2353.447998, set /instrumentation/slip-skid-ball/serviceable false, takeoff
50.214523,-315.997192,-314.803772,3.044805,-0.450361,3.044805,-0.450361,-309.999847,-310.0,18.377739,22.654367,4.555127,297.063385,93.495369,0.047444,-0.012833,9.738998,0.006472,0.060761,0.039209,0.0,1.0,2359.555664, set /instrumentation/slip-skid-ball/serviceable false, takeoff
50.792419,-315.983063,-314.789612,3.046561,-0.451558,3.046561,-0.451558,-309.999847,-310.0,18.392607,23.118401,4.254701,297.053772,93.430725,0.047444,-0.013054,14.308664,0.006446,0.060849,0.039752,0.0,1.0,2363.534668, set /instrumentation/slip-skid-ball/serviceable false, takeoff
51.635696,-315.962433,-314.768982,3.048491,-0.45395,3.048491,-0.45395,-309.999847,-310.0,18.412369,23.798882,4.086885,297.04184,93.415833,0.047444,-0.012951,11.052377,0.006451,0.060931,0.040514,0.0,1.0,2369.356445, set /instrumentation/slip-skid-ball/serviceable false, takeoff
52.237644,-315.947845,-314.754395,3.053317,-0.452745,3.053317,-0.452745,-309.999847,-310.0,18.426676,24.287609,4.150092,297.035004,93.460289,0.047444,-0.012574,16.714951,0.006485,0.06097,0.04111,0.0,1.0,2373.525879, set /instrumentation/slip-skid-ball/serviceable false, takeoff
53.079582,-315.927429,-314.733978,3.060133,-0.451185,3.060133,-0.451185,-309.999847,-310.0,18.447056,24.975452,4.231722,297.027679,93.594933,0.047444,-0.011762,11.608957,0.006468,0.061066,0.041452,0.0,1.0,2379.374756, set /instrumentation/slip-skid-ball/serviceable false, takeoff
53.680618,-315.912842,-314.719391,3.064891,-0.450076,3.064891,-0.450076,-309.999847,-310.0,18.461849,25.469292,4.287024,297.023438,93.73938,0.047444,-0.011101,17.076624,0.006446,0.061203,0.041818,0.0,1.0,2383.560059, set /instrumentation/slip-skid-ball/serviceable false, takeoff
54.52132,-315.892273,-314.698853,3.071059,-0.448559,3.071059,-0.448559,-309.999847,-310.0,18.482882,26.164089,4.363596,297.018066,94.003204,0.047444,-0.010208,14.250126,0.00643,0.061298,0.04203,0.0,1.0,2389.428955, set /instrumentation/slip-skid-ball/serviceable false, takeoff
55.121338,-315.877502,-314.684052,3.076643,-0.447405,3.076643,-0.447405,-309.999847,-310.0,18.4984,26.662754,4.538546,297.013855,94.231514,0.047444,-0.009716,20.432362,0.006408,0.061421,0.042299,0.0,1.0,2393.627441, set /instrumentation/slip-skid-ball/serviceable false, takeoff
55.936642,-315.857056,-314.663635,3.084904,-0.446138,3.084904,-0.446138,-309.999847,-310.0,18.520216,27.344021,4.817468,297.006744,94.588837,0.047444,-0.009364,16.468689,0.006392,0.061533,0.042509,0.0,1.0,2399.345703, set /instrumentation/slip-skid-ball/serviceable false, takeoff
56.558647,-315.840942,-314.647522,3.094606,-0.447241,3.094606,-0.447241,-309.999847,-310.0,18.539581,27.867311,5.419828,296.999756,94.893753,0.047444,-0.009395,16.674765,0.006373,0.061698,0.042865,0.0,1.0,2403.723633, set /instrumentation/slip-skid-ball/serviceable false, takeoff
57.371723,-315.818848,-314.625427,3.09988,-0.445178,3.09988,-0.445178,-309.999847,-310.0,18.565338,28.554554,5.489935,296.988647,95.326874,0.047444,-0.009676,10.847351,0.006389,0.061892,0.043214,0.0,1.0,2409.455811, set /instrumentation/slip-skid-ball/serviceable false, takeoff
57.993149,-315.8013,-314.60788,3.103698,-0.443613,3.103698,-0.443613,-309.999847,-310.0,18.585281,29.082277,5.552874,296.97876,95.679306,0.047444,-0.010085,17.798969,0.00636,0.061998,0.04377,0.0,1.0,2413.844971, set /instrumentation/slip-skid-ball/serviceable false, takeoff
58.805412,-315.777649,-314.584198,3.105468,-0.444389,3.105468,-0.444389,-309.999847,-310.0,18.611149,29.775143,4.684856,296.964874,96.160614,0.047444,-0.010784,12.323534,0.006337,0.062074,0.044264,0.0,1.0,2419.592529, set /instrumentation/slip-skid-ball/serviceable false, takeoff
59.427143,-315.759399,-314.565948,3.105809,-0.445281,3.105809,-0.445281,-309.999847,-310.0,18.628824,30.307049,4.91809,296.954102,96.539207,0.047444,-0.011241,18.42268,0.006348,0.062109,0.044958,0.0,1.0,2423.994873, set /instrumentation/slip-skid-ball/serviceable false, takeoff
60.263084,-315.734985,-314.541534,3.111734,-0.443685,3.111734,-0.443685,-309.999847,-310.0,18.652967,31.025812,5.011544,296.940735,97.05571,0.047444,-0.011556,15.542237,0.006361,0.062116,0.045497,0.0,1.0,2429.930908, set /instrumentation/slip-skid-ball/serviceable false, takeoff
61.121799,-315.709839,-314.516388,3.118409,-0.442069,3.118409,-0.442069,-309.999847,-310.0,18.67827,31.76828,5.118094,296.928741,97.58651,0.047444,-0.01156,15.584905,0.006338,0.062235,0.046165,0.0,1.0,2436.055908, set /instrumentation/slip-skid-ball/serviceable false, takeoff
61.693542,-315.692993,-314.499542,3.123013,-0.44109,3.123013,-0.44109,-309.999847,-310.0,18.695736,32.26498,5.267186,296.922211,97.935593,0.047444,-0.011328,15.70488,0.006322,0.062322,0.046579,0.0,1.0,2440.193848, set /instrumentation/slip-skid-ball/serviceable false, takeoff
62.549671,-315.667358,-314.473907,3.134919,-0.441403,3.134919,-0.441403,-309.999847,-310.0,18.724108,33.012524,6.088978,296.914154,98.445694,0.047444,-0.010802,16.240669,0.006301,0.06246,0.047092,0.0,1.0,2446.471191, set /instrumentation/slip-skid-ball/serviceable false, takeoff
63.119453,-315.649658,-314.456207,3.139169,-0.440737,3.139169,-0.440737,-309.999847,-310.0,18.74449,33.512486,6.138887,296.909821,98.773376,0.047444,-0.010308,21.233541,0.006304,0.062616,0.047372,0.0,1.0,2450.686035, set /instrumentation/slip-skid-ball/serviceable false, takeoff
63.973549,-315.622131,-314.42868,3.144312,-0.439588,3.144312,-0.439588,-309.999847,-310.0,18.775394,34.264751,6.222962,296.903839,99.241028,0.047444,-0.009586,11.294758,0.006296,0.062783,0.047711,0.0,1.0,2457.038574, set /instrumentation/slip-skid-ball/serviceable false, takeoff
64.54248,-315.603271,-314.409821,3.147664,-0.438824,3.147664,-0.438824,-309.999847,-310.0,18.796242,34.767761,6.28349,296.89975,99.534096,0.047444,-0.00918,21.369209,0.006285,0.062854,0.047911,0.0,1.0,2461.288086, set /instrumentation/slip-skid-ball/serviceable false, fly_strait
65.396103,-315.574249,-314.380798,3.152487,-0.430027,3.152487,-0.430027,-309.999847,-310.0,18.827902,35.524452,6.375638,296.850983,99.941429,0.047444,-0.016502,17.024607,0.006269,0.062953,0.0,0.0,1.0,2467.678711, set /instrumentation/slip-skid-ball/serviceable false, fly_strait
65.967766,-315.554474,-314.361023,3.152871,-0.42712,3.152871,-0.42712,-309.999847,-310.0,18.849245,36.030346,6.425982,296.703278,100.188972,0.047444,-0.039428,19.425026,0.006213,0.063025,6.12E-4,0.0,1.0,2471.953857, set /instrumentation/slip-skid-ball/serviceable false, fly_strait
66.829956,-315.524261,-314.330811,3.149877,-0.436689,3.149877,-0.436689,-309.999847,-310.0,18.881205,36.791332,6.042017,296.338623,100.518417,0.047444,-0.091762,11.398248,0.006102,0.063057,0.009824,0.0,1.0,2478.39917, set /instrumentation/slip-skid-ball/serviceable false, fly_strait
67.432541,-315.503174,-314.309723,3.141595,-0.456656,3.141595,-0.456656,-309.999847,-310.0,18.901344,37.32135,5.701127,296.04425,100.713226,0.047444,-0.129692,19.638933,0.006151,0.063027,0.021323,0.0,1.0,2482.902344, set /instrumentation/slip-skid-ball/serviceable false, fly_strait
68.253174,-315.474854,-314.281403,3.140651,-0.473443,3.140651,-0.473443,-309.999847,-310.0,18.928427,38.047211,5.769224,295.673096,100.927094,0.047444,-0.16967,15.482615,0.006524,0.062832,0.042775,0.0,1.0,2489.062988, set /instrumentation/slip-skid-ball/serviceable false, fly_strait
68.876846,-315.453339,-314.259918,3.144754,-0.488291,3.144754,-0.488291,-309.999847,-310.0,18.949558,38.603802,6.0662,295.483185,101.047646,0.047444,-0.181209,12.424317,0.006678,0.062799,0.055884,0.0,1.0,2493.789063, set /instrumentation/slip-skid-ball/serviceable false, fly_strait
69.740044,-315.423279,-314.229828,3.12181,-0.569014,3.12181,-0.569014,-309.999847,-310.0,18.983067,39.376465,7.286932,295.40506,101.150604,0.047444,-0.167616,15.75123,0.006976,0.062895,0.070828,0.0,1.0,2500.343262, set /instrumentation/slip-skid-ball/serviceable false, fly_strait
70.29454,-315.40329,-314.209839,3.078348,-0.67118,3.078348,-0.67118,-309.999847,-310.0,19.006989,39.871296,7.591578,295.484406,101.177475,0.047444,-0.140661,12.125015,0.007518,0.062745,0.074736,0.0,1.0,2504.544189, set /instrumentation/slip-skid-ball/serviceable false, fly_strait
71.185844,-315.369659,-314.176208,3.006537,-0.838208,3.006537,-0.838208,-309.999847,-310.0,19.045176,40.669315,7.1433,295.786957,101.159317,0.047444,-0.075735,17.260895,0.009588,0.061567,0.070767,0.0,1.0,2511.331787, set /instrumentation/slip-skid-ball/serviceable false, fly_strait
71.731232,-315.348297,-314.154846,2.987129,-0.903424,2.987129,-0.903424,-309.999847,-310.0,19.067293,41.166519,6.769819,296.032257,101.112709,0.047444,-0.030924,13.409109,0.011229,0.060542,0.061894,0.0,1.0,2515.548584, set /instrumentation/slip-skid-ball/serviceable false, fly_strait
72.547531,-315.315552,-314.122101,2.985082,-0.953946,2.985082,-0.953946,-309.999847,-310.0,19.101068,41.924557,7.10689,296.388245,100.99691,0.047444,0.026825,20.912628,0.012906,0.059743,0.043375,0.0,1.0,2521.924072, set /instrumentation/slip-skid-ball/serviceable false, fly_strait
73.147919,-315.290894,-314.097473,2.978134,-0.980059,2.978134,-0.980059,-309.999847,-310.0,19.127966,42.488602,8.055599,296.564484,100.881256,0.047444,0.050187,17.983706,0.013628,0.059702,0.025575,0.0,1.0,2526.619873, set /instrumentation/slip-skid-ball/serviceable false, fly_strait
73.936478,-315.257202,-314.063751,2.895638,-0.990149,2.895638,-0.990149,-309.999847,-310.0,19.170214,43.227207,9.419393,296.599945,100.698029,0.047444,0.046622,14.610785,0.014001,0.059563,0.016763,0.0,1.0,2532.733154, set /instrumentation/slip-skid-ball/serviceable false, fly_strait
74.546089,-315.229736,-314.036285,2.802082,-1.005613,2.802082,-1.005613,-309.999847,-310.0,19.203405,43.792759,8.772918,296.466553,100.535202,0.047444,0.018862,12.719309,0.014145,0.057913,0.01499,0.0,1.0,2537.415527, set /instrumentation/slip-skid-ball/serviceable false, fly_strait
75.39785,-315.190491,-313.99707,2.726788,-1.118016,2.726788,-1.118016,-309.999847,-310.0,19.244816,44.576988,8.130496,296.105713,100.276611,0.047444,-0.043783,14.731931,0.014366,0.056042,0.02166,0.0,1.0,2543.935547, set /instrumentation/slip-skid-ball/serviceable false, fly_strait
75.969261,-315.163971,-313.97052,2.693972,-1.282774,2.693972,-1.282774,-309.999847,-310.0,19.27383,45.100651,9.613971,295.812073,100.081688,0.047444,-0.090267,21.785738,0.015972,0.054536,0.039702,0.0,1.0,2548.311768, set /instrumentation/slip-skid-ball/serviceable false, fly_strait
76.800171,-315.12262,-313.929169,2.709873,-1.644761,2.709873,-1.644761,-309.999847,-310.0,19.336981,45.865608,17.506823,295.44162,99.763306,0.047444,-0.1427,19.558697,0.018325,0.053879,0.054384,0.0,1.0,2554.733398, set /instrumentation/slip-skid-ball/serviceable false, fly_strait
77.661774,-315.065369,-313.871948,2.821954,-2.086716,2.821954,-2.086716,-309.999847,-310.0,19.470848,46.675789,35.842648,295.238678,99.383636,0.047444,-0.161471,18.705915,0.023497,0.054197,0.072907,0.0,1.0,2561.540283, set /instrumentation/slip-skid-ball/serviceable false, fly_strait
78.201103,-315.010864,-313.817413,2.931385,-2.320285,2.931385,-2.320285,-309.999847,-310.0,19.619068,47.201885,52.933056,295.244751,99.116951,0.047444,-0.149014,19.86462,0.027651,0.055465,0.080919,0.0,1.0,2565.9375, set /instrumentation/slip-skid-ball/serviceable true, fly_strait
78.971642,-314.884888,-313.691437,3.131239,-2.487322,3.131239,-2.487322,-309.999847,-310.0,19.961824,47.991219,84.188087,295.417542,98.696358,0.038317,-0.103339,31.75429,0.033147,0.058628,0.08275,0.0,1.0,2572.447021, set /instrumentation/slip-skid-ball/serviceable true, fly_strait
79.434761,-314.765564,-313.572113,3.269064,-2.443549,3.269064,-2.443549,-309.999847,-310.0,20.266996,48.49519,106.205238,295.580811,98.421692,0.040754,-0.066344,42.329353,0.035533,0.062625,0.07411,0.0,1.0,2576.516602, set /instrumentation/slip-skid-ball/serviceable true, fly_strait
80.132538,-314.48999,-313.296539,3.461449,-2.136902,3.461449,-2.136902,-309.999847,-310.0,20.907803,49.304451,141.911133,295.801361,97.984802,0.056888,-0.0162,63.005253,0.034908,0.065381,0.065947,0.0,1.0,2582.862549, set /instrumentation/slip-skid-ball/serviceable true, fly_strait
80.541931,-314.258881,-313.06546,3.574415,-1.850507,3.574415,-1.850507,-309.999847,-310.0,21.396376,49.806087,163.027832,295.859406,97.7239,0.066641,5.03E-4,77.386246,0.030527,0.069229,0.054919,0.0,1.0,2586.669189, set /instrumentation/slip-skid-ball/serviceable true, fly_strait
81.173927,-313.779327,-312.585876,3.708277,-1.38565,3.708277,-1.38565,-309.999847,-310.0,22.317503,50.609993,193.84024,295.772827,97.333199,0.081836,-0.004139,102.480492,0.026436,0.071488,0.052017,0.0,1.0,2592.09668, set /instrumentation/slip-skid-ball/serviceable true, fly_strait
81.556061,-313.412231,-312.218781,3.780342,-1.154469,3.780342,-1.154469,-309.999847,-310.0,22.966204,51.107491,211.489441,295.620819,97.112625,0.083931,-0.023225,118.377861,0.019795,0.074166,0.056346,0.0,1.0,2594.805664, set /instrumentation/slip-skid-ball/serviceable true, fly_strait
82.153625,-312.707672,-311.514221,3.881688,-0.982295,3.881688,-0.982295,-309.999847,-310.0,24.123556,51.903824,237.717682,295.314087,96.79789,0.076146,-0.063613,144.47287,0.016492,0.075607,0.063947,0.0,1.0,2598.453125, set /instrumentation/slip-skid-ball/serviceable true, fly_strait
82.51503,-312.200287,-311.006866,3.95339,-0.986963,3.95339,-0.986963,-309.999847,-310.0,24.908648,52.396183,253.190247,295.143036,96.627998,0.06807,-0.084571,160.376816,0.014033,0.077634,0.079283,0.0,1.0,2600.411865, set /instrumentation/slip-skid-ball/serviceable true, fly_strait
83.075317,-311.272614,-310.079193,4.068916,-1.113966,4.068916,-1.113966,-309.999847,-310.0,26.274672,53.183609,277.595825,295.013123,96.396988,0.049961,-0.093392,185.938858,0.014099,0.079068,0.087836,0.0,1.0,2603.229004, set /instrumentation/slip-skid-ball/serviceable true, fly_strait
83.408012,-310.628998,-309.435547,4.152487,-1.198134,4.152487,-1.198134,-309.999847,-310.0,27.186216,53.669968,292.55368,295.042664,96.280556,0.044579,-0.080874,201.367111,0.015914,0.081378,0.094331,0.0,1.0,2604.826172, set /instrumentation/slip-skid-ball/serviceable true, fly_strait
83.911133,-309.485596,-308.292175,4.283835,-1.221693,4.283835,-1.221693,-309.999847,-310.0,28.75666,54.446751,318.78595,295.23996,96.140511,0.045083,-0.03755,226.198807,0.017116,0.08305,0.092854,0.0,1.0,2607.206787, set /instrumentation/slip-skid-ball/serviceable true, fly_strait
84.336426,-308.317688,-307.124237,4.425587,-1.066606,4.425587,-1.066606,-309.999847,-310.0,30.329819,55.153702,347.402161,295.488251,96.068886,0.057198,0.010025,249.108582,0.017453,0.085677,0.082989,0.0,1.0,2609.225342, set /instrumentation/slip-skid-ball/serviceable true, fly_strait
84.637161,-307.34552,-306.152069,4.534862,-0.845163,4.534862,-0.845163,-309.999847,-310.0,31.629025,55.689377,371.064362,295.634277,96.055389,0.072904,0.03675,267.188751,0.016233,0.087587,0.074492,0.0,1.0,2610.675293, set /instrumentation/slip-skid-ball/serviceable true, fly_strait
85.006767,-305.965576,-304.772125,4.677763,-0.500434,4.677763,-0.500434,-309.999847,-310.0,33.448612,56.38287,397.987427,295.701843,96.096458,0.089674,0.04902,291.689819,0.012074,0.090697,0.063274,0.0,1.0,2612.466064, set /instrumentation/slip-skid-ball/serviceable true, fly_strait
85.279938,-304.826538,-303.633087,4.751896,-0.267794,4.751896,-0.267794,-299.999847,-300.0,34.917572,56.907608,414.363953,295.643677,96.174416,0.098893,0.039274,310.731384,0.007149,0.093555,0.059895,0.0,1.0,2613.769775, set /instrumentation/slip-skid-ball/serviceable true, fly_strait
85.667595,-303.13623,-301.94278,4.793436,-0.098988,4.793436,-0.098988,-299.999847,-300.0,37.03886,57.626076,432.945129,295.454773,96.34716,0.099163,0.00761,336.098236,0.003826,0.095038,0.062804,0.0,1.0,2615.505371, set /instrumentation/slip-skid-ball/serviceable true, fly_strait
85.909828,-301.937164,-300.743713,4.820982,-0.098386,4.820982,-0.098386,-299.999847,-300.0,38.500278,58.099888,443.363007,295.312714,96.50071,0.092545,-0.015484,352.830841,0.001414,0.095869,0.072249,0.0,1.0,2616.629883, set /instrumentation/slip-skid-ball/serviceable true, fly_strait
86.281654,-300.045868,-298.852417,4.885774,-0.23753,4.885774,-0.23753,-299.999847,-300.0,40.756618,58.802929,458.921234,295.180878,96.781136,0.077675,-0.035637,375.882355,0.001406,0.09642,0.079352,0.0,1.0,2618.276123, set /instrumentation/slip-skid-ball/serviceable true, fly_strait
86.629028,-298.10733,-296.91391,4.971584,-0.419526,4.971584,-0.419526,-299.999847,-300.0,43.02903,59.477551,475.931213,295.20639,97.103577,0.067188,-0.02928,396.463196,0.003393,0.097715,0.085944,0.0,1.0,2619.830322, set /instrumentation/slip-skid-ball/serviceable true, fly_strait
86.865234,-296.661652,-295.468201,5.034055,-0.501601,5.034055,-0.501601,-299.999847,-300.0,44.705574,59.953911,489.306152,295.316528,97.360367,0.064263,-0.009842,410.910828,0.005233,0.098887,0.085962,0.0,1.0,2620.909668, set /instrumentation/slip-skid-ball/serviceable true, fly_strait
87.166756,-294.619354,-293.425903,5.130217,-0.494955,5.130217,-0.494955,-289.999847,-290.0,47.062847,60.594124,508.756836,295.53064,97.74218,0.070019,0.025597,429.809662,0.007166,0.100681,0.079161,0.0,1.0,2622.329346, set /instrumentation/slip-skid-ball/serviceable true, fly_strait
87.382294,-292.997375,-291.803955,5.196553,-0.38842,5.196553,-0.38842,-289.999847,-290.0,48.928757,61.077557,524.014587,295.678375,98.058395,0.081025,0.048592,444.082153,0.007356,0.101998,0.072021,0.0,1.0,2623.374756, set /instrumentation/slip-skid-ball/serviceable true, fly_strait
87.653343,-290.795746,-289.602325,5.282621,-0.176569,5.282621,-0.176569,-289.999847,-290.0,51.45195,61.7015,544.148865,295.783295,98.501984,0.0943,0.062383,462.814026,0.005549,0.103931,0.061069,0.0,1.0,2624.69165, set /instrumentation/slip-skid-ball/serviceable true, fly_strait
87.855995,-289.050781,-287.85733,5.334297,-0.023262,5.334297,-0.023262,-289.999847,-290.0,53.44537,62.172253,559.118713,295.766449,98.862274,0.102552,0.055988,477.144775,0.003549,0.105145,0.05677,0.0,1.0,2625.666992, set /instrumentation/slip-skid-ball/serviceable true, fly_strait
88.119133,-286.687408,-285.493958,5.402367,0.090016,5.402367,0.090016,-289.999847,-290.0,56.130627,62.779556,577.469238,295.642944,99.35611,0.103386,0.031159,496.006744,3.32E-4,0.106686,0.056665,0.0,1.0,2626.912354, set /instrumentation/slip-skid-ball/serviceable true, fly_strait
88.318245,-284.819458,-283.626007,5.453544,0.077025,5.453544,0.077025,-279.999847,-280.0,58.241112,63.237713,590.919739,295.516449,99.746338,0.096828,0.00763,510.317474,-0.001286,0.108047,0.06284,0.0,1.0,2627.848145, set /instrumentation/slip-skid-ball/serviceable true, fly_strait
88.604538,-282.149414,-280.955994,5.52054,-0.070407,5.52054,-0.070407,-279.999847,-280.0,61.242722,63.863304,609.11261,295.391266,100.295769,0.082258,-0.015248,529.639099,-0.0011,0.109071,0.069165,0.0,1.0,2629.125, set /instrumentation/slip-skid-ball/serviceable true, fly_strait
88.769005,-280.311615,-279.118195,5.572742,-0.206929,5.572742,-0.206929,-279.999847,-280.0,63.293991,64.274765,621.23761,295.377441,100.66288,0.073119,-0.018282,542.830139,0.001006,0.110411,0.075424,0.0,1.0,2629.963623, set /instrumentation/slip-skid-ball/serviceable true, fly_strait
89.017372,-277.558197,-276.364746,5.65258,-0.365356,5.65258,-0.365356,-279.999847,-280.0,66.359215,64.866737,639.4422,295.473175,101.193016,0.065885,-0.003116,561.371887,0.002956,0.111455,0.076115,0.0,1.0,2631.163574, set /instrumentation/slip-skid-ball/serviceable true, fly_strait
89.247169,-274.631561,-273.43811,5.747344,-0.404489,5.747344,-0.404489,-269.999847,-270.0,69.606522,65.465469,659.1604,295.660797,101.726814,0.067994,0.026238,580.228821,0.005219,0.113052,0.071329,0.0,1.0,2632.358643, set /instrumentation/slip-skid-ball/serviceable true, fly_strait
89.397781,-272.543152,-271.349701,5.815032,-0.344293,5.815032,-0.344293,-269.999847,-270.0,71.92086,65.875038,673.454285,295.789764,102.089134,0.075821,0.045422,593.24054,0.005778,0.114947,0.061948,0.0,1.0,2633.15918, set /instrumentation/slip-skid-ball/serviceable false, fly_strait
89.591949,-269.538483,-268.345062,5.889664,-0.180332,5.889664,-0.180332,-269.999847,-270.0,75.244377,66.439682,693.110535,295.88736,102.583702,0.078636,0.057246,611.74646,0.004918,0.116301,0.055499,0.0,1.0,2634.239258, set /instrumentation/slip-skid-ball/serviceable false, fly_strait
89.730644,-267.336914,-266.143463,5.94003,-0.058845,5.94003,-0.058845,-269.999847,-270.0,77.674797,66.836731,706.259155,295.877441,102.926811,0.078636,0.052157,624.871521,0.002576,0.117793,0.05062,0.0,1.0,2634.985352, set /instrumentation/slip-skid-ball/serviceable false, fly_strait
89.918518,-264.173889,-262.980438,5.998903,0.029585,5.998903,0.029585,-259.999847,-260.0,81.151878,67.383911,723.505249,295.769196,103.3899,0.078636,0.029522,643.4505,8.41E-4,0.118801,0.051115,0.0,1.0,2636.004395, set /instrumentation/slip-skid-ball/serviceable false, fly_strait
90.060394,-261.860901,-260.66748,6.041888,0.012866,6.041888,0.012866,-259.999847,-260.0,83.684715,67.768661,734.926086,295.662231,103.705467,0.078636,0.009237,656.453125,-4.23E-4,0.119978,0.056528,0.0,1.0,2636.719238, set /instrumentation/slip-skid-ball/serviceable false, fly_strait
90.243103,-258.545807,-257.352356,6.097541,-0.116121,6.097541,-0.116121,-259.999847,-260.0,87.295853,68.298996,750.19104,295.55246,104.120705,0.078636,-0.011195,674.613037,-1.84E-4,0.120838,0.061876,0.0,1.0,2637.706787, set /instrumentation/slip-skid-ball/serviceable false, fly_strait
90.380623,-256.127777,-254.934326,6.142793,-0.24336,6.142793,-0.24336,-259.999847,-260.0,89.919731,68.671951,760.796753,295.537231,104.395248,0.078636,-0.014638,687.146484,0.001659,0.121951,0.067364,0.0,1.0,2638.402344, set /instrumentation/slip-skid-ball/serviceable false, fly_strait
90.54892,-252.67038,-251.476929,6.20691,-0.384688,6.20691,-0.384688,-249.999863,-250.0,93.655586,69.185928,775.801697,295.61911,104.745483,0.078636,-0.001875,704.50885,0.003477,0.122856,0.068126,0.0,1.0,2639.358154, set /instrumentation/slip-skid-ball/serviceable false, fly_strait
90.670593,-250.153687,-248.960236,6.259338,-0.424114,6.259338,-0.424114,-249.999863,-250.0,96.368866,69.547188,786.720825,295.72934,104.970612,0.078636,0.01538,716.458069,0.005496,0.124138,0.064032,0.0,1.0,2640.023193, set /instrumentation/slip-skid-ball/serviceable false, fly_strait
90.81234,-246.559021,-245.36557,6.326117,-0.36558,6.326117,-0.36558,-249.999863,-250.0,100.232231,70.044609,802.268188,295.883789,105.251694,0.078636,0.038591,733.258728,0.006059,0.125187,0.05852,0.0,1.0,2640.922852, set /instrumentation/slip-skid-ball/serviceable false, fly_strait
90.907158,-244.051956,-242.858521,6.370262,-0.27251,6.370262,-0.27251,-239.999863,-240.0,102.924568,70.38002,812.718628,295.951294,105.42263,0.078636,0.047423,744.320374,0.005223,0.126522,0.050798,0.0,1.0,2641.517334, set /instrumentation/slip-skid-ball/serviceable false, fly_strait
91.045677,-240.222549,-239.029099,6.422523,-0.124793,6.422523,-0.124793,-239.999863,-240.0,107.026901,70.874451,827.542053,295.951324,105.64772,0.078636,0.043201,760.79425,0.003893,0.127405,0.047423,0.0,1.0,2642.379395, set /instrumentation/slip-skid-ball/serviceable false, fly_strait
91.145035,-237.52121,-236.327759,6.457021,-0.059987,6.457021,-0.059987,-239.999863,-240.0,109.917496,71.211769,837.022034,295.887482,105.782478,0.078636,0.029889,771.705872,0.001783,0.12845,0.047421,0.0,1.0,2642.962158, set /instrumentation/slip-skid-ball/serviceable false, fly_strait
91.27774,-233.669128,-232.475677,6.496213,-0.072904,6.496213,-0.072904,-229.999863,-230.0,114.017555,71.675896,849.251526,295.762878,105.941071,0.078636,0.006137,787.37793,8.57E-4,0.12914,0.050613,0.0,1.0,2643.764893, set /instrumentation/slip-skid-ball/serviceable false, fly_strait
91.383965,-230.876953,-229.683502,6.525928,-0.147582,6.525928,-0.147582,-229.999863,-230.0,116.980896,72.00177,857.299927,295.689392,106.032074,0.078636,-0.007443,798.078979,0.001041,0.129924,0.056844,0.0,1.0,2644.331543, set /instrumentation/slip-skid-ball/serviceable false, fly_strait
91.510551,-226.909531,-225.71608,6.567762,-0.294584,6.567762,-0.294584,-229.999863,-230.0,121.175903,72.450272,868.269104,295.664886,106.127304,0.078636,-0.012451,812.759216,0.002108,0.130519,0.060518,0.0,1.0,2645.116455, set /instrumentation/slip-skid-ball/serviceable false, fly_strait
91.606369,-224.038071,-222.84462,6.603675,-0.387102,6.603675,-0.387102,-219.999863,-220.0,124.204803,72.765175,876.142151,295.711884,106.17244,0.078636,-0.005183,822.771118,0.004208,0.131355,0.061743,0.0,1.0,2645.668945, set /instrumentation/slip-skid-ball/serviceable false, fly_strait
91.720779,-219.963455,-218.77002,6.653944,-0.433991,6.653944,-0.433991,-219.999863,-220.0,128.492218,73.19838,887.512146,295.837433,106.205582,0.078636,0.014656,836.495483,0.00553,0.132074,0.059393,0.0,1.0,2646.424316, set /instrumentation/slip-skid-ball/serviceable false, fly_strait
91.816322,-217.018478,-215.825043,6.692194,-0.401654,6.692194,-0.401654,-219.999863,-220.0,131.588654,73.502296,895.77002,295.934326,106.210075,0.078636,0.029375,845.836548,0.0062,0.133079,0.053116,0.0,1.0,2646.947266, set /instrumentation/slip-skid-ball/serviceable false, fly_strait
91.89843,-212.842636,-211.649185,6.736339,-0.288141,6.736339,-0.288141,-209.999863,-210.0,135.971909,73.920029,907.169006,296.015625,106.193909,0.078636,0.040039,858.812012,0.005738,0.133844,0.048271,0.0,1.0,2647.653809, set /instrumentation/slip-skid-ball/serviceable false, fly_strait
91.986969,-209.826492,-208.633041,6.764926,-0.197382,6.764926,-0.197382,-209.999863,-210.0,139.135681,74.212883,914.834351,296.015503,106.168968,0.078636,0.037686,867.7099,0.004116,0.134727,0.044206,0.0,1.0,2648.142334, set /instrumentation/slip-skid-ball/serviceable false, fly_strait
92.072128,-205.430466,-204.23703,6.79574,-0.123901,6.79574,-0.123901,-209.999863,-210.0,143.736359,74.626663,924.903076,295.937439,106.116692,0.078636,0.021409,880.433594,0.00282,0.135299,0.044212,0.0,1.0,2648.829346, set /instrumentation/slip-skid-ball/serviceable false, fly_strait
92.136658,-202.468369,-201.274918,6.815481,-0.130917,6.815481,-0.130917,-199.999863,-200.0,146.829895,74.897446,930.931824,295.860626,106.072144,0.078636,0.007008,888.711914,0.00177,0.135915,0.048116,0.0,1.0,2649.280762, set /instrumentation/slip-skid-ball/serviceable false, fly_strait
92.239037,-198.229584,-197.036133,6.841514,-0.217384,6.841514,-0.217384,-199.999863,-200.0,151.245529,75.27433,938.883179,295.776184,105.99646,0.078636,-0.008461,900.122314,0.00187,0.13631,0.051956,0.0,1.0,2649.915771, set /instrumentation/slip-skid-ball/serviceable false, fly_strait
92.309273,-195.087814,-193.894363,6.864398,-0.309824,6.864398,-0.309824,-199.999863,-200.0,154.515717,75.546539,944.551208,295.758423,105.931808,0.078636,-0.011956,907.905334,0.003105,0.13683,0.056178,0.0,1.0,2650.379639, set /instrumentation/slip-skid-ball/serviceable false, fly_strait
92.411255,-190.513062,-189.319626,6.900038,-0.419663,6.900038,-0.419663,-189.999863,-190.0,159.259888,75.93132,952.919739,295.813812,105.826805,0.078636,-0.003155,919.305664,0.004426,0.137288,0.057066,0.0,1.0,2651.039795, set /instrumentation/slip-skid-ball/serviceable false, fly_strait
92.472061,-187.439941,-186.24649,6.927364,-0.449546,6.927364,-0.449546,-189.999863,-190.0,162.446243,76.183121,958.708862,295.889191,105.750656,0.078636,0.008832,926.370728,0.005995,0.138001,0.054297,0.0,1.0,2651.471191, set /instrumentation/slip-skid-ball/serviceable false, fly_strait
92.555229,-182.659424,-181.465973,6.966448,-0.404257,6.966448,-0.404257,-179.999863,-180.0,167.396973,76.563889,967.806519,296.006775,105.6278,0.078636,0.026827,937.098755,0.006422,0.138547,0.050528,0.0,1.0,2652.117188, set /instrumentation/slip-skid-ball/serviceable false, fly_strait
92.60511,-179.665634,-178.472183,6.990578,-0.337778,6.990578,-0.337778,-179.999863,-180.0,170.497925,76.796036,973.43689,296.053101,105.550598,0.078636,0.033066,943.429749,0.005775,0.139329,0.044649,0.0,1.0,2652.505615, set /instrumentation/slip-skid-ball/serviceable false, fly_strait
92.678436,-174.944183,-173.750732,7.017844,-0.228131,7.017844,-0.228131,-179.999863,-180.0,175.386948,77.152428,981.759277,296.050781,105.432404,0.078636,0.029894,953.039978,0.004825,0.139812,0.042332,0.0,1.0,2653.096191, set /instrumentation/slip-skid-ball/serviceable false, fly_strait
92.755981,-170.175034,-168.981583,7.04042,-0.174465,7.04042,-0.174465,-169.999863,-170.0,180.314835,77.500519,989.06134,295.971558,105.320526,0.078636,0.014264,962.665405,0.003259,0.140357,0.042448,0.0,1.0,2653.672607, set /instrumentation/slip-skid-ball/serviceable false, fly_strait
92.80584,-166.974426,-165.780991,7.054164,-0.190665,7.054164,-0.190665,-169.999863,-170.0,183.619415,77.728104,993.473816,295.90332,105.250244,0.078636,0.001767,968.785034,0.002492,0.140808,0.04641,0.0,1.0,2654.052979, set /instrumentation/slip-skid-ball/serviceable false, fly_strait
92.888649,-162.00209,-160.808655,7.073586,-0.287038,7.073586,-0.287038,-159.999863,-160.0,188.741547,78.072197,999.731995,295.834167,105.148705,0.078636,-0.010656,978.113281,0.002724,0.141083,0.049821,0.0,1.0,2654.636475, set /instrumentation/slip-skid-ball/serviceable false, fly_strait
92.935654,-158.890976,-157.69754,7.08909,-0.363488,7.08909,-0.363488,-159.999863,-160.0,191.941391,78.282043,1003.51825,295.832214,105.089706,0.078636,-0.01122,983.690613,0.004101,0.141472,0.053279,0.0,1.0,2654.997314, set /instrumentation/slip-skid-ball/serviceable false, fly_strait
93.009689,-153.991348,-152.797913,7.116138,-0.447598,7.116138,-0.447598,-149.999863,-150.0,196.974716,78.604355,1009.681519,295.896698,105.004295,0.078636,-6.72E-4,992.130676,0.005193,0.141782,0.053377,0.0,1.0,2655.555908, set /instrumentation/slip-skid-ball/serviceable false, fly_strait
93.053009,-150.709076,-149.515625,7.137509,-0.46035,7.137509,-0.46035,-149.999863,-150.0,200.347794,78.815063,1014.038818,295.96759,104.953018,0.078636,0.010657,997.341614,0.006394,0.142323,0.050153,0.0,1.0,2655.920898, set /instrumentation/slip-skid-ball/serviceable false, fly_strait
93.110313,-145.756699,-144.563263,7.166391,-0.404396,7.166391,-0.404396,-149.999863,-150.0,205.435287,79.124863,1020.76355,296.062225,104.887009,0.078636,0.025025,1004.960632,0.006576,0.14275,0.046608,0.0,1.0,2656.452393, set /instrumentation/slip-skid-ball/serviceable false, fly_strait
93.165253,-140.765808,-139.572357,7.191413,-0.303746,7.191413,-0.303746,-139.999863,-140.0,210.556046,79.427147,1027.304321,296.095123,104.837082,0.078636,0.028408,1012.675903,0.005777,0.143328,0.041876,0.0,1.0,2656.9646, set /instrumentation/slip-skid-ball/serviceable false, fly_strait
93.19973,-137.421646,-136.228195,7.204612,-0.244938,7.204612,-0.244938,-139.999863,-140.0,213.987442,79.62455,1031.336548,296.072418,104.813858,0.078636,0.023163,1017.579895,0.004339,0.143828,0.040231,0.0,1.0,2657.297363, set /instrumentation/slip-skid-ball/serviceable false, fly_strait
93.256378,-132.378738,-131.185287,7.217371,-0.218018,7.217371,-0.218018,-129.999863,-130.0,219.158112,79.91465,1036.600586,295.992645,104.79438,0.078636,0.007943,1024.782959,0.003499,0.144092,0.041367,0.0,1.0,2657.789307, set /instrumentation/slip-skid-ball/serviceable false, fly_strait
93.295372,-128.999527,-127.806076,7.225695,-0.246292,7.225695,-0.246292,-129.999863,-130.0,222.618744,80.104172,1039.625244,295.934052,104.791016,0.078636,-0.002604,1029.446411,0.003115,0.144347,0.045355,0.0,1.0,2658.115479, set /instrumentation/slip-skid-ball/serviceable false, fly_strait
93.35466,-123.905144,-122.7117,7.239784,-0.338949,7.239784,-0.338949,-119.999855,-120.0,227.827896,80.382843,1043.892334,295.887299,104.798653,0.078636,-0.010869,1036.291138,0.003518,0.144514,0.048285,0.0,1.0,2658.604004, set /instrumentation/slip-skid-ball/serviceable false, fly_strait
93.393234,-120.495338,-119.301895,7.252371,-0.406787,7.252371,-0.406787,-119.999855,-120.0,231.312531,80.564972,1046.798584,295.89682,104.811249,0.078636,-0.009356,1040.567505,0.004842,0.144796,0.050623,0.0,1.0,2658.928711, set /instrumentation/slip-skid-ball/serviceable false, fly_strait
93.445534,-115.217659,-114.024216,7.274414,-0.466128,7.274414,-0.466128,-119.999855,-120.0,236.704376,80.840073,1051.577148,295.968781,104.841484,0.078636,0.002511,1046.853394,0.005811,0.145047,0.050147,0.0,1.0,2659.423828, set /instrumentation/slip-skid-ball/serviceable false, fly_strait
93.476822,-111.922997,-110.729553,7.290518,-0.463681,7.290518,-0.463681,-109.999855,-110.0,240.068832,81.007614,1054.773926,296.029816,104.866936,0.078636,0.012246,1050.650879,0.006659,0.145488,0.046548,0.0,1.0,2659.725342, set /instrumentation/slip-skid-ball/serviceable false, fly_strait
93.517685,-106.747475,-105.554031,7.311536,-0.399699,7.311536,-0.399699,-109.999855,-110.0,245.355927,81.264503,1059.886597,296.102295,104.917679,0.078636,0.023035,1056.326416,0.006624,0.14581,0.043497,0.0,1.0,2660.184326, set /instrumentation/slip-skid-ball/serviceable false, fly_strait
93.542328,-103.281509,-102.088066,7.323916,-0.338457,7.323916,-0.338457,-99.999855,-100.0,248.894547,81.432152,1063.146973,296.117065,104.959259,0.078636,0.024364,1060.121704,0.00571,0.146231,0.039873,0.0,1.0,2660.481934, set /instrumentation/slip-skid-ball/serviceable false, fly_strait
93.582367,-98.064781,-96.871338,7.335439,-0.269338,7.335439,-0.269338,-99.999855,-100.0,254.221939,81.678307,1067.539063,296.079834,105.033104,0.078636,0.01631,1065.563232,0.004835,0.146478,0.039134,0.0,1.0,2660.918945, set /instrumentation/slip-skid-ball/serviceable false, fly_strait
93.634468,-92.675591,-91.48214,7.344498,-0.266112,7.344498,-0.266112,-89.999855,-90.0,259.717957,81.924858,1071.250977,295.999207,105.121597,0.078636,0.001547,1071.157593,0.003848,0.146709,0.040996,0.0,1.0,2661.362793, set /instrumentation/slip-skid-ball/serviceable false, fly_strait
93.654259,-89.314445,-88.121002,7.350186,-0.301724,7.350186,-0.301724,-89.999855,-90.0,263.143463,82.074966,1073.312622,295.953522,105.181572,0.078636,-0.006455,1074.499878,0.003802,0.14689,0.045027,0.0,1.0,2661.638672, set /instrumentation/slip-skid-ball/serviceable false, fly_strait
93.700195,-83.886734,-82.693291,7.360919,-0.392611,7.360919,-0.392611,-79.999855,-80.0,268.667511,82.311531,1076.496704,295.928864,105.283295,0.078636,-0.010613,1079.821655,0.00431,0.147004,0.047311,0.0,1.0,2662.083008, set /instrumentation/slip-skid-ball/serviceable false, fly_strait
93.728638,-80.35817,-79.164726,7.371096,-0.447244,7.371096,-0.447244,-79.999855,-80.0,272.259552,82.461807,1078.668823,295.951263,105.351425,0.078636,-0.00683,1082.945923,0.005609,0.147218,0.048544,0.0,1.0,2662.370605, set /instrumentation/slip-skid-ball/serviceable false, fly_strait
93.787811,-75.051598,-73.858147,7.388208,-0.478097,7.388208,-0.478097,-79.999855,-80.0,277.661957,82.682571,1082.23999,296.024597,105.45549,0.078636,0.005328,1087.325562,0.006389,0.147422,0.047424,0.0,1.0,2662.796875, set /instrumentation/slip-skid-ball/serviceable false, fly_strait
93.788094,-71.650139,-70.456688,7.40062,-0.461573,7.40062,-0.461573,-69.999855,-70.0,281.123138,82.820686,1084.700562,296.077332,105.522972,0.078636,0.013717,1090.156006,0.00683,0.147764,0.043758,0.0,1.0,2663.063721, set /instrumentation/slip-skid-ball/serviceable false, fly_strait
93.816666,-66.159424,-64.965973,7.416278,-0.389164,7.416278,-0.389164,-69.999855,-70.0,286.707977,83.038078,1088.701172,296.128174,105.633308,0.078636,0.020978,1094.747437,0.006594,0.148012,0.041121,0.0,1.0,2663.481689, set /instrumentation/slip-skid-ball/serviceable false, fly_strait
93.866882,-60.804878,-59.611435,7.427201,-0.313138,7.427201,-0.313138,-59.999859,-60.0,292.160736,83.244003,1092.226563,296.115143,105.742653,0.078636,0.017334,1098.704712,0.005559,0.148326,0.038579,0.0,1.0,2663.877441, set /instrumentation/slip-skid-ball/serviceable false, fly_strait
93.865051,-57.372864,-56.17942,7.431767,-0.287506,7.431767,-0.287506,-59.999859,-60.0,295.653076,83.372742,1094.17395,296.078247,105.813034,0.078636,0.01036,1101.320557,0.004473,0.148544,0.03923,0.0,1.0,2664.126709, set /instrumentation/slip-skid-ball/serviceable false, fly_strait
93.896843,-51.835732,-50.642288,7.436339,-0.305949,7.436339,-0.305949,-49.999859,-50.0,301.283081,83.575424,1096.782959,296.006348,105.925331,0.078636,-0.002513,1105.516724,0.004107,0.148635,0.041075,0.0,1.0,2664.5271, set /instrumentation/slip-skid-ball/serviceable false, fly_strait
93.920425,-48.386391,-47.192947,7.440211,-0.347115,7.440211,-0.347115,-49.999859,-50.0,304.789063,83.698753,1098.198486,295.973389,105.993301,0.078636,-0.008191,1107.958496,0.004371,0.148727,0.04467,0.0,1.0,2664.776611, set /instrumentation/slip-skid-ball/serviceable false, fly_strait
93.976265,-42.826447,-41.633003,7.449332,-0.428881,7.449332,-0.428881,-39.999859,-40.0,310.438629,83.893028,1100.525391,295.969086,106.097496,0.078636,-0.008755,1111.616943,0.004959,0.148804,0.046318,0.0,1.0,2665.179443, set /instrumentation/slip-skid-ball/serviceable false, fly_strait
93.975548,-39.361691,-38.168243,7.457433,-0.46708,7.457433,-0.46708,-39.999859,-40.0,313.956818,84.011253,1102.135376,295.997375,106.158257,0.078636,-0.003965,1113.900146,0.006127,0.148987,0.046533,0.0,1.0,2665.428955, set /instrumentation/slip-skid-ball/serviceable false, fly_strait
94.003036,-33.927288,-32.733845,7.471251,-0.477517,7.471251,-0.477517,-29.999857,-30.0,319.474609,84.192429,1104.944092,296.066833,106.246719,0.078636,0.007503,1117.345093,0.006673,0.149149,0.045119,0.0,1.0,2665.814941, set /instrumentation/slip-skid-ball/serviceable false, fly_strait
94.026184,-28.330185,-27.13674,7.485492,-0.428532,7.485492,-0.428532,-29.999857,-30.0,325.16095,84.373688,1108.05188,296.127716,106.329674,0.078636,0.016887,1120.606812,0.006822,0.149425,0.041646,0.0,1.0,2666.20166, set /instrumentation/slip-skid-ball/serviceable false, fly_strait
94.039131,-24.839453,-23.646008,7.492693,-0.381866,7.492693,-0.381866,-29.999857,-30.0,328.703735,84.483833,1109.953735,296.141327,106.377594,0.078636,0.018438,1122.832764,0.006122,0.14971,0.038602,0.0,1.0,2666.436523, set /instrumentation/slip-skid-ball/serviceable false, fly_strait
94.081917,-19.222883,-18.02944,7.498477,-0.32194,7.498477,-0.32194,-19.999857,-20.0,334.414978,84.657066,1112.607544,296.113617,106.44912,0.078636,0.012519,1125.702393,0.005455,0.149854,0.037921,0.0,1.0,2666.807861, set /instrumentation/slip-skid-ball/serviceable false, fly_strait
94.075279,-15.563478,-14.370032,7.500785,-0.309459,7.500785,-0.309459,-19.999857,-20.0,338.126099,84.766884,1113.982422,296.072784,106.491615,0.078636,0.00509,1128.079102,0.004599,0.14997,0.039307,0.0,1.0,2667.041504, set /instrumentation/slip-skid-ball/serviceable false, fly_strait
94.122406,-10.075663,-8.882218,7.50363,-0.34278,7.50363,-0.34278,-9.999858,-10.0,343.700592,84.928024,1115.70459,296.012817,106.548523,0.078636,-0.005382,1130.844116,0.004421,0.150016,0.041348,0.0,1.0,2667.362793, set /instrumentation/slip-skid-ball/serviceable false, fly_strait
94.11898,-6.403665,-5.21022,7.506796,-0.387558,7.506796,-0.387558,-9.999858,-10.0,347.421417,85.03315,1116.765869,295.991272,106.581154,0.078636,-0.008978,1133.040894,0.004897,0.150073,0.044347,0.0,1.0,2667.564453, set /instrumentation/slip-skid-ball/serviceable false, fly_strait
94.145546,-1.204787,-0.011343,7.513776,-0.451067,7.513776,-0.451067,1.42E-4,0.0,352.698883,85.178993,1118.378784,296.002411,106.61927,0.078636,-0.006855,1135.385498,0.005537,0.150136,0.045424,0.0,1.0,2667.838623, set /instrumentation/slip-skid-ball/serviceable false, fly_strait
94.156677,2.810326,4.003771,7.521299,-0.479403,7.521299,-0.479403,1.42E-4,0.0,356.584564,85.283958,1119.755371,296.037628,106.641121,0.078636,-8.94E-4,1137.03125,0.006444,0.150276,0.044867,0.0,1.0,2668.032715, set /instrumentation/slip-skid-ball/serviceable false, turn_+45
94.176399,8.609411,9.802855,7.534448,-0.507231,7.534448,-0.507231,10.000142,10.0,362.189117,85.431702,1122.034912,296.16748,106.664169,0.078636,0.020978,1139.707886,0.002283,0.150426,0.1,0.0,1.0,2668.301025, set /instrumentation/slip-skid-ball/serviceable false, turn_+45
94.180054,12.640254,13.833698,7.553043,-0.502328,7.553043,-0.502328,10.000142,10.0,366.088348,85.531837,1123.95166,296.414825,106.675835,0.078636,0.059854,1141.363159,0.002415,0.150689,0.1,0.0,1.0,2668.4729, set /instrumentation/slip-skid-ball/serviceable false, turn_+45
94.146454,18.295502,19.488947,7.588413,-0.303835,7.588413,-0.303835,20.000143,20.0,371.561249,85.668312,1127.900269,296.867859,106.691376,0.078636,0.127666,1143.829224,0.002392,0.151061,0.1,0.0,1.0,2668.675293, set /instrumentation/slip-skid-ball/serviceable false, turn_+45
94.123871,22.339785,23.53323,7.61224,-0.012679,7.61224,-0.012679,20.000143,20.0,375.483948,85.762871,1131.52832,297.177277,106.70694,0.078636,0.170705,1145.469971,0.001447,0.151768,0.1,0.0,1.0,2668.783203, set /instrumentation/slip-skid-ball/serviceable false, turn_+45
94.054062,28.017862,29.211308,7.625249,0.530258,7.625249,0.530258,30.000143,30.0,380.997192,85.890839,1136.439819,297.490662,106.743568,0.078636,0.207494,1148.116943,6.0E-5,0.152245,0.1,0.0,1.0,2668.884033, set /instrumentation/slip-skid-ball/serviceable false, turn_+45
94.035873,32.081314,33.274757,7.62453,0.950026,7.62453,0.950026,30.000143,30.0,384.947998,85.979027,1138.984741,297.604492,106.785118,0.078636,0.213931,1150.003052,-0.002525,0.152505,0.1,0.0,1.0,2668.929443, set /instrumentation/slip-skid-ball/serviceable false, turn_+45
93.969757,37.946392,39.139839,7.615554,1.480522,7.615554,1.480522,40.000141,40.0,390.648712,86.101448,1140.891113,297.630859,106.872871,0.078636,0.199271,1152.881592,-0.004524,0.152491,0.1,0.0,1.0,2668.977539, set /instrumentation/slip-skid-ball/serviceable false, turn_+45
93.941704,43.830841,45.024284,7.60535,1.852435,7.60535,1.852435,40.000141,40.0,396.353729,86.218872,1140.840698,297.577057,106.99614,0.078636,0.171484,1155.995239,-0.00705,0.152311,0.1,0.0,1.0,2669.027588, set /instrumentation/slip-skid-ball/serviceable false, turn_+45
93.916771,47.596622,48.79007,7.599284,1.99671,7.599284,1.99671,50.000141,50.0,399.996948,86.291534,1140.096924,297.549835,107.093269,0.078636,0.155203,1157.909302,-0.008821,0.152107,0.1,0.0,1.0,2669.067139, set /instrumentation/slip-skid-ball/serviceable false, turn_+45
93.901489,53.498066,54.691509,7.591496,2.102489,7.591496,2.102489,50.000141,50.0,405.693207,86.401917,1138.390869,297.57901,107.272064,0.078636,0.14161,1160.679565,-0.009508,0.151986,0.1,0.0,1.0,2669.144043, set /instrumentation/slip-skid-ball/serviceable false, turn_+45
93.893227,57.432907,58.626354,7.586162,2.129822,7.586162,2.129822,60.000141,60.0,409.485718,86.473389,1137.175781,297.664917,107.407997,0.078636,0.143227,1162.179443,-0.010012,0.15183,0.1,0.0,1.0,2669.203857, set /instrumentation/slip-skid-ball/serviceable false, turn_+45
93.876755,63.337776,64.531219,7.580513,2.16678,7.580513,2.16678,60.000141,60.0,415.167358,86.577591,1135.61377,297.889832,107.635132,0.078636,0.160161,1164.131836,-0.010142,0.151723,0.1,0.0,1.0,2669.301025, set /instrumentation/slip-skid-ball/serviceable false, turn_+45
93.863007,67.272041,68.465485,7.578036,2.216967,7.578036,2.216967,70.000145,70.0,418.951477,86.645058,1134.922241,298.086029,107.801552,0.078636,0.177772,1165.064819,-0.010318,0.15161,0.1,0.0,1.0,2669.366211, set /instrumentation/slip-skid-ball/serviceable false, turn_+45
93.83757,73.173241,74.366684,7.576127,2.351664,7.576127,2.351664,70.000145,70.0,424.624573,86.743248,1134.434448,298.407043,108.073921,0.078636,0.206228,1166.197998,-0.010557,0.151561,0.1,0.0,1.0,2669.45752, set /instrumentation/slip-skid-ball/serviceable false, turn_+45
