airspeed_indicator_indicated_speed_kt,altimeter_indicated_altitude_ft,altimeter_pressure_alt_ft,attitude_indicator_indicated_pitch_deg,attitude_indicator_indicated_roll_deg,attitude_indicator_internal_pitch_deg,attitude_indicator_internal_roll_deg,encoder_indicated_altitude_ft,encoder_pressure_alt_ft,gps_indicated_altitude_ft,gps_indicated_ground_speed_kt,gps_indicated_vertical_speed,indicated_heading_deg,magnetic_compass_indicated_heading_deg,slip_skid_ball_indicated_slip_skid,turn_indicator_indicated_turn_rate,vertical_speed_indicator_indicated_speed_fpm,flight_aileron,flight_elevator,flight_rudder,flight_flaps,engine_throttle,engine_rpm,Command_fault,Command
24.647028,-197.636444,-196.443008,3.0521,1.29881,2.716121,0.178879,-189.999863,-190.0,18.855347,4.2E-5,-2.68E-4,297.868225,15.354948,-0.046391,-0.051534,-1675.079102,-0.0,0.0,0.0,0.0,0.0,605.618591,, takeoff
24.714594,-205.396545,-204.20311,3.018145,1.185959,2.716004,0.178821,-199.999863,-200.0,18.855345,4.1E-5,3.3E-5,297.867004,14.768177,-0.046382,-0.04453,-1671.056763,-0.018554,0.054322,0.0,0.0,1.0,612.701355,, takeoff
24.74494,-210.959595,-209.766159,2.871558,0.700729,2.714911,0.178572,-209.999863,-210.0,18.855343,4.0E-5,-0.00201,297.866089,14.347518,-0.046472,-0.040131,-1669.314209,-0.018461,0.054321,4.3E-5,0.0,1.0,679.169983,, takeoff
24.780762,-219.002151,-217.808701,2.716669,0.239257,2.697655,0.175878,-219.999863,-220.0,18.855291,1.11E-4,-0.01983,297.864624,13.747603,-0.046674,-0.034645,-1668.303345,-0.01001,0.054298,1.07E-4,0.0,1.0,862.561401,, takeoff
24.802446,-224.367233,-223.173782,2.680119,0.171637,2.680119,0.171637,-219.999863,-220.0,18.855274,4.88E-4,0.017585,297.863525,13.355865,-0.048045,-0.031492,-1667.826416,-0.005027,0.054137,1.54E-4,0.0,1.0,1017.720459,, takeoff
24.827024,-232.653473,-231.460022,2.636379,0.160881,2.636379,0.160881,-229.999863,-230.0,18.855339,0.003453,0.024318,297.86145,12.771883,-0.047453,-0.027365,-1667.706421,-0.002452,0.053602,2.35E-4,0.0,1.0,1271.803223,, takeoff
24.844372,-238.037247,-236.843811,2.60311,0.151568,2.60311,0.151568,-229.999863,-230.0,18.855549,0.008415,0.10568,297.859924,12.409636,-0.048489,-0.025083,-1667.942383,-0.00236,0.053168,2.99E-4,0.0,1.0,1430.710815,, takeoff
24.851782,-245.896317,-244.702866,2.590153,0.136035,2.590153,0.136035,-239.999863,-240.0,18.856474,0.022578,0.271888,297.857452,11.909898,-0.044052,-0.022239,-1668.472778,-0.002165,0.052062,4.15E-4,0.0,1.0,1638.428589,, takeoff
24.880373,-251.292313,-250.098877,2.596899,0.124786,2.596899,0.124786,-249.999863,-250.0,18.857607,0.038608,0.400278,297.85437,11.5896,-0.037135,-0.020775,-1669.00708,-0.002015,0.051807,5.01E-4,0.0,1.0,1759.911865,, takeoff
24.915142,-259.628052,-258.434601,2.615435,0.10807,2.615435,0.10807,-259.999847,-260.0,18.860239,0.076037,0.622893,297.844177,11.136053,-0.024788,-0.019613,-1670.292725,-0.001783,0.051938,6.93E-4,0.0,1.0,1912.191406,, takeoff
24.94931,-265.027405,-263.833954,2.628058,0.098391,2.628058,0.098391,-259.999847,-260.0,18.862581,0.109848,0.781128,297.83374,10.870173,-0.022452,-0.019555,-1670.666016,-0.001626,0.05217,9.99E-4,0.0,1.0,1989.780029,, takeoff
25.021463,-273.13205,-271.938629,2.644874,0.085804,2.644874,0.085804,-269.999847,-270.0,18.86714,0.176341,1.041158,297.811157,10.516067,-0.024633,-0.020493,-1671.303833,-0.001406,0.052561,0.001724,0.0,1.0,2079.455566,, takeoff
25.081568,-278.537933,-277.344482,2.653977,0.078878,2.653977,0.078878,-269.999847,-270.0,18.870928,0.231912,1.22877,297.792603,10.311033,-0.025687,-0.021549,-1671.733887,-0.001281,0.052794,0.00244,0.0,1.0,2124.412109,, takeoff
22.481094,-285.824341,-284.63089,2.665063,0.070598,2.665063,0.070598,-279.999847,-280.0,18.877827,0.332981,1.526148,297.760193,10.05137,-0.026697,-0.023605,-1640.674194,-0.001127,0.05308,0.003781,0.0,1.0,2174.544189,, takeoff
20.524429,-289.60788,-288.414429,2.670801,0.06632,2.670801,0.06632,-289.999847,-290.0,18.883274,0.412466,1.733455,297.73703,9.910527,-0.027238,-0.025013,-1581.171387,-0.001047,0.053229,0.004797,0.0,1.0,2198.932129,, takeoff
18.053835,-294.029755,-292.836334,2.677781,0.061389,2.677781,0.061389,-289.999847,-290.0,18.892775,0.550101,2.057898,297.701111,9.747548,-0.027747,-0.027007,-1450.721069,-9.47E-4,0.053416,0.00656,0.0,1.0,2225.313232,, takeoff
16.701078,-296.316437,-295.122986,2.68148,0.058887,2.68148,0.058887,-289.999847,-290.0,18.900019,0.654152,2.279944,297.678528,9.670647,-0.028042,-0.027924,-1343.290161,-9.0E-4,0.05351,0.007716,0.0,1.0,2237.6521,, takeoff
15.090866,-298.987244,-297.793793,2.686227,0.055972,2.686227,0.055972,-299.999847,-300.0,18.912279,0.828555,2.617283,297.647675,9.601606,-0.028286,-0.028634,-1160.135986,-8.41E-4,0.05363,0.009485,0.0,1.0,2250.354736,, takeoff
14.283105,-300.367157,-299.173706,2.688911,0.054439,2.688911,0.054439,-299.999847,-300.0,18.921396,0.956906,2.845023,297.631073,9.585399,-0.028249,-0.028399,-1027.300537,-8.16E-4,0.053688,0.010423,0.0,1.0,2255.873047,, takeoff
13.442257,-301.97699,-300.783569,2.692582,0.052536,2.692582,0.052536,-299.999847,-300.0,18.936501,1.16724,3.188357,297.612396,9.603578,-0.027885,-0.027105,-817.782104,-7.78E-4,0.053778,0.011858,0.0,1.0,2260.917969,, takeoff
13.002731,-303.163116,-301.969666,2.69588,0.050975,2.69588,0.050975,-299.999847,-300.0,18.953325,1.398485,3.532295,297.603302,9.669595,-0.027087,-0.024484,-603.049133,-7.59E-4,0.053829,0.012532,0.0,1.0,2263.12793,, takeoff
12.90483,-303.750916,-302.557465,2.697918,0.050056,2.697918,0.050056,-299.999847,-300.0,18.964975,1.556911,3.753302,297.602051,9.735003,-0.026298,-0.022288,-467.796844,-7.36E-4,0.053894,0.013135,0.0,1.0,2263.460693,, takeoff
12.995342,-304.483307,-303.289856,2.705591,0.047237,2.705591,0.047237,-299.999847,-300.0,18.985481,1.828785,4.264955,297.606445,9.874945,-0.025295,-0.018231,-267.0177,-7.15E-4,0.053958,0.013309,0.0,1.0,2262.713867,, takeoff
13.159328,-304.805481,-303.61203,2.711999,0.040623,2.711999,0.040623,-299.999847,-300.0,18.998236,1.992198,4.471893,297.611725,9.97182,-0.024575,-0.015879,-174.822525,-7.03E-4,0.054025,0.013203,0.0,1.0,2261.75415,, takeoff
13.630922,-305.266266,-304.072845,2.720031,0.03296,2.720031,0.03296,-299.999847,-300.0,19.023918,2.312647,4.969276,297.624969,10.181615,-0.021587,-0.011379,-83.187424,-5.8E-4,0.05424,0.012825,0.0,1.0,2259.22998,, takeoff
14.00581,-305.479187,-304.285736,2.721184,0.03268,2.721184,0.03268,-299.999847,-300.0,19.040892,2.520509,5.203883,297.633575,10.327826,-0.02014,-0.008804,-63.091564,-4.81E-4,0.054376,0.012398,0.0,1.0,2257.316406,, takeoff
14.636222,-305.716003,-304.522583,2.723117,0.032841,2.723117,0.032841,-299.999847,-300.0,19.067068,2.837738,5.554554,297.644867,10.560596,-0.018782,-0.005688,-44.317326,-4.67E-4,0.054424,0.011733,0.0,1.0,2254.181885,, takeoff
15.132857,-305.842621,-304.64917,2.72495,0.033214,2.72495,0.033214,-299.999847,-300.0,19.086803,3.074278,5.802525,297.650574,10.738607,-0.018268,-0.004103,-34.299248,-4.68E-4,0.054449,0.011328,0.0,1.0,2252.640137,, takeoff
15.875197,-305.973785,-304.780334,2.728014,0.034157,2.728014,0.034157,-299.999847,-300.0,19.115885,3.418918,6.150784,297.654602,11.000331,-0.018072,-0.002757,-23.533016,-4.74E-4,0.054499,0.010883,0.0,1.0,2252.157959,, takeoff
16.431067,-306.04129,-304.847839,2.730452,0.034982,2.730452,0.034982,-299.999847,-300.0,19.137693,3.67446,6.4011,297.654266,11.193668,-0.018337,-0.002415,-18.469843,-4.83E-4,0.05454,0.010716,0.0,1.0,2252.581055,, takeoff
17.235525,-306.107361,-304.91391,2.734226,0.036167,2.734226,0.036167,-299.999847,-300.0,19.16968,4.044961,6.749124,297.649841,11.469337,-0.019175,-0.002599,-17.766983,-5.0E-4,0.054609,0.010698,0.0,1.0,2253.821045,, takeoff
17.824371,-306.138306,-304.944855,2.737089,0.036963,2.737089,0.036963,-299.999847,-300.0,19.193565,4.318481,7.000981,297.644562,11.667336,-0.01993,-0.003037,-17.246321,-5.11E-4,0.05466,0.010828,0.0,1.0,2254.998291,, takeoff
18.663219,-306.163818,-304.970367,2.741424,0.037927,2.741424,0.037927,-299.999847,-300.0,19.228462,4.713495,7.348771,297.63562,11.942339,-0.021145,-0.003814,-19.81872,-5.28E-4,0.054742,0.011183,0.0,1.0,2256.885742,, takeoff
19.270233,-306.171783,-304.978333,2.744645,0.038453,2.744645,0.038453,-299.999847,-300.0,19.254431,5.004073,7.597412,297.629364,12.134946,-0.021854,-0.004269,-7.203775,-5.38E-4,0.054801,0.011487,0.0,1.0,2258.338867,, takeoff
20.127935,-306.1716,-304.978149,2.749444,0.038931,2.749444,0.038931,-299.999847,-300.0,19.292242,5.422358,7.948418,297.622131,12.395974,-0.022613,-0.00459,-5.066029,-5.49E-4,0.054893,0.011943,0.0,1.0,2260.455322,, takeoff
20.744848,-306.164856,-304.971405,2.752949,0.039073,2.752949,0.039073,-299.999847,-300.0,19.32029,5.729134,8.197829,297.619049,12.574368,-0.022799,-0.004461,13.312233,-5.55E-4,0.054959,0.012207,0.0,1.0,2262.001465,, takeoff
21.612726,-306.147949,-304.954498,2.758116,0.039053,2.758116,0.039053,-299.999847,-300.0,19.361012,6.169518,8.547194,297.618042,12.810217,-0.022587,-0.003785,18.61051,-5.58E-4,0.055059,0.012459,0.0,1.0,2264.190186,, takeoff
22.509691,-306.12323,-304.929779,2.749667,0.038926,2.749667,0.038926,-299.999847,-300.0,19.404192,6.635392,8.663424,297.621185,13.033119,-0.021838,-0.002538,20.739803,-5.58E-4,0.05513,0.012517,0.0,1.0,2266.455811,, takeoff
23.112083,-306.103699,-304.910278,2.737198,0.038828,2.737198,0.038828,-299.999847,-300.0,19.430304,6.953075,7.894825,297.62561,13.1693,-0.021015,-0.001443,11.916984,-5.56E-4,0.055211,0.012428,0.0,1.0,2267.970215,, takeoff
23.740616,-306.081665,-304.888214,2.741063,0.038663,2.741063,0.038663,-299.999847,-300.0,19.458164,7.289907,8.139346,297.631195,13.299747,-0.020143,-2.77E-4,16.832661,-5.56E-4,0.054781,0.012241,0.0,1.0,2269.549805,, takeoff
24.620607,-306.048096,-304.854645,2.749249,0.038666,2.749249,0.038666,-299.999847,-300.0,19.49852,7.771355,8.452601,297.639038,13.461775,-0.018917,0.001157,14.792025,-5.52E-4,0.054821,0.011851,0.0,1.0,2271.762207,, takeoff
25.550648,-306.009644,-304.816193,2.766675,0.034954,2.766675,0.034954,-299.999847,-300.0,19.543732,8.292499,9.354115,297.644928,13.605833,-0.0186,0.001973,22.431179,-5.52E-4,0.054936,0.011575,0.0,1.0,2274.101074,, takeoff
26.077332,-305.986298,-304.792847,2.773068,0.034462,2.773068,0.034462,-299.999847,-300.0,19.571289,8.59369,9.532313,297.646667,13.67487,-0.018066,0.002174,15.439054,-5.54E-4,0.055174,0.01124,0.0,1.0,2275.427979,, takeoff
27.055677,-305.940338,-304.746918,2.778462,0.035463,2.778462,0.035463,-299.999847,-300.0,19.623873,9.16313,9.874677,297.646027,13.778397,-0.018176,0.001935,19.482189,-4.91E-4,0.055422,0.011105,0.0,1.0,2277.891602,, takeoff
27.582434,-305.914246,-304.720795,2.781452,0.036219,2.781452,0.036219,-299.999847,-300.0,19.652971,9.47505,10.068385,297.643768,13.820815,-0.01874,0.001528,13.67341,-5.01E-4,0.055535,0.011072,0.0,1.0,2279.217773,, takeoff
28.562695,-305.863892,-304.670441,2.764873,0.038781,2.764873,0.038781,-299.999847,-300.0,19.705042,10.063898,9.14979,297.637177,13.875026,-0.02016,5.26E-4,14.18794,-5.13E-4,0.055603,0.011166,0.0,1.0,2281.681885,, takeoff
29.14249,-305.83371,-304.640259,2.766893,0.039181,2.766893,0.039181,-299.999847,-300.0,19.734636,10.416878,9.367313,297.632507,13.892221,-0.021187,-1.38E-4,19.453403,-5.4E-4,0.055431,0.011414,0.0,1.0,2283.136719,, takeoff
30.072218,-305.784332,-304.590881,2.7752,0.039932,2.7752,0.039932,-299.999847,-300.0,19.783617,10.99334,9.685325,297.624573,13.897628,-0.022592,-0.001124,14.766473,-5.6E-4,0.055338,0.011786,0.0,1.0,2285.479004,, takeoff
30.650436,-305.753143,-304.559692,2.780298,0.040351,2.780298,0.040351,-299.999847,-300.0,19.814875,11.356907,9.876788,297.620392,13.887711,-0.023317,-0.001541,20.101751,-5.67E-4,0.055443,0.012047,0.0,1.0,2286.936279,, takeoff
31.577051,-305.701904,-304.508453,2.798181,0.034369,2.798181,0.034369,-299.999847,-300.0,19.867735,11.949924,10.933757,297.615692,13.851699,-0.024734,-0.001976,15.661632,-5.76E-4,0.055606,0.012392,0.0,1.0,2289.282471,, takeoff
32.152271,-305.669098,-304.475647,2.805473,0.033381,2.805473,0.033381,-299.999847,-300.0,19.903004,12.323475,11.128034,297.614685,13.817752,-0.024229,-0.001824,21.247082,-5.76E-4,0.055779,0.012559,0.0,1.0,2290.741455,, takeoff
33.075195,-305.614441,-304.42099,2.811725,0.033134,2.811725,0.033134,-299.999847,-300.0,19.960993,12.932074,11.434221,297.616364,13.746415,-0.02312,-0.001076,17.138966,-4.77E-4,0.056109,0.012677,0.0,1.0,2293.0896,, takeoff
33.673763,-305.577911,-304.38446,2.812342,0.033079,2.812342,0.033079,-299.999847,-300.0,19.999256,13.331762,11.377614,297.619415,13.690209,-0.02215,-3.37E-4,17.677666,-4.74E-4,0.056199,0.012642,0.0,1.0,2294.613525,, takeoff
34.574764,-305.522369,-304.328918,2.796737,0.036429,2.796737,0.036429,-299.999847,-300.0,20.051281,13.938375,10.36389,297.626587,13.593169,-0.020018,0.001104,17.792622,-4.73E-4,0.056247,0.01244,0.0,1.0,2296.9021,, takeoff
35.150013,-305.486938,-304.293488,2.801238,0.03647,2.801238,0.03647,-299.999847,-300.0,20.084711,14.330274,10.556994,297.631561,13.52422,-0.018985,0.001923,22.817947,-5.2E-4,0.055933,0.012222,0.0,1.0,2298.366455,, takeoff
36.022877,-305.432709,-304.239258,2.814847,0.03485,2.814847,0.03485,-299.999847,-300.0,20.137184,14.932933,11.33608,297.638245,13.410851,-0.018334,0.002796,17.992426,-5.21E-4,0.056025,0.011833,0.0,1.0,2300.59668,, takeoff
36.966824,-305.37265,-304.17923,2.831036,0.029751,2.831036,0.029751,-299.999847,-300.0,20.199526,15.595546,11.981582,297.641876,13.279073,-0.01696,0.003022,18.64397,-5.23E-4,0.056143,0.011591,0.0,1.0,2303.019775,, takeoff
37.561943,-305.33374,-304.14032,2.83514,0.030355,2.83514,0.030355,-299.999847,-300.0,20.239782,16.018339,12.165543,297.641937,13.192704,-0.016746,0.002864,24.000006,-4.23E-4,0.056557,0.011357,0.0,1.0,2304.551025,, takeoff
38.428303,-305.275665,-304.082214,2.840637,0.031713,2.840637,0.031713,-299.999847,-300.0,20.299606,16.640684,12.441417,297.638702,13.064251,-0.017335,0.002156,18.947754,-4.28E-4,0.056663,0.011304,0.0,1.0,2306.784668,, takeoff
39.02187,-305.235016,-304.041565,2.835466,0.03292,2.835466,0.03292,-299.999847,-300.0,20.340511,17.071281,11.588037,297.634644,12.975473,-0.018248,0.001449,17.698895,-4.45E-4,0.056769,0.011394,0.0,1.0,2308.316895,, takeoff
39.913757,-305.173615,-303.980164,2.834625,0.034566,2.834625,0.034566,-299.999847,-300.0,20.398443,17.722885,11.732808,297.627228,12.842875,-0.020002,3.17E-4,23.29887,-4.6E-4,0.056849,0.011562,0.0,1.0,2310.617188,, takeoff
40.506886,-305.132599,-303.939178,2.839656,0.035567,2.839656,0.035567,-299.999847,-300.0,20.43786,18.16098,11.93288,297.621948,12.755766,-0.021195,-3.96E-4,19.398706,-4.86E-4,0.056655,0.011919,0.0,1.0,2312.1521,, takeoff
41.395191,-305.070709,-303.877258,2.848221,0.036773,2.848221,0.036773,-299.999847,-300.0,20.498226,18.823475,12.203863,297.614868,12.628551,-0.022887,-0.001203,17.815722,-5.08E-4,0.056793,0.012314,0.0,1.0,2314.455322,, takeoff
41.985134,-305.028931,-303.83551,2.853186,0.037346,2.853186,0.037346,-299.999847,-300.0,20.539213,19.268595,12.381124,297.611694,12.546876,-0.023656,-0.001429,22.078411,-5.21E-4,0.056915,0.01257,0.0,1.0,2315.991211,, takeoff
42.869366,-304.965668,-303.772217,2.855789,0.035488,2.855789,0.035488,-299.999847,-300.0,20.601616,19.941278,12.397906,297.609924,12.430405,-0.02426,-0.001323,18.243725,-5.34E-4,0.057064,0.012827,0.0,1.0,2318.295654,, takeoff
43.75378,-304.90213,-303.708679,2.854875,0.035201,2.854875,0.035201,-299.999847,-300.0,20.660646,20.619778,11.935125,297.612579,12.322693,-0.023531,-5.05E-4,23.835697,-5.34E-4,0.057179,0.012907,0.0,1.0,2320.746094,, takeoff
44.366295,-304.858032,-303.664581,2.860142,0.035283,2.860142,0.035283,-299.999847,-300.0,20.702423,21.094255,12.118483,297.616302,12.253853,-0.022607,2.89E-4,23.849159,-5.03E-4,0.057064,0.012843,0.0,1.0,2323.237793,, takeoff
45.222374,-304.796051,-303.602631,2.867822,0.035505,2.867822,0.035505,-299.999847,-300.0,20.761944,21.762909,12.361397,297.622742,12.166647,-0.020822,0.001449,23.976759,-5.03E-4,0.057149,0.012692,0.0,1.0,2327.64624,, takeoff
45.808769,-304.753326,-303.559875,2.873284,0.035379,2.873284,0.035379,-299.999847,-300.0,20.803461,22.224287,12.233609,297.627136,12.113507,-0.019814,0.002115,18.490164,-5.06E-4,0.057309,0.012379,0.0,1.0,2331.062256,, takeoff
46.718437,-304.688171,-303.49472,2.846812,0.032596,2.846812,0.032596,-299.999847,-300.0,20.856421,22.940079,9.908983,297.63266,12.042832,-0.018078,0.0028,18.843691,-5.09E-4,0.05741,0.012151,0.0,1.0,2336.705566,, takeoff
47.284401,-304.649078,-303.455658,2.851415,0.033151,2.851415,0.033151,-299.999847,-300.0,20.888348,23.387735,10.070937,297.634705,12.005988,-0.017278,0.002985,18.912998,-4.63E-4,0.056955,0.011859,0.0,1.0,2340.363525,, takeoff
47.874058,-304.609131,-303.41568,2.857909,0.033941,2.857909,0.033941,-299.999847,-300.0,20.922178,23.857014,10.218722,297.634827,11.973439,-0.016922,0.002838,22.621393,-4.69E-4,0.056972,0.011713,0.0,1.0,2344.257813,, takeoff
48.757648,-304.550262,-303.356812,2.866401,0.035444,2.866401,0.035444,-299.999847,-300.0,20.973804,24.564966,10.420536,297.631165,11.935937,-0.01731,0.002059,18.267303,-4.85E-4,0.057158,0.01167,0.0,1.0,2350.196533,, takeoff
49.346752,-304.511444,-303.317993,2.871153,0.036602,2.871153,0.036602,-299.999847,-300.0,21.008772,25.039562,10.552813,297.626617,11.918389,-0.018149,0.001279,23.871391,-4.99E-4,0.057281,0.011775,0.0,1.0,2354.198242,, takeoff
50.230156,-304.453552,-303.260101,2.878175,0.038425,2.878175,0.038425,-299.999847,-300.0,21.062042,25.755289,10.750037,297.617798,11.902905,-0.020052,-4.5E-5,23.853374,-5.23E-4,0.057423,0.01208,0.0,1.0,2360.242676,, takeoff
50.818916,-304.415009,-303.221588,2.882702,0.039559,2.882702,0.039559,-299.999847,-300.0,21.098099,26.234936,10.88017,297.611786,11.899524,-0.021492,-8.35E-4,23.853266,-5.41E-4,0.057522,0.012379,0.0,1.0,2364.291992,, takeoff
51.701897,-304.357056,-303.163605,2.8897,0.041062,2.8897,0.041062,-299.999847,-300.0,21.153008,26.958048,11.077496,297.604004,11.904272,-0.023549,-0.001679,15.221109,-5.65E-4,0.057654,0.012822,0.0,1.0,2370.387451,, takeoff
52.609402,-304.297119,-303.103668,2.899194,0.032206,2.899194,0.032206,-299.999847,-300.0,21.21147,27.705669,11.845292,297.599365,11.920603,-0.025537,-0.002185,23.047127,-5.81E-4,0.057752,0.013106,0.0,1.0,2376.673584,, takeoff
53.171619,-304.259155,-303.065704,2.910703,0.023261,2.910703,0.023261,-299.999847,-300.0,21.250538,28.172598,12.386824,297.598572,11.936294,-0.025279,-0.002131,19.046524,-5.96E-4,0.057884,0.013379,0.0,1.0,2380.589355,, takeoff
54.052311,-304.198517,-303.005096,2.917776,0.023493,2.917776,0.023493,-299.999847,-300.0,21.312963,28.90671,12.57956,297.600677,11.968979,-0.024565,-0.001277,23.354565,-3.32E-4,0.058214,0.013483,0.0,1.0,2386.729736,, takeoff
54.664299,-304.155334,-302.961914,2.921676,0.023738,2.921676,0.023738,-299.999847,-300.0,21.356892,29.418802,12.720478,297.603851,11.997046,-0.023622,-4.95E-4,18.068718,-3.34E-4,0.058322,0.013428,0.0,1.0,2391.001953,, takeoff
55.520634,-304.093658,-302.900238,2.927799,0.024101,2.927799,0.024101,-299.999847,-300.0,21.419231,30.1388,12.920952,297.609314,12.042956,-0.021789,6.17E-4,18.395109,-3.39E-4,0.058434,0.013219,0.0,1.0,2396.994629,, takeoff
56.4016,-304.02887,-302.835419,2.934304,0.024632,2.934304,0.024632,-299.999847,-300.0,21.484383,30.882998,13.132749,297.614136,12.097225,-0.01988,0.001465,24.466074,-3.42E-4,0.058517,0.013033,0.0,1.0,2403.172363,, takeoff
56.988663,-303.984955,-302.791504,2.938638,0.025136,2.938638,0.025136,-299.999847,-300.0,21.528402,31.381117,13.272862,297.616089,12.136779,-0.018805,0.001756,22.670475,-3.49E-4,0.058645,0.012769,0.0,1.0,2407.298584,, takeoff
57.869225,-303.91803,-302.724579,2.945053,0.026108,2.945053,0.026108,-299.999847,-300.0,21.595304,32.131187,13.482381,297.616028,12.200195,-0.017743,0.001682,22.790318,-3.56E-4,0.058734,0.012643,0.0,1.0,2413.499023,, takeoff
58.480515,-303.87088,-302.677429,2.949483,0.026919,2.949483,0.026919,-299.999847,-300.0,21.642385,32.654053,13.629864,297.613922,12.246478,-0.017488,0.001313,19.155636,-3.68E-4,0.058861,0.01259,0.0,1.0,2417.812744,, takeoff
59.341404,-303.805176,-302.611725,2.914338,0.02865,2.914338,0.02865,-299.999847,-300.0,21.693733,33.388771,9.170467,297.609131,12.313273,-0.017795,6.03E-4,16.811312,-3.79E-4,0.058948,0.012654,0.0,1.0,2423.866211,, takeoff
59.957623,-303.760742,-302.567291,2.918245,0.029412,2.918245,0.029412,-299.999847,-300.0,21.725918,33.915485,9.355802,297.605072,12.361655,-0.01827,4.9E-5,15.939494,-4.05E-4,0.058384,0.012875,0.0,1.0,2428.205078,, takeoff
60.818398,-303.701324,-302.507874,2.928282,0.030594,2.928282,0.030594,-299.999847,-300.0,21.771915,34.655476,9.552826,297.598938,12.429312,-0.019279,-7.03E-4,15.634255,-4.14E-4,0.058298,0.013049,0.0,1.0,2434.293945,, takeoff
61.432621,-303.660339,-302.466888,2.933694,0.031404,2.933694,0.031404,-299.999847,-300.0,21.805294,35.185837,9.66554,297.594879,12.476998,-0.019996,-0.001114,22.442383,-4.32E-4,0.058506,0.013368,0.0,1.0,2438.67334,, takeoff
62.290257,-303.603943,-302.410492,2.94796,0.02384,2.94796,0.02384,-299.999847,-300.0,21.856335,35.930767,10.755803,297.590698,12.542074,-0.020838,-0.001572,18.831398,-4.43E-4,0.058626,0.013576,0.0,1.0,2444.896729,, takeoff
62.902233,-303.563721,-302.37027,2.952152,0.02471,2.952152,0.02471,-299.999847,-300.0,21.893856,36.464531,10.853076,297.589386,12.586977,-0.021179,-0.00145,23.896763,-3.37E-4,0.058899,0.013826,0.0,1.0,2449.385986,, takeoff
63.758511,-303.507233,-302.313782,2.957321,0.025804,2.957321,0.025804,-299.999847,-300.0,21.946978,37.214073,11.000124,297.589966,12.646955,-0.021269,-9.3E-4,23.940449,-3.47E-4,0.059008,0.013919,0.0,1.0,2455.710938,, takeoff
64.345276,-303.468353,-302.274902,2.961168,0.026493,2.961168,0.026493,-299.999847,-300.0,21.983829,37.72953,11.106274,297.591614,12.685786,-0.021049,-4.23E-4,23.099155,-3.64E-4,0.059112,0.013936,0.0,1.0,2460.067871,, fly_strait
65.232224,-303.411957,-302.218536,2.924479,0.031874,2.924479,0.031874,-299.999847,-300.0,22.018867,38.504982,6.269544,297.583954,12.739907,-0.020176,-0.001633,22.316694,-3.78E-4,0.059223,0.0,0.0,1.0,2466.631348,, fly_strait
65.822876,-303.377441,-302.18399,2.929864,0.03242,2.929864,0.03242,-299.999847,-300.0,22.040022,39.023441,6.413778,297.546326,12.772707,-0.02221,-0.007665,20.916441,-4.43E-4,0.058522,-6.0E-6,0.0,1.0,2471.025391,, fly_strait
66.705727,-303.329041,-302.13562,2.939489,0.030989,2.939489,0.030989,-299.999847,-300.0,22.072512,39.803265,6.567291,297.448486,12.815798,-0.02903,-0.021969,19.389568,-4.63E-4,0.058597,0.002264,0.0,1.0,2477.630371,, fly_strait
67.292191,-303.298523,-302.105072,2.944263,0.028865,2.944263,0.028865,-299.999847,-300.0,22.094547,40.324493,6.649256,297.371155,12.83958,-0.035759,-0.032101,13.662096,-4.53E-4,0.058738,0.005478,0.0,1.0,2482.038574,, fly_strait
68.169029,-303.254517,-302.061066,2.950641,0.023862,2.950641,0.023862,-299.999847,-300.0,22.128227,41.108238,6.953166,297.262543,12.866368,-0.047259,-0.044177,20.583679,-4.12E-4,0.058885,0.011023,0.0,1.0,2488.652832,, fly_strait
68.75267,-303.225952,-302.032501,2.942098,-0.008615,2.942098,-0.008615,-299.999847,-300.0,22.152885,41.631927,7.832873,297.212616,12.877688,-0.055188,-0.048304,13.36932,-3.77E-4,0.058981,0.014948,0.0,1.0,2493.063232,, fly_strait
69.630035,-303.182831,-301.98938,2.880755,-0.155098,2.880755,-0.155098,-299.999847,-300.0,22.195093,42.419167,9.051393,297.188934,12.885451,-0.063094,-0.047944,18.765795,1.23E-4,0.058842,0.01895,0.0,1.0,2499.689941,, fly_strait
70.215759,-303.153229,-301.959778,2.832214,-0.293241,2.832214,-0.293241,-299.999847,-300.0,22.227047,42.945099,9.891541,297.212921,12.886311,-0.063803,-0.042333,14.380026,0.001416,0.058087,0.020149,0.0,1.0,2504.120605,, fly_strait
71.09787,-303.106812,-301.913361,2.745508,-0.504728,2.745508,-0.504728,-299.999847,-300.0,22.276436,43.735668,9.768008,297.297089,12.88598,-0.057488,-0.027678,19.510958,0.004189,0.056644,0.018935,0.0,1.0,2510.792236,, fly_strait
71.687782,-303.074829,-301.881409,2.701536,-0.626358,2.701536,-0.626358,-299.999847,-300.0,22.308615,44.263859,9.590981,297.366119,12.887765,-0.048967,-0.016817,19.910671,0.006323,0.0554,0.016226,0.0,1.0,2515.259521,, fly_strait
72.572922,-303.025909,-301.832458,2.648568,-0.786182,2.648568,-0.786182,-299.999847,-300.0,22.356585,45.057892,9.602706,297.450958,12.898093,-0.03309,-0.005251,20.353455,0.008948,0.054031,0.011275,0.0,1.0,2521.987549,, fly_strait
73.185547,-302.991394,-301.797943,2.617318,-0.889544,2.617318,-0.889544,-299.999847,-300.0,22.390125,45.610481,9.755883,297.471466,12.912922,-0.022405,-0.004315,15.370205,0.010571,0.053257,0.008064,0.0,1.0,2526.670166,, fly_strait
74.042496,-302.94223,-301.74881,2.562764,-1.053077,2.562764,-1.053077,-299.999847,-300.0,22.438499,46.385639,10.112818,297.428802,12.946546,-0.009697,-0.014864,21.014492,0.012708,0.052346,0.006007,0.0,1.0,2533.234863,, fly_strait
74.653282,-302.906616,-301.713165,2.516792,-1.186371,2.516792,-1.186371,-299.999847,-300.0,22.474014,46.940384,10.364842,297.347382,12.980627,-0.004384,-0.029855,15.999146,0.014137,0.051684,0.006837,0.0,1.0,2537.930908,, fly_strait
75.506317,-302.857819,-301.664368,2.495094,-1.504923,2.495094,-1.504923,-299.999847,-300.0,22.512024,47.718525,7.669214,297.180267,13.043376,-0.004444,-0.059665,20.104101,0.016948,0.050336,0.012212,0.0,1.0,2544.505371,, fly_strait
76.377449,-302.809143,-301.615692,2.556211,-1.926614,2.556211,-1.926614,-299.999847,-300.0,22.571018,48.520653,17.633522,296.991241,13.129767,-0.005283,-0.090271,20.769352,0.019526,0.049839,0.017235,0.0,1.0,2551.267334,, fly_strait
76.946762,-302.771515,-301.578064,2.627169,-2.199326,2.627169,-2.199326,-299.999847,-300.0,22.650484,49.056236,30.165134,296.87738,13.202554,-0.006558,-0.105788,18.002222,0.025643,0.050608,0.027161,0.0,1.0,2555.765381,, fly_strait
77.797569,-302.687897,-301.494446,2.772208,-2.537248,2.772208,-2.537248,-299.999847,-300.0,22.870577,49.88279,55.863178,296.750153,13.34288,-0.007712,-0.117304,20.878714,0.029373,0.051732,0.03277,0.0,1.0,2562.654297,, fly_strait
78.328674,-302.605682,-301.412231,2.885528,-2.686793,2.885528,-2.686793,-299.999847,-300.0,23.090921,50.419167,75.77002,296.69754,13.453854,-0.007021,-0.117462,28.59264,0.034849,0.054383,0.040321,0.0,1.0,2567.071533,, fly_strait
79.067825,-302.427185,-301.233734,3.057077,-2.777262,3.057077,-2.777262,-299.999847,-300.0,23.536074,51.201096,106.653152,296.65564,13.644755,-0.003119,-0.109483,44.32906,0.037357,0.056488,0.043443,0.0,1.0,2573.407471,, fly_strait
79.569733,-302.247345,-301.053894,3.185037,-2.756336,3.185037,-2.756336,-299.999847,-300.0,23.947809,51.758961,129.528656,296.633545,13.801311,0.001373,-0.101381,57.35006,0.039489,0.060003,0.046271,0.0,1.0,2577.832275,, fly_strait
80.234314,-301.907471,-300.71405,3.357797,-2.627575,3.357797,-2.627575,-299.999847,-300.0,24.656408,52.538277,160.896606,296.589264,14.044877,0.009687,-0.091422,78.58197,0.039376,0.063701,0.047903,0.0,1.0,2583.852051,, fly_strait
80.66803,-301.609375,-300.415924,3.455671,-2.49615,3.455671,-2.49615,-299.999847,-300.0,25.227787,53.071075,180.750534,296.541199,14.224641,0.015267,-0.087261,94.087875,0.038258,0.066154,0.049281,0.0,1.0,2587.851318,, fly_strait
81.309433,-301.039764,-299.846313,3.599977,-2.266145,3.599977,-2.266145,-299.999847,-300.0,26.235033,53.889221,210.426727,296.433685,14.5135,0.022198,-0.086196,119.073128,0.035659,0.069113,0.052521,0.0,1.0,2593.571045,, fly_strait
81.703911,-300.59491,-299.401459,3.685832,-2.126133,3.685832,-2.126133,-299.999847,-300.0,26.969128,54.417431,229.080551,296.351654,14.703041,0.025278,-0.087614,136.325531,0.033433,0.071115,0.055977,0.0,1.0,2596.568359,, fly_strait
82.276855,-299.818817,-298.625397,3.817997,-1.943976,3.817997,-1.943976,-299.999847,-300.0,28.184568,55.205521,256.210632,296.233765,14.981806,0.028229,-0.08913,161.390533,0.031428,0.072801,0.059758,0.0,1.0,2600.27124, set /instrumentation/altimeter/serviceable false, fly_strait
82.623093,-299.818817,-298.625397,3.906459,-1.842713,3.906459,-1.842713,-299.999847,-300.0,29.032167,55.706074,273.623505,296.172607,15.152281,0.029059,-0.087933,178.132263,0.02867,0.075355,0.065858,0.0,1.0,2602.286377, set /instrumentation/altimeter/serviceable false, fly_strait
83.159599,-299.818817,-298.625397,4.042789,-1.694092,4.042789,-1.694092,-299.999847,-300.0,30.510426,56.505932,300.760468,296.117035,15.40758,0.030886,-0.079762,204.066956,0.026324,0.078129,0.07095,0.0,1.0,2605.136719, set /instrumentation/altimeter/serviceable false, fly_strait
83.64695,-299.818817,-298.625397,4.159377,-1.545435,4.159377,-1.545435,-299.999847,-300.0,32.083557,57.277138,328.185028,296.121185,15.627614,0.0348,-0.063837,230.027084,0.024868,0.080039,0.073169,0.0,1.0,2607.583496, set /instrumentation/altimeter/serviceable false, fly_strait
83.958946,-299.818817,-298.625397,4.25093,-1.428784,4.25093,-1.428784,-299.999847,-300.0,33.212414,57.787075,348.498993,296.144806,15.756128,0.039039,-0.050926,247.157974,0.022833,0.08236,0.073862,0.0,1.0,2609.084961, set /instrumentation/altimeter/serviceable false, fly_strait
84.365753,-299.818817,-298.625397,4.397923,-1.240177,4.397923,-1.240177,-289.999847,-290.0,34.931957,58.503227,378.51535,296.184113,15.910286,0.047594,-0.033505,272.261932,0.021333,0.084019,0.073048,0.0,1.0,2611.074463, set /instrumentation/altimeter/serviceable false, fly_strait
84.662201,-299.818817,-298.625397,4.509369,-1.082513,4.509369,-1.082513,-289.999847,-290.0,36.337868,59.045597,398.768036,296.202606,16.004055,0.053917,-0.023453,291.389099,0.018557,0.087022,0.070914,0.0,1.0,2612.503662, set /instrumentation/altimeter/serviceable false, fly_strait
85.036591,-299.818817,-298.625397,4.60993,-0.876806,4.60993,-0.876806,-289.999847,-290.0,38.332764,59.768116,420.370148,296.197937,16.094015,0.062737,-0.016373,318.056458,0.016504,0.089238,0.069772,0.0,1.0,2614.322998, set /instrumentation/altimeter/serviceable false, fly_strait
85.301743,-299.818817,-298.625397,4.657942,-0.747703,4.657942,-0.747703,-289.999847,-290.0,39.818146,60.278709,434.445435,296.175079,16.130732,0.066812,-0.015382,336.25473,0.013597,0.091555,0.069391,0.0,1.0,2615.561523, set /instrumentation/altimeter/serviceable false, fly_strait
85.668724,-299.818817,-298.625397,4.719913,-0.61241,4.719913,-0.61241,-289.999847,-290.0,42.038433,61.00576,452.8703,296.128418,16.14064,0.070369,-0.017267,361.51474,0.011588,0.092717,0.070149,0.0,1.0,2617.273438, set /instrumentation/altimeter/serviceable false, fly_strait
85.906883,-299.818817,-298.625397,4.772992,-0.553937,4.772992,-0.553937,-289.999847,-290.0,43.569237,61.485016,465.132538,296.10022,16.118408,0.070869,-0.01851,377.616028,0.009358,0.093899,0.072288,0.0,1.0,2618.374268, set /instrumentation/altimeter/serviceable false, fly_strait
86.243134,-299.818817,-298.625397,4.857097,-0.508008,4.857097,-0.508008,-289.999847,-290.0,45.876266,62.175995,483.657684,296.083618,16.045296,0.070699,-0.017015,399.928497,0.008311,0.094878,0.073865,0.0,1.0,2619.92749, set /instrumentation/altimeter/serviceable false, fly_strait
86.465332,-299.818817,-298.625397,4.917279,-0.487133,4.917279,-0.487133,-279.999847,-280.0,47.511948,62.644276,497.217163,296.093903,15.968665,0.070651,-0.012899,414.568512,0.007438,0.096533,0.075316,0.0,1.0,2620.958984, set /instrumentation/altimeter/serviceable false, fly_strait
86.775642,-299.818817,-298.625397,5.004887,-0.450874,5.004887,-0.450874,-279.999847,-280.0,49.979294,63.318974,517.377441,296.137695,15.821709,0.072392,-0.003027,435.481354,0.006959,0.098346,0.074886,0.0,1.0,2622.416992, set /instrumentation/altimeter/serviceable false, fly_strait
87.097458,-299.818817,-298.625397,5.094143,-0.385242,5.094143,-0.385242,-279.999847,-280.0,52.768066,64.040291,538.726318,296.201691,15.620357,0.076321,0.009079,457.471619,0.00663,0.099576,0.073526,0.0,1.0,2623.940674, set /instrumentation/altimeter/serviceable false, fly_strait
87.292137,-299.818817,-298.625397,5.153828,-0.329541,5.153828,-0.329541,-279.999847,-280.0,54.587788,64.489769,552.525818,296.236633,15.473633,0.0797,0.015089,471.372131,0.005849,0.101285,0.070512,0.0,1.0,2624.872559, set /instrumentation/altimeter/serviceable false, fly_strait
87.563774,-299.818817,-298.625397,5.23452,-0.244868,5.23452,-0.244868,-279.999847,-280.0,57.323589,65.136711,572.322998,296.262085,15.236087,0.08434,0.018819,491.690765,0.005117,0.102501,0.06855,0.0,1.0,2626.192383, set /instrumentation/altimeter/serviceable false, fly_strait
87.754257,-299.818817,-298.625397,5.291903,-0.19426,5.291903,-0.19426,-269.999847,-270.0,59.33614,65.592567,586.26178,296.260193,15.051305,0.08631,0.017762,505.87854,0.003871,0.104166,0.066696,0.0,1.0,2627.109131, set /instrumentation/altimeter/serviceable false, fly_strait
88.010071,-299.818817,-298.625397,5.366409,-0.155501,5.366409,-0.155501,-269.999847,-270.0,62.233921,66.222031,605.302124,296.23761,14.774714,0.086853,0.012731,525.796204,0.003092,0.105311,0.066423,0.0,1.0,2628.359863, set /instrumentation/altimeter/serviceable false, fly_strait
88.264709,-299.818817,-298.625397,5.447235,-0.157271,5.447235,-0.157271,-269.999847,-270.0,65.310837,66.858841,624.845703,296.212616,14.473111,0.084687,0.007286,546.032288,0.002336,0.106839,0.067273,0.0,1.0,2629.609863, set /instrumentation/altimeter/serviceable false, fly_strait
88.4282,-299.818817,-298.625397,5.501598,-0.175921,5.501598,-0.175921,-269.999847,-270.0,67.416496,67.277397,637.954651,296.207306,14.26554,0.082525,0.005592,559.318542,0.002177,0.108392,0.068605,0.0,1.0,2630.423828, set /instrumentation/altimeter/serviceable false, fly_strait
88.66423,-299.818817,-298.625397,5.579645,-0.209848,5.579645,-0.209848,-259.999847,-260.0,70.655869,67.896248,657.12384,296.2276,13.949987,0.079958,0.007688,579.205444,0.002374,0.109551,0.06918,0.0,1.0,2631.615234, set /instrumentation/altimeter/serviceable false, fly_strait
88.813957,-299.818817,-298.625397,5.635175,-0.223705,5.635175,-0.223705,-259.999847,-260.0,72.868629,68.302818,669.96991,296.25769,13.740262,0.07941,0.011692,592.27887,0.002846,0.111044,0.06873,0.0,1.0,2632.38916, set /instrumentation/altimeter/serviceable false, fly_strait
89.028381,-299.818817,-298.625397,5.714324,-0.21795,5.714324,-0.21795,-259.999847,-260.0,76.267441,68.903633,688.900085,296.31311,13.432249,0.080405,0.019046,611.856873,0.003128,0.112208,0.067448,0.0,1.0,2633.518311, set /instrumentation/altimeter/serviceable false, fly_strait
89.164009,-299.818817,-298.625397,5.768033,-0.197835,5.768033,-0.197835,-259.999847,-260.0,78.585777,69.298119,701.522461,296.346313,13.234091,0.082102,0.023014,624.73291,0.003191,0.113738,0.064862,0.0,1.0,2634.249512, set /instrumentation/altimeter/serviceable false, fly_strait
89.358818,-299.818817,-298.625397,5.840714,-0.155818,5.840714,-0.155818,-249.999863,-250.0,82.140739,69.880737,719.744568,296.373444,12.951391,0.084521,0.024887,643.771362,0.002978,0.114889,0.062968,0.0,1.0,2635.314697, set /instrumentation/altimeter/serviceable false, fly_strait
89.490334,-299.818817,-298.625397,5.890702,-0.130814,5.890702,-0.130814,-249.999863,-250.0,84.662346,70.278923,732.11145,296.374268,12.767049,0.085375,0.023081,657.007751,0.002414,0.116356,0.06116,0.0,1.0,2636.033936, set /instrumentation/altimeter/serviceable false, fly_strait
89.666847,-299.818817,-298.625397,5.954695,-0.117942,5.954695,-0.117942,-249.999863,-250.0,88.262817,70.827583,748.549377,296.356842,12.527581,0.084677,0.017543,675.484558,0.002022,0.117356,0.060794,0.0,1.0,2637.014893, set /instrumentation/altimeter/serviceable false, fly_strait
89.790611,-299.818817,-298.625397,6.000542,-0.127662,6.000542,-0.127662,-249.999863,-250.0,90.882736,71.213264,759.981079,296.341278,12.371078,0.082871,0.013245,688.312012,0.001697,0.118677,0.061394,0.0,1.0,2637.69873, set /instrumentation/altimeter/serviceable false, fly_strait
89.97728,-299.818817,-298.625397,6.06118,-0.163149,6.06118,-0.163149,-239.999863,-240.0,94.723389,71.759605,775.683411,296.332336,12.1693,0.079348,0.009578,706.158752,0.001951,0.12039,0.062775,0.0,1.0,2638.660645, set /instrumentation/altimeter/serviceable false, fly_strait
90.068146,-299.818817,-298.625397,6.103555,-0.190943,6.103555,-0.190943,-239.999863,-240.0,97.326469,72.117958,785.72467,296.34137,12.051734,0.077217,0.009732,718.523926,0.001951,0.12039,0.062775,0.0,1.0,2639.287109, set /instrumentation/altimeter/serviceable false, fly_strait
90.24424,-299.818817,-298.625397,6.169626,-0.221157,6.169626,-0.221157,-239.999863,-240.0,101.294334,72.646713,800.925537,296.376007,11.903348,0.075406,0.013467,735.816406,0.002514,0.121591,0.062836,0.0,1.0,2640.203369, set /instrumentation/altimeter/serviceable false, fly_strait
90.324997,-299.818817,-298.625397,6.210963,-0.226388,6.210963,-0.226388,-229.999863,-230.0,103.981697,72.993378,810.995911,296.407074,11.824299,0.075478,0.01717,747.559204,0.00304,0.122914,0.061528,0.0,1.0,2640.797607, set /instrumentation/altimeter/serviceable false, fly_strait
90.461632,-299.818817,-298.625397,6.262523,-0.211363,6.262523,-0.211363,-229.999863,-230.0,107.844528,73.476517,824.434509,296.446899,11.740627,0.076834,0.021539,763.432739,0.003221,0.123796,0.060078,0.0,1.0,2641.617432, set /instrumentation/altimeter/serviceable false, fly_strait
90.557999,-299.818817,-298.625397,6.300358,-0.190748,6.300358,-0.190748,-229.999863,-230.0,110.72451,73.825836,833.97583,296.465149,11.700341,0.078144,0.022765,774.740112,0.003121,0.124907,0.057814,0.0,1.0,2642.203857, set /instrumentation/altimeter/serviceable false, fly_strait
90.684029,-299.818817,-298.625397,6.349247,-0.164066,6.349247,-0.164066,-219.999863,-220.0,114.810593,74.306511,846.635376,296.468079,11.673359,0.079093,0.020673,790.367249,0.002874,0.125659,0.056677,0.0,1.0,2643.003418, set /instrumentation/altimeter/serviceable false, fly_strait
90.787468,-299.818817,-298.625397,6.384937,-0.156209,6.384937,-0.156209,-219.999863,-220.0,117.885155,74.657333,855.76532,296.457184,11.674529,0.078623,0.017026,801.423706,0.002446,0.126667,0.056091,0.0,1.0,2643.582764, set /instrumentation/altimeter/serviceable false, fly_strait
90.906792,-299.818817,-298.625397,6.430081,-0.169713,6.430081,-0.169713,-219.999863,-220.0,122.195,75.134407,867.678406,296.437317,11.704251,0.076353,0.011436,816.569275,0.002257,0.127385,0.056421,0.0,1.0,2644.367188, set /instrumentation/altimeter/serviceable false, fly_strait
90.995392,-299.818817,-298.625397,6.46066,-0.191136,6.46066,-0.191136,-209.999863,-210.0,125.100769,75.446938,875.408691,296.429901,11.741314,0.074165,0.008886,826.280396,0.002318,0.128289,0.057407,0.0,1.0,2644.879395, set /instrumentation/altimeter/serviceable false, fly_strait
91.100014,-299.818817,-298.625397,6.502787,-0.227839,6.502787,-0.227839,-209.999863,-210.0,129.383408,75.894897,886.174377,296.437775,11.818995,0.071151,0.008464,840.236084,0.002552,0.128895,0.057941,0.0,1.0,2645.611572, set /instrumentation/altimeter/serviceable false, fly_strait
91.183296,-299.818817,-298.625397,6.533742,-0.2481,6.533742,-0.2481,-209.999863,-210.0,132.474197,76.209244,893.766724,296.456818,11.891036,0.069992,0.010433,849.740723,0.003093,0.129777,0.057944,0.0,1.0,2646.123291, set /instrumentation/altimeter/serviceable false, fly_strait
91.286652,-299.818817,-298.625397,6.574892,-0.256777,6.574892,-0.256777,-199.999863,-200.0,136.844727,76.641541,904.010925,296.493835,12.013909,0.069747,0.014833,862.808472,0.003413,0.130365,0.057295,0.0,1.0,2646.822998, set /instrumentation/altimeter/serviceable false, fly_strait
91.389687,-299.818817,-298.625397,6.617145,-0.242331,6.617145,-0.242331,-199.999863,-200.0,141.391617,77.076782,914.361084,296.528076,12.164917,0.071098,0.018493,875.796936,0.003665,0.131227,0.055498,0.0,1.0,2647.521729, set /instrumentation/altimeter/serviceable false, fly_strait
91.454567,-299.818817,-298.625397,6.642901,-0.225408,6.642901,-0.225408,-199.999863,-200.0,144.451279,77.361679,921.089355,296.540558,12.277781,0.072226,0.019101,884.116333,0.003554,0.132086,0.053624,0.0,1.0,2647.976074, set /instrumentation/altimeter/serviceable false, fly_strait
91.55088,-299.818817,-298.625397,6.67639,-0.204168,6.67639,-0.204168,-189.999863,-190.0,149.081146,77.781258,930.439514,296.538666,12.462131,0.072909,0.016595,896.329834,0.003335,0.132638,0.052768,0.0,1.0,2648.642334, set /instrumentation/altimeter/serviceable false, fly_strait
91.616341,-299.818817,-298.625397,6.699955,-0.200412,6.699955,-0.200412,-189.999863,-190.0,152.323181,78.067223,936.667358,296.527191,12.598583,0.072324,0.013265,904.353638,0.00299,0.133315,0.052502,0.0,1.0,2649.095215, set /instrumentation/altimeter/serviceable false, fly_strait
91.704597,-299.818817,-298.625397,6.730595,-0.215311,6.730595,-0.215311,-179.999863,-180.0,156.897308,78.460258,944.924316,296.509216,12.798008,0.070131,0.008525,915.5354,0.002866,0.133782,0.052913,0.0,1.0,2649.718018, set /instrumentation/altimeter/serviceable false, fly_strait
91.767982,-299.818817,-298.625397,6.752759,-0.236338,6.752759,-0.236338,-179.999863,-180.0,160.188766,78.735863,950.677734,296.503052,12.944723,0.068137,0.006439,923.112427,0.002977,0.134411,0.053867,0.0,1.0,2650.155518, set /instrumentation/altimeter/serviceable false, fly_strait
91.848358,-299.818817,-298.625397,6.782455,-0.268183,6.782455,-0.268183,-179.999863,-180.0,164.829575,79.114639,958.39209,296.511871,13.153945,0.065617,0.006586,933.489014,0.003222,0.134851,0.054338,0.0,1.0,2650.757568, set /instrumentation/altimeter/serviceable false, fly_strait
91.906235,-299.818817,-298.625397,6.803704,-0.283626,6.803704,-0.283626,-169.999863,-170.0,168.033371,79.369659,963.642517,296.528687,13.298923,0.064795,0.008497,940.237183,0.003695,0.135452,0.054239,0.0,1.0,2651.163086, set /instrumentation/altimeter/serviceable false, fly_strait
91.986183,-299.818817,-298.625397,6.833737,-0.287809,6.833737,-0.287809,-169.999863,-170.0,172.871338,79.745094,971.261047,296.561127,13.516909,0.064928,0.01248,950.332886,0.003968,0.135886,0.053574,0.0,1.0,2651.759277, set /instrumentation/altimeter/serviceable false, fly_strait
92.035904,-299.818817,-298.625397,6.853994,-0.279156,6.853994,-0.279156,-159.999863,-160.0,176.117676,79.990692,976.303955,296.580322,13.661368,0.065843,0.014614,956.743835,0.004126,0.136482,0.052029,0.0,1.0,2652.147949, set /instrumentation/altimeter/serviceable false, fly_strait
92.109184,-299.818817,-298.625397,6.880847,-0.257367,6.880847,-0.257367,-159.999863,-160.0,181.017944,80.35215,983.505127,296.594116,13.874326,0.067194,0.015217,966.147156,0.00406,0.136903,0.050966,0.0,1.0,2652.718994, set /instrumentation/altimeter/serviceable false, fly_strait
92.156319,-299.818817,-298.625397,6.89826,-0.245113,6.89826,-0.245113,-159.999863,-160.0,184.304428,80.588554,988.158447,296.592163,14.012216,0.067608,0.013753,972.266846,0.003775,0.137448,0.049977,0.0,1.0,2653.092041, set /instrumentation/altimeter/serviceable false, fly_strait
92.226105,-299.818817,-298.625397,6.921209,-0.241246,6.921209,-0.241246,-149.999863,-150.0,189.262253,80.93644,994.68158,296.577209,14.21026,0.066915,0.00968,981.016968,0.003572,0.137815,0.049872,0.0,1.0,2653.64209, set /instrumentation/altimeter/serviceable false, fly_strait
92.268112,-299.818817,-298.625397,6.93676,-0.25003,6.93676,-0.25003,-149.999863,-150.0,192.58519,81.163963,998.873779,296.565765,14.335099,0.065581,0.006873,986.582397,0.003433,0.138266,0.050424,0.0,1.0,2654.003418, set /instrumentation/altimeter/serviceable false, fly_strait
92.338219,-299.818817,-298.625397,6.958629,-0.275717,6.958629,-0.275717,-139.999863,-140.0,197.595078,81.498795,1004.849487,296.558289,14.509939,0.063142,0.004483,994.781616,0.003498,0.138598,0.051045,0.0,1.0,2654.538086, set /instrumentation/altimeter/serviceable false, fly_strait
92.381126,-299.818817,-298.625397,6.973994,-0.294309,6.973994,-0.294309,-139.999863,-140.0,200.951431,81.717773,1008.775818,296.563141,14.617671,0.061746,0.004628,1000.126221,0.003813,0.139031,0.051639,0.0,1.0,2654.889648, set /instrumentation/altimeter/serviceable false, fly_strait
92.464279,-299.818817,-298.625397,6.997887,-0.313082,6.997887,-0.313082,-139.999863,-140.0,206.151215,82.048836,1014.750366,296.584869,14.769442,0.060778,0.007229,1007.674927,0.004204,0.13948,0.051424,0.0,1.0,2655.423096, set /instrumentation/altimeter/serviceable false, fly_strait
92.482338,-299.818817,-298.625397,7.011682,-0.314284,7.011682,-0.314284,-129.999863,-130.0,209.398849,82.250671,1018.372925,296.602264,14.854881,0.060972,0.009451,1012.615356,0.00441,0.139798,0.050792,0.0,1.0,2655.749023, set /instrumentation/altimeter/serviceable false, fly_strait
92.558632,-299.818817,-298.625397,7.034976,-0.301753,7.034976,-0.301753,-129.999863,-130.0,214.647308,82.569099,1024.116089,296.625977,14.977585,0.062072,0.012159,1019.725098,0.00449,0.140234,0.049468,0.0,1.0,2656.262939, set /instrumentation/altimeter/serviceable false, fly_strait
92.57309,-299.818817,-298.625397,7.047309,-0.28906,7.047309,-0.28906,-119.999855,-120.0,217.924622,82.763176,1027.571777,296.632538,15.044362,0.062947,0.012414,1024.383423,0.004398,0.140546,0.048625,0.0,1.0,2656.576172, set /instrumentation/altimeter/serviceable false, fly_strait
92.624634,-299.818817,-298.625397,7.066903,-0.272741,7.066903,-0.272741,-119.999855,-120.0,223.219254,83.069298,1032.865967,296.628235,15.135712,0.063461,0.010372,1031.362671,0.004129,0.140946,0.047954,0.0,1.0,2657.071289, set /instrumentation/altimeter/serviceable false, fly_strait
92.673645,-299.818817,-298.625397,7.08276,-0.27273,7.08276,-0.27273,-109.999855,-110.0,228.251923,83.352089,1037.507324,296.613342,15.20315,0.062667,0.006762,1037.593018,0.003957,0.141211,0.047998,0.0,1.0,2657.531494, set /instrumentation/altimeter/serviceable false, fly_strait
92.704636,-299.818817,-298.625397,7.093678,-0.28241,7.093678,-0.28241,-109.999855,-110.0,231.715622,83.542267,1040.558228,296.603516,15.238593,0.06141,0.004488,1041.725464,0.00387,0.141552,0.048657,0.0,1.0,2657.842773, set /instrumentation/altimeter/serviceable false, fly_strait
92.754158,-299.818817,-298.625397,7.108887,-0.305216,7.108887,-0.305216,-99.999855,-100.0,236.784531,83.814293,1044.77124,296.599182,15.274937,0.059343,0.002991,1047.833496,0.003958,0.141778,0.049202,0.0,1.0,2658.291992, set /instrumentation/altimeter/serviceable false, fly_strait
92.788048,-299.818817,-298.625397,7.120645,-0.32109,7.120645,-0.32109,-99.999855,-100.0,240.417618,84.004799,1047.750366,296.605469,15.290355,0.058303,0.00355,1051.811157,0.00425,0.142076,0.049634,0.0,1.0,2658.608887, set /instrumentation/altimeter/serviceable false, fly_strait
92.842125,-299.818817,-298.625397,7.138001,-0.333319,7.138001,-0.333319,-99.999855,-100.0,245.81337,84.281036,1052.081299,296.62616,15.298468,0.057778,0.006263,1057.390503,0.004486,0.142303,0.049509,0.0,1.0,2659.071045, set /instrumentation/altimeter/serviceable false, fly_strait
92.859787,-299.818817,-298.625397,7.149621,-0.331839,7.149621,-0.331839,-89.999855,-90.0,249.325256,84.456604,1054.924194,296.641815,15.295165,0.058199,0.008314,1061.297852,0.004726,0.142631,0.048689,0.0,1.0,2659.365967, set /instrumentation/altimeter/serviceable false, fly_strait
92.89991,-299.818817,-298.625397,7.164513,-0.318212,7.164513,-0.318212,-89.999855,-90.0,254.46344,84.707642,1058.908691,296.65799,15.279361,0.059357,0.010099,1066.44397,0.004767,0.142872,0.047905,0.0,1.0,2659.788818, set /instrumentation/altimeter/serviceable false, fly_strait
92.924904,-299.818817,-298.625397,7.174208,-0.306393,7.174208,-0.306393,-79.999855,-80.0,257.997772,84.876389,1061.556641,296.661316,15.261458,0.060119,0.009973,1069.811768,0.004627,0.143187,0.046893,0.0,1.0,2660.073975, set /instrumentation/altimeter/serviceable false, fly_strait
92.960091,-299.818817,-298.625397,7.187263,-0.294612,7.187263,-0.294612,-79.999855,-80.0,263.167358,85.11763,1065.224487,296.654327,15.225663,0.060374,0.00786,1074.82312,0.004377,0.143484,0.046515,0.0,1.0,2660.484131, set /instrumentation/altimeter/serviceable false, fly_strait
93.001167,-299.818817,-298.625397,7.19852,-0.29801,7.19852,-0.29801,-69.999855,-70.0,268.650909,85.366539,1068.743286,296.639343,15.176226,0.059443,0.004493,1079.491699,0.004242,0.143671,0.046692,0.0,1.0,2660.911621, set /instrumentation/altimeter/serviceable false, fly_strait
93.023888,-299.818817,-298.625397,7.206673,-0.308955,7.206673,-0.308955,-69.999855,-70.0,272.365936,85.53125,1071.011963,296.631256,15.136826,0.058276,0.002686,1082.419189,0.004215,0.143893,0.047363,0.0,1.0,2661.197754, set /instrumentation/altimeter/serviceable false, fly_strait
93.059402,-299.818817,-298.625397,7.218155,-0.329675,7.218155,-0.329675,-59.999859,-60.0,277.579987,85.757256,1074.081909,296.630249,15.074989,0.056567,0.001995,1086.91687,0.004318,0.144047,0.04782,0.0,1.0,2661.594727, set /instrumentation/altimeter/serviceable false, fly_strait
93.080025,-299.818817,-298.625397,7.226443,-0.341806,7.226443,-0.341806,-59.999859,-60.0,281.16394,85.90918,1076.195679,296.637329,15.029119,0.055833,0.00285,1089.854248,0.004615,0.144286,0.048126,0.0,1.0,2661.864258, set /instrumentation/altimeter/serviceable false, fly_strait
93.111404,-299.818817,-298.625397,7.238331,-0.348741,7.238331,-0.348741,-59.999859,-60.0,286.552887,86.1325,1079.278564,296.655853,14.956872,0.055688,0.005423,1094.099609,0.004812,0.144456,0.047914,0.0,1.0,2662.263672, set /instrumentation/altimeter/serviceable false, fly_strait
93.134331,-299.818817,-298.625397,7.246884,-0.344805,7.246884,-0.344805,-49.999859,-50.0,290.304291,86.284401,1081.423706,296.66922,14.905314,0.056265,0.007211,1096.871582,0.004974,0.144689,0.047099,0.0,1.0,2662.537354, set /instrumentation/altimeter/serviceable false, fly_strait
93.171265,-299.818817,-298.625397,7.25793,-0.330375,7.25793,-0.330375,-49.999859,-50.0,295.719116,86.498627,1084.399414,296.680328,14.830417,0.057357,0.008343,1100.785034,0.004966,0.144859,0.046423,0.0,1.0,2662.925537, set /instrumentation/altimeter/serviceable false, fly_strait
93.179245,-299.818817,-298.625397,7.264607,-0.320688,7.264607,-0.320688,-39.999859,-40.0,299.18631,86.632751,1086.253052,296.680542,14.78266,0.057913,0.007882,1103.245239,0.004797,0.145084,0.04568,0.0,1.0,2663.17041, set /instrumentation/altimeter/serviceable false, fly_strait
93.207535,-299.818817,-298.625397,7.273908,-0.312678,7.273908,-0.312678,-39.999859,-40.0,304.624664,86.838478,1088.992554,296.671234,14.708722,0.057926,0.005616,1107.127319,0.004581,0.145292,0.045554,0.0,1.0,2663.549561, set /instrumentation/altimeter/serviceable false, fly_strait
93.22493,-299.818817,-298.625397,7.278866,-0.315308,7.278866,-0.315308,-29.999857,-30.0,308.257599,86.972839,1090.672974,296.662354,14.660358,0.057318,0.003722,1109.430542,0.004481,0.145427,0.045831,0.0,1.0,2663.800049, set /instrumentation/altimeter/serviceable false, fly_strait
93.25248,-299.818817,-298.625397,7.287204,-0.329174,7.287204,-0.329174,-29.999857,-30.0,313.717102,87.170296,1093.046631,296.652588,14.590045,0.055901,0.00162,1112.88269,0.004504,0.145577,0.046463,0.0,1.0,2664.17334, set /instrumentation/altimeter/serviceable false, fly_strait
93.269394,-299.818817,-298.625397,7.292663,-0.341321,7.292663,-0.341321,-29.999857,-30.0,317.363281,87.299278,1094.591064,296.652313,14.545281,0.054916,0.00134,1114.934692,0.004628,0.145693,0.046851,0.0,1.0,2664.420654, set /instrumentation/altimeter/serviceable false, fly_strait
93.296417,-299.818817,-298.625397,7.302053,-0.355998,7.302053,-0.355998,-19.999857,-20.0,322.994507,87.494026,1096.962646,296.662567,14.480878,0.054097,0.002701,1118.137329,0.004876,0.145853,0.046965,0.0,1.0,2664.798828, set /instrumentation/altimeter/serviceable false, fly_strait
93.309509,-299.818817,-298.625397,7.307759,-0.358752,7.307759,-0.358752,-19.999857,-20.0,326.50116,87.612625,1098.4375,296.673004,14.444317,0.054126,0.004205,1120.095459,0.00503,0.145976,0.046695,0.0,1.0,2665.027588, set /instrumentation/altimeter/serviceable false, fly_strait
93.332367,-299.818817,-298.625397,7.317121,-0.352824,7.317121,-0.352824,-9.999858,-10.0,331.999268,87.794525,1100.753296,296.688904,14.393314,0.054872,0.006375,1123.199707,0.005125,0.146155,0.045931,0.0,1.0,2665.352295, set /instrumentation/altimeter/serviceable false, fly_strait
93.353394,-299.818817,-298.625397,7.324991,-0.338704,7.324991,-0.338704,-9.999858,-10.0,337.662018,87.976814,1103.023071,296.695587,14.349378,0.055891,0.0069,1126.116577,0.005084,0.146289,0.045348,0.0,1.0,2665.655029, set /instrumentation/altimeter/serviceable false, fly_strait
93.366905,-299.818817,-298.625397,7.329638,-0.330908,7.329638,-0.330908,1.42E-4,0.0,341.187836,88.087791,1104.373047,296.69342,14.326439,0.056271,0.006162,1128.092163,0.004913,0.146444,0.044847,0.0,1.0,2665.832275, set /instrumentation/altimeter/serviceable false, fly_strait
93.378479,-299.818817,-298.625397,7.334228,-0.326616,7.334228,-0.326616,1.42E-4,0.0,344.871429,88.201721,1105.718262,296.682556,14.296391,0.056046,0.003822,1130.852783,0.004727,0.146593,0.04491,0.0,1.0,2666.106445, set /instrumentation/altimeter/serviceable false, fly_strait
93.399872,-299.818817,-298.625397,7.339745,-0.331026,7.339745,-0.331026,10.000142,10.0,350.404907,88.369102,1107.588135,296.675018,14.281878,0.055393,0.002298,1132.42627,0.004666,0.146685,0.045232,0.0,1.0,2666.271973, set /instrumentation/altimeter/serviceable false, fly_strait
93.417793,-299.818817,-298.625397,7.345623,-0.3446,7.345623,-0.3446,10.000142,10.0,355.793243,88.527908,1109.279785,296.668335,14.265924,0.054103,8.93E-4,1135.050781,0.004729,0.146795,0.04583,0.0,1.0,2666.518799, set /instrumentation/altimeter/serviceable false, fly_strait
93.429588,-299.818817,-298.625397,7.349983,-0.355765,7.349983,-0.355765,20.000143,20.0,359.8013,88.643417,1110.508057,296.670197,14.258978,0.053334,0.001043,1136.672729,0.004854,0.146876,0.046109,0.0,1.0,2666.698975, set /instrumentation/altimeter/serviceable false, fly_strait
93.449913,-299.818817,-298.625397,7.356843,-0.365586,7.356843,-0.365586,20.000143,20.0,365.203766,88.795685,1112.181519,296.680908,14.256487,0.052881,0.002604,1138.798218,0.005082,0.147,0.046071,0.0,1.0,2666.937744, set /instrumentation/altimeter/serviceable false, turn_+45
93.458122,-299.818817,-298.625397,7.362839,-0.39569,7.362839,-0.39569,30.000143,30.0,368.913086,88.897964,1113.350708,296.753265,14.259317,0.040727,0.014989,1140.303223,0.001731,0.147091,0.1,0.0,1.0,2667.098389, set /instrumentation/altimeter/serviceable false, turn_+45
93.454712,33.546764,34.740211,7.387828,-0.383615,7.387828,-0.383615,30.000143,30.0,374.640137,89.052139,1115.730713,297.09729,14.273547,0.04359,0.068752,1142.318726,0.001884,0.147257,0.1,0.0,1.0,2667.328125, set /instrumentation/altimeter/serviceable true, turn_+45
93.431343,37.425983,38.619427,7.410407,-0.250101,7.410407,-0.250101,40.000141,40.0,378.363281,89.149673,1118.167236,297.391785,14.291839,0.057739,0.112717,1144.080933,0.001954,0.147538,0.1,0.0,1.0,2667.454346, set /instrumentation/altimeter/serviceable true, turn_+45
93.38752,43.083759,44.277206,7.438701,0.132522,7.438701,0.132522,40.000141,40.0,383.809937,89.288017,1122.718506,297.793976,14.33207,0.089984,0.168375,1146.197021,0.001191,0.148208,0.1,0.0,1.0,2667.593018, set /instrumentation/altimeter/serviceable true, turn_+45
93.346802,46.971024,48.164467,7.445222,0.481794,7.445222,0.481794,50.000141,50.0,387.557648,89.380035,1125.673584,297.997437,14.36622,0.113155,0.192216,1147.743408,3.8E-5,0.148643,0.1,0.0,1.0,2667.657227, set /instrumentation/altimeter/serviceable true, turn_+45
93.313721,52.81142,54.004864,7.443655,1.042582,7.443655,1.042582,50.000141,50.0,393.194733,89.513618,1128.814697,298.156616,14.417679,0.141759,0.201635,1150.044434,-0.002294,0.148904,0.1,0.0,1.0,2667.720459, set /instrumentation/altimeter/serviceable true, turn_+45
93.246658,58.672684,59.866127,7.434218,1.520938,7.434218,1.520938,60.000141,60.0,398.842926,89.642036,1130.111816,298.170685,14.45404,0.156558,0.185809,1152.869629,-0.004166,0.148909,0.1,0.0,1.0,2667.766846, set /instrumentation/altimeter/serviceable true, turn_+45
93.224983,62.587109,63.780552,7.427663,1.756995,7.427663,1.756995,60.000141,60.0,402.609985,89.724968,1130.011841,298.140503,14.461713,0.15798,0.168764,1154.72522,-0.00655,0.148754,0.1,0.0,1.0,2667.799561, set /instrumentation/altimeter/serviceable true, turn_+45
93.201973,68.468491,69.661934,7.419314,1.969556,7.419314,1.969556,70.000145,70.0,408.257599,89.845718,1128.933594,298.108337,14.439548,0.151185,0.145649,1157.429443,-0.0079,0.14861,0.1,0.0,1.0,2667.860596, set /instrumentation/altimeter/serviceable true, turn_+45
93.190483,72.391472,73.584915,7.413771,2.038334,7.413771,2.038334,70.000145,70.0,412.01886,89.923988,1127.835938,298.129211,14.399893,0.1435,0.137347,1158.97583,-0.00912,0.148443,0.1,0.0,1.0,2667.9104, set /instrumentation/altimeter/serviceable true, turn_+45
93.174385,78.282349,79.475792,7.406085,2.083592,7.406085,2.083592,80.000145,80.0,417.653473,90.0383,1126.070435,298.252716,14.303425,0.132854,0.139607,1161.151733,-0.009706,0.148275,0.1,0.0,1.0,2667.997803, set /instrumentation/altimeter/serviceable true, turn_+45
93.165009,82.2061,83.399544,7.402714,2.10757,7.402714,2.10757,80.000145,80.0,421.405243,90.112541,1125.070557,298.394958,14.216664,0.128527,0.150168,1162.141602,-0.009874,0.148162,0.1,0.0,1.0,2668.060791, set /instrumentation/altimeter/serviceable true, turn_+45
93.154053,88.086777,89.28022,7.398868,2.179494,7.398868,2.179494,90.000145,90.0,427.027771,90.220963,1124.059448,298.671234,14.058407,0.127907,0.174506,1163.079346,-0.010036,0.148054,0.1,0.0,1.0,2668.155762, set /instrumentation/altimeter/serviceable true, turn_+45
93.127197,92.00885,93.202293,7.397296,2.262687,7.397296,2.262687,90.000145,90.0,430.773926,90.291275,1123.702026,298.874695,13.937505,0.131031,0.192424,1163.703369,-0.010233,0.147998,0.1,0.0,1.0,2668.215576, set /instrumentation/altimeter/serviceable true, turn_+45
93.097275,98.050201,99.243645,7.394387,2.443996,7.394387,2.443996,100.000145,100.0,436.547791,90.396538,1123.465332,299.179718,13.731975,0.138884,0.216291,1164.239136,-0.010775,0.147946,0.1,0.0,1.0,2668.299072, set /instrumentation/altimeter/serviceable true, turn_+45
93.098732,101.968475,103.161919,7.391936,2.581196,7.391936,2.581196,100.000145,100.0,440.29248,90.462769,1123.342896,299.357239,13.588206,0.144575,0.227032,1164.482666,-0.011332,0.147908,0.1,0.0,1.0,2668.347412, set /instrumentation/altimeter/serviceable true, turn_+45
93.04966,107.845657,109.039108,7.386859,2.788706,7.386859,2.788706,110.000145,110.0,445.908325,90.559128,1122.939575,299.585693,13.359214,0.151338,0.235351,1164.804565,-0.012291,0.147839,0.1,0.0,1.0,2668.414795, set /instrumentation/altimeter/serviceable true, turn_+45
93.031639,111.600777,112.79422,7.383159,2.90595,7.383159,2.90595,110.000145,110.0,449.494751,90.618874,1122.461914,299.712097,13.205327,0.153849,0.236667,1165.01416,-0.012961,0.147773,0.1,0.0,1.0,2668.457275, set /instrumentation/altimeter/serviceable true, turn_+45
93.010117,117.633606,118.827049,7.376095,3.056693,7.376095,3.056693,120.000145,120.0,455.260071,90.712143,1121.286011,299.901215,12.947115,0.154346,0.235625,1164.937866,-0.013838,0.147663,0.1,0.0,1.0,2668.528076, set /instrumentation/altimeter/serviceable true, turn_+45
92.990448,123.500496,124.693947,7.368985,3.15242,7.368985,3.15242,120.000145,120.0,460.862732,90.799736,1119.78833,300.092529,12.686469,0.151943,0.234951,1164.76123,-0.014334,0.147572,0.1,0.0,1.0,2668.604004, set /instrumentation/altimeter/serviceable true, turn_+45
92.98336,127.407364,128.6008,7.363906,3.195431,7.363906,3.195431,130.000137,130.0,464.593445,90.856499,1118.673706,300.234406,12.510103,0.149641,0.236409,1164.463989,-0.014858,0.147438,0.1,0.0,1.0,2668.658691, set /instrumentation/altimeter/serviceable true, turn_+45
92.964691,133.264633,134.458084,7.356813,3.242605,7.356813,3.242605,130.000137,130.0,470.182526,90.939323,1117.038696,300.475281,12.246592,0.146643,0.242359,1163.999878,-0.015114,0.147331,0.1,0.0,1.0,2668.74585, set /instrumentation/altimeter/serviceable true, turn_+45
92.958206,137.164154,138.35759,7.35213,3.272506,7.35213,3.272506,140.000137,140.0,473.904205,90.993034,1116.013916,300.65329,12.074866,0.1455,0.248539,1163.504761,-0.015359,0.147193,0.1,0.0,1.0,2668.806641, set /instrumentation/altimeter/serviceable true, turn_+45
