airspeed_indicator_indicated_speed_kt,altimeter_indicated_altitude_ft,altimeter_pressure_alt_ft,attitude_indicator_indicated_pitch_deg,attitude_indicator_indicated_roll_deg,attitude_indicator_internal_pitch_deg,attitude_indicator_internal_roll_deg,encoder_indicated_altitude_ft,encoder_pressure_alt_ft,gps_indicated_altitude_ft,gps_indicated_ground_speed_kt,gps_indicated_vertical_speed,indicated_heading_deg,magnetic_compass_indicated_heading_deg,slip_skid_ball_indicated_slip_skid,turn_indicator_indicated_turn_rate,vertical_speed_indicator_indicated_speed_fpm,flight_aileron,flight_elevator,flight_rudder,flight_flaps,engine_throttle,engine_rpm,Command_fault,Command
24.863794,-195.34552,-194.152084,3.050473,1.293265,2.716163,0.178898,-189.999863,-190.0,18.855347,4.3E-5,-3.35E-4,297.868378,15.487777,-0.046395,-0.052401,-1665.728882,-0.0,0.0,0.0,0.0,0.0,605.626953,, takeoff
24.8792,-203.004028,-201.810577,3.029851,1.22488,2.716038,0.178838,-199.999863,-200.0,18.855345,4.1E-5,-2.01E-4,297.867218,14.919614,-0.046384,-0.045468,-1667.765991,-0.018475,0.054323,0.0,0.0,1.0,610.292175,, takeoff
24.8692,-208.8629,-207.669449,2.875861,0.714623,2.715055,0.178606,-209.999863,-210.0,18.855343,4.0E-5,-0.002077,297.866272,14.481988,-0.046469,-0.040805,-1669.137817,-0.017498,0.054321,5.8E-5,0.0,1.0,675.360107,, takeoff
24.892578,-216.981628,-215.788193,2.719423,0.245442,2.698599,0.176031,-209.999863,-210.0,18.855295,1.05E-4,-0.019964,297.864807,13.879874,-0.046671,-0.035223,-1670.950317,-0.010209,0.054301,1.05E-4,0.0,1.0,856.494934,, takeoff
24.880581,-221.933975,-220.740524,2.681374,0.172305,2.681374,0.172305,-219.999863,-220.0,18.85527,4.03E-4,0.01035,297.8638,13.518019,-0.045277,-0.032263,-1671.526245,-0.003506,0.053972,1.79E-4,0.0,1.0,997.520569,, takeoff
24.887859,-230.725494,-229.532059,2.64503,0.161219,2.64503,0.161219,-229.999863,-230.0,18.85537,0.003309,0.027902,297.861664,12.895587,-0.045162,-0.027797,-1672.763428,-0.002462,0.053627,2.29E-4,0.0,1.0,1264.983643,, takeoff
24.879581,-238.615906,-237.422455,2.600037,0.147291,2.600037,0.147291,-229.999863,-230.0,18.855759,0.011505,0.146579,297.859375,12.36511,-0.039433,-0.024516,-1673.662109,-0.002303,0.052901,3.36E-4,0.0,1.0,1493.414917,, takeoff
24.896652,-244.253006,-243.05957,2.592633,0.136038,2.592633,0.136038,-239.999863,-240.0,18.856491,0.022573,0.268973,297.857483,12.006461,-0.042172,-0.02251,-1674.196777,-0.002171,0.052197,4.12E-4,0.0,1.0,1638.426392,, takeoff
24.900209,-252.1409,-250.947449,2.602425,0.119696,2.602425,0.119696,-249.999863,-250.0,18.858278,0.048004,0.464356,297.851898,11.537542,-0.051165,-0.020572,-1674.644531,-0.001943,0.051853,5.45E-4,0.0,1.0,1809.563965,, takeoff
24.934816,-257.778259,-256.584808,2.615003,0.108513,2.615003,0.108513,-249.999863,-250.0,18.860153,0.074786,0.61338,297.844574,11.229033,-0.056329,-0.019848,-1674.99939,-0.001783,0.051956,6.99E-4,0.0,1.0,1908.625977,, takeoff
24.9841,-265.215973,-264.022522,2.632141,0.095354,2.632141,0.095354,-259.999847,-260.0,18.863483,0.12292,0.836397,297.829407,10.85873,-0.053663,-0.019864,-1675.244019,-0.00155,0.0523,0.00119,0.0,1.0,2012.322632,, takeoff
25.038296,-271.080597,-269.887177,2.644108,0.086439,2.644108,0.086439,-269.999847,-270.0,18.86685,0.1721,1.026722,297.812561,10.598424,-0.049531,-0.020601,-1675.534668,-0.001362,0.052643,0.001949,0.0,1.0,2075.242676,, takeoff
25.144825,-279.193939,-278.000519,2.657428,0.07635,2.657428,0.07635,-279.999847,-280.0,18.872694,0.257793,1.309362,297.783936,10.285984,-0.044464,-0.022256,-1675.610596,-0.001235,0.052882,0.002791,0.0,1.0,2140.244873,, takeoff
23.316568,-284.181305,-282.987854,2.66463,0.071004,2.66463,0.071004,-279.999847,-280.0,18.877401,0.326756,1.508094,297.761719,10.109489,-0.041774,-0.02368,-1659.261719,-0.001091,0.053149,0.004222,0.0,1.0,2172.216064,, takeoff
20.343649,-290.017181,-288.82373,2.672961,0.064799,2.672961,0.064799,-289.999847,-290.0,18.885748,0.448425,1.823593,297.726593,9.893091,-0.038582,-0.025782,-1575.195557,-0.001014,0.053293,0.005333,0.0,1.0,2207.334717,, takeoff
18.676083,-293.035828,-291.842377,2.677502,0.061637,2.677502,0.061637,-289.999847,-290.0,18.8922,0.541813,2.039375,297.702484,9.781026,-0.036935,-0.0271,-1490.189941,-9.26E-4,0.053459,0.007089,0.0,1.0,2224.07959,, takeoff
16.618753,-296.562927,-295.369476,2.682908,0.057989,2.682908,0.057989,-289.999847,-290.0,18.90325,0.700326,2.371455,297.668793,9.660545,-0.034931,-0.02839,-1331.709717,-8.81E-4,0.05355,0.008295,0.0,1.0,2241.765625,, takeoff
15.530212,-298.38623,-297.19278,2.686012,0.056117,2.686012,0.056117,-299.999847,-300.0,18.911549,0.818209,2.597319,297.64859,9.61124,-0.033816,-0.028775,-1210.598511,-8.28E-4,0.053658,0.009979,0.0,1.0,2249.762695,, takeoff
14.269217,-300.565216,-299.371765,2.690065,0.053802,2.690065,0.053802,-299.999847,-300.0,18.925823,1.018824,2.947721,297.624115,9.581999,-0.032238,-0.028215,-1006.93158,-8.02E-4,0.05372,0.010989,0.0,1.0,2257.746582,, takeoff
13.509151,-302.085083,-300.891632,2.693513,0.052044,2.693513,0.052044,-299.999847,-300.0,18.940994,1.229283,3.282381,297.6091,9.60398,-0.030569,-0.026481,-802.141235,-7.69E-4,0.053801,0.012213,0.0,1.0,2261.746094,, takeoff
13.198045,-302.925201,-301.73175,2.695813,0.050969,2.695813,0.050969,-299.999847,-300.0,18.952826,1.391653,3.52238,297.603577,9.647428,-0.029396,-0.024564,-652.737732,-7.43E-4,0.05387,0.012964,0.0,1.0,2263.072266,, takeoff
13.043439,-303.837311,-302.64386,2.698826,0.049636,2.698826,0.049636,-299.999847,-300.0,18.970785,1.635418,3.856738,297.60318,9.744309,-0.027553,-0.021051,-446.432068,-7.28E-4,0.053916,0.01324,0.0,1.0,2263.365479,, takeoff
13.103258,-304.339813,-303.146362,2.70526,0.047491,2.70526,0.047491,-299.999847,-300.0,18.984879,1.821001,4.253398,297.607117,9.837324,-0.02667,-0.018231,-308.744293,-7.09E-4,0.053977,0.01326,0.0,1.0,2262.733887,, takeoff
13.388176,-304.896027,-303.702576,2.716135,0.03567,2.716135,0.03567,-299.999847,-300.0,19.007059,2.104537,4.607619,297.617035,10.002774,-0.024971,-0.014194,-150.724655,-6.78E-4,0.054105,0.013063,0.0,1.0,2260.932617,, takeoff
13.681854,-305.179993,-303.986542,2.719843,0.033007,2.719843,0.033007,-299.999847,-300.0,19.023211,2.30396,4.960367,297.625427,10.131796,-0.022512,-0.011421,-93.826073,-5.1E-4,0.054323,0.012567,0.0,1.0,2259.292969,, takeoff
14.240175,-305.505829,-304.312378,2.721606,0.032741,2.721606,0.032741,-299.999847,-300.0,19.048918,2.618206,5.316095,297.637726,10.349753,-0.020293,-0.007742,-60.519508,-4.72E-4,0.054397,0.012148,0.0,1.0,2256.359375,, takeoff
14.654305,-305.66394,-304.47049,2.722988,0.032871,2.722988,0.032871,-299.999847,-300.0,19.066277,2.828209,5.544739,297.644623,10.50221,-0.019343,-0.005822,-48.02935,-4.68E-4,0.054432,0.011533,0.0,1.0,2254.263672,, takeoff
15.385964,-305.855255,-304.661804,2.725831,0.03352,2.725831,0.03352,-299.999847,-300.0,19.095739,3.180657,5.912794,297.65213,10.76491,-0.018529,-0.003662,-32.840282,-4.7E-4,0.05446,0.011188,0.0,1.0,2252.306396,, takeoff
15.851548,-305.939484,-304.746033,2.727824,0.034124,2.727824,0.034124,-299.999847,-300.0,19.114155,3.398532,6.131356,297.654175,10.929196,-0.018387,-0.002901,-25.942652,-4.79E-4,0.054517,0.010812,0.0,1.0,2252.136963,, takeoff
16.694275,-306.045105,-304.851654,2.731599,0.035366,2.731599,0.035366,-299.999847,-300.0,19.147539,3.789016,6.509225,297.653107,11.222738,-0.01877,-0.002465,-25.34573,-4.87E-4,0.054556,0.01071,0.0,1.0,2252.894287,, takeoff
17.245661,-306.090973,-304.897522,2.734245,0.036157,2.734245,0.036157,-299.999847,-300.0,19.169655,4.044643,6.750062,297.649719,11.412024,-0.019318,-0.002642,-18.397362,-5.05E-4,0.054632,0.010764,0.0,1.0,2253.810547,, takeoff
18.021688,-306.133514,-304.940094,2.738056,0.037177,2.738056,0.037177,-299.999847,-300.0,19.201365,4.407197,7.079061,297.6427,11.67372,-0.020402,-0.003213,-13.884243,-5.17E-4,0.054685,0.010933,0.0,1.0,2255.398926,, takeoff
18.933971,-306.159546,-304.966095,2.742854,0.038166,2.742854,0.038166,-299.999847,-300.0,19.239752,4.840127,7.457633,297.633026,11.972327,-0.021567,-0.004017,-19.707676,-5.31E-4,0.054761,0.011284,0.0,1.0,2257.506592,, takeoff
19.518198,-306.165985,-304.972534,2.746071,0.038635,2.746071,0.038635,-299.999847,-300.0,19.265028,5.121844,7.698135,297.627045,12.156912,-0.022239,-0.004433,-13.804184,-5.45E-4,0.054857,0.011768,0.0,1.0,2258.925293,, takeoff
20.400637,-306.164246,-304.970795,2.75098,0.039027,2.75098,0.039027,-299.999847,-300.0,19.304441,5.556116,8.057381,297.6203,12.424529,-0.022851,-0.004625,6.526437,-5.52E-4,0.054921,0.012067,0.0,1.0,2261.122559,, takeoff
20.99399,-306.156891,-304.96344,2.754459,0.039138,2.754459,0.039138,-299.999847,-300.0,19.331717,5.853243,8.297078,297.617859,12.594995,-0.022954,-0.004417,17.995592,-5.58E-4,0.05502,0.012404,0.0,1.0,2262.61377,, takeoff
21.911274,-306.137695,-304.944244,2.759895,0.039035,2.759895,0.039035,-299.999847,-300.0,19.375326,6.322916,8.664966,297.617981,12.842508,-0.022553,-0.003527,20.705244,-5.59E-4,0.055089,0.012526,0.0,1.0,2264.933594,, takeoff
22.50935,-306.121124,-304.927673,2.749708,0.038968,2.749708,0.038968,-299.999847,-300.0,19.404154,6.634915,8.664899,297.620514,12.991752,-0.022019,-0.002634,21.343014,-5.58E-4,0.055198,0.01252,0.0,1.0,2266.444824,, takeoff
23.412996,-306.091949,-304.898499,2.738476,0.038748,2.738476,0.038748,-299.999847,-300.0,19.443535,7.113505,8.016549,297.627655,13.196901,-0.020688,-9.42E-4,19.206591,-5.57E-4,0.054994,0.012393,0.0,1.0,2268.717285,, takeoff
24.016113,-306.070435,-304.876984,2.743423,0.038614,2.743423,0.038614,-299.999847,-300.0,19.470644,7.439466,8.238628,297.633453,13.320245,-0.019774,1.97E-4,20.392256,-5.54E-4,0.05477,0.012036,0.0,1.0,2270.234131,, takeoff
24.921179,-306.0354,-304.841949,2.751607,0.038707,2.751607,0.038707,-299.999847,-300.0,19.512661,7.93847,8.557779,297.641357,13.483928,-0.018595,0.001571,12.39564,-5.52E-4,0.054868,0.011746,0.0,1.0,2272.509766,, takeoff
25.448647,-306.01358,-304.820129,2.764376,0.035889,2.764376,0.035889,-299.999847,-300.0,19.538525,8.234999,9.442444,297.644806,13.567177,-0.018568,0.002008,21.200924,-5.53E-4,0.055032,0.011351,0.0,1.0,2273.837158,, takeoff
26.426857,-305.970123,-304.776672,2.775288,0.034653,2.775288,0.034653,-299.999847,-300.0,19.589905,8.796011,9.654541,297.647675,13.697353,-0.017865,0.002299,15.928159,-5.13E-4,0.055288,0.011179,0.0,1.0,2276.30127,, takeoff
27.028708,-305.94165,-304.748199,2.778553,0.03535,2.778553,0.03535,-299.999847,-300.0,19.622452,9.147747,9.867509,297.647034,13.761515,-0.018007,0.0021,18.687244,-4.95E-4,0.055506,0.011035,0.0,1.0,2277.817139,, takeoff
27.931646,-305.896637,-304.703217,2.781135,0.036734,2.781135,0.036734,-299.999847,-300.0,19.672464,9.684362,9.986856,297.6427,13.834879,-0.018949,0.001326,13.744292,-5.05E-4,0.055571,0.011067,0.0,1.0,2280.09082,, takeoff
28.535482,-305.865509,-304.672058,2.764485,0.037781,2.764485,0.037781,-299.999847,-300.0,19.70376,10.047976,9.129156,297.638367,13.868615,-0.019841,6.58E-4,14.120107,-5.25E-4,0.055623,0.011284,0.0,1.0,2281.607422,, takeoff
29.441643,-305.818207,-304.624756,2.769158,0.038994,2.769158,0.038994,-299.999847,-300.0,19.750299,10.601985,9.468304,297.630981,13.896817,-0.021342,-3.69E-4,14.450288,-5.4E-4,0.05529,0.011501,0.0,1.0,2283.884521,, takeoff
30.020052,-305.787506,-304.594055,2.774796,0.039679,2.774796,0.039679,-299.999847,-300.0,19.780878,10.961193,9.667639,297.626007,13.901141,-0.022308,-9.8E-4,19.843327,-5.57E-4,0.055383,0.01187,0.0,1.0,2285.34082,, takeoff
30.923641,-305.738586,-304.545135,2.782608,0.040473,2.782608,0.040473,-299.999847,-300.0,19.829981,11.531421,9.965755,297.619507,13.887439,-0.023425,-0.001622,20.351103,-5.67E-4,0.055496,0.012119,0.0,1.0,2287.621826,, takeoff
31.824461,-305.688293,-304.494843,2.802274,0.033651,2.802274,0.033651,-299.999847,-300.0,19.882931,12.111098,11.024263,297.615448,13.850276,-0.024168,-0.001961,21.059568,-5.78E-4,0.055652,0.012444,0.0,1.0,2289.904785,, takeoff
32.448887,-305.652191,-304.45874,2.807879,0.033374,2.807879,0.033374,-299.999847,-300.0,19.92157,12.51903,11.224637,297.614777,13.811858,-0.023726,-0.001724,16.525911,-4.81E-4,0.056045,0.012647,0.0,1.0,2291.490723,, takeoff
33.322067,-305.599945,-304.406494,2.813035,0.033214,2.813035,0.033214,-299.999847,-300.0,19.976862,13.097312,11.518464,297.617004,13.742421,-0.022643,-9.25E-4,22.472967,-4.77E-4,0.056158,0.01268,0.0,1.0,2293.712402,, takeoff
33.946129,-305.561584,-304.368134,2.80111,0.035696,2.80111,0.035696,-299.999847,-300.0,20.015581,13.515366,10.165894,297.620697,13.682788,-0.020974,-2.1E-5,17.824661,-4.74E-4,0.056261,0.012569,0.0,1.0,2295.300293,, takeoff
34.822308,-305.507629,-304.314209,2.798517,0.036534,2.798517,0.036534,-299.999847,-300.0,20.065668,14.107468,10.449238,297.627899,13.587047,-0.019608,0.001311,22.87442,-5.1E-4,0.056022,0.012384,0.0,1.0,2297.526367,, takeoff
35.446812,-305.469086,-304.275665,2.80417,0.036566,2.80417,0.036566,-299.999847,-300.0,20.10232,14.535144,10.651855,297.633331,13.511142,-0.018584,0.002176,17.82309,-5.22E-4,0.05597,0.012024,0.0,1.0,2299.118408,, takeoff
36.318516,-305.414703,-304.221252,2.823038,0.03,2.823038,0.03,-299.999847,-300.0,20.156517,15.14032,11.785998,297.639221,13.396409,-0.017752,0.002792,23.251925,-5.22E-4,0.056083,0.011752,0.0,1.0,2301.349365,, takeoff
36.914352,-305.376648,-304.183197,2.830573,0.029713,2.830573,0.029713,-299.999847,-300.0,20.196119,15.559498,11.964265,297.641541,13.31334,-0.016949,0.003002,23.687183,-4.29E-4,0.056461,0.011458,0.0,1.0,2302.879883,, takeoff
37.807308,-305.318115,-304.124664,2.836309,0.030652,2.836309,0.030652,-299.999847,-300.0,20.256653,16.194466,12.241545,297.641632,13.184134,-0.016698,0.002769,23.881502,-4.24E-4,0.056611,0.011342,0.0,1.0,2305.176514,, takeoff
38.400665,-305.278107,-304.084656,2.840358,0.031584,2.840358,0.031584,-299.999847,-300.0,20.297791,16.621792,12.433176,297.639404,13.096049,-0.017119,0.002283,18.427244,-4.38E-4,0.056726,0.011337,0.0,1.0,2306.708008,, takeoff
39.316681,-305.215302,-304.021851,2.832184,0.033399,2.832184,0.033399,-299.999847,-300.0,20.35957,17.286678,11.526639,297.633301,12.959104,-0.018471,0.001225,19.27883,-4.51E-4,0.056807,0.011449,0.0,1.0,2309.070557,, takeoff
39.910862,-305.174408,-303.980957,2.83485,0.034459,2.83485,0.034459,-299.999847,-300.0,20.398357,17.721811,11.734315,297.628296,12.870517,-0.019645,4.66E-4,17.703157,-4.77E-4,0.056644,0.011754,0.0,1.0,2310.604492,, takeoff
40.800133,-305.112793,-303.919342,2.842857,0.035927,2.842857,0.035927,-299.999847,-300.0,20.457743,18.380003,12.024526,297.620667,12.7396,-0.021495,-5.52E-4,23.440912,-4.92E-4,0.056697,0.012004,0.0,1.0,2312.906494,, takeoff
41.662518,-305.052399,-303.858948,2.850589,0.03701,2.850589,0.03701,-299.999847,-300.0,20.516846,19.026012,12.283149,297.614471,12.616311,-0.023043,-0.001208,18.030338,-5.13E-4,0.056857,0.012386,0.0,1.0,2315.145996,, takeoff
42.252857,-305.010529,-303.817078,2.855519,0.037562,2.855519,0.037562,-299.999847,-300.0,20.5581,19.472349,12.460745,297.611725,12.534975,-0.023732,-0.001372,22.079233,-5.29E-4,0.057012,0.012695,0.0,1.0,2316.682129,, takeoff
43.136902,-304.947052,-303.753601,2.852715,0.035283,2.852715,0.035283,-299.999847,-300.0,20.619421,20.146797,11.74192,297.610687,12.419184,-0.024151,-0.001159,18.191957,-5.37E-4,0.05711,0.012833,0.0,1.0,2318.986816,, takeoff
43.75071,-304.902924,-303.709473,2.855119,0.03531,2.855119,0.03531,-299.999847,-300.0,20.660545,20.618563,11.937504,297.612488,12.343946,-0.023691,-6.03E-4,18.167189,-5.04E-4,0.057054,0.012885,0.0,1.0,2320.730713,, takeoff
44.608089,-304.841187,-303.647736,2.862568,0.035476,2.862568,0.035476,-299.999847,-300.0,20.719208,21.283537,12.188926,297.617371,12.246833,-0.022362,4.48E-4,18.134287,-5.04E-4,0.057102,0.012795,0.0,1.0,2324.38916,, takeoff
45.145821,-304.802185,-303.608734,2.867324,0.035624,2.867324,0.035624,-299.999847,-300.0,20.756695,21.704132,12.341534,297.621307,12.191196,-0.021207,0.001163,19.465904,-5.07E-4,0.057251,0.01255,0.0,1.0,2327.217773,, takeoff
46.075184,-304.734497,-303.541046,2.859104,0.032703,2.859104,0.032703,-299.999847,-300.0,20.820864,22.435217,10.173301,297.627838,12.105794,-0.019836,0.002122,18.338442,-5.09E-4,0.057346,0.012354,0.0,1.0,2332.678223,, takeoff
46.665749,-304.692413,-303.498962,2.847811,0.03266,2.847811,0.03266,-299.999847,-300.0,20.853592,22.899923,9.895217,297.631714,12.059221,-0.018573,0.002659,21.934027,-4.67E-4,0.057182,0.012027,0.0,1.0,2336.369141,, takeoff
47.501736,-304.634796,-303.441345,2.854278,0.033463,2.854278,0.033463,-299.999847,-300.0,20.900898,23.562099,10.127747,297.634796,12.003362,-0.017353,0.002951,15.466219,-4.67E-4,0.056956,0.011833,0.0,1.0,2341.79248,, takeoff
48.140312,-304.591797,-303.398346,2.860864,0.034323,2.860864,0.034323,-299.999847,-300.0,20.937763,24.07144,10.281561,297.634521,11.968801,-0.017071,0.002735,18.862631,-4.78E-4,0.057086,0.011679,0.0,1.0,2346.038086,, takeoff
49.048767,-304.531616,-303.338196,2.868776,0.035916,2.868776,0.035916,-299.999847,-300.0,20.991144,24.800585,10.487093,297.630127,11.931832,-0.017591,0.001855,16.833845,-4.9E-4,0.057217,0.011693,0.0,1.0,2352.169434,, takeoff
49.613323,-304.494568,-303.301117,2.873377,0.037042,2.873377,0.037042,-299.999847,-300.0,21.024853,25.25633,10.612335,297.625427,11.915976,-0.018497,0.001071,23.855486,-5.13E-4,0.057376,0.011913,0.0,1.0,2356.015869,, takeoff
50.521004,-304.43512,-303.241669,2.880379,0.038873,2.880379,0.038873,-299.999847,-300.0,21.079918,25.993389,10.814886,297.616333,11.901547,-0.020431,-2.59E-4,18.787655,-5.29E-4,0.057468,0.012148,0.0,1.0,2362.240479,, takeoff
51.109722,-304.396515,-303.203094,2.885081,0.040012,2.885081,0.040012,-299.999847,-300.0,21.116192,26.473991,10.944114,297.610291,11.899197,-0.021885,-0.001032,18.799267,-5.55E-4,0.057608,0.012602,0.0,1.0,2366.295654,, takeoff
51.96804,-304.340088,-303.146637,2.891691,0.04138,2.891691,0.04138,-299.999847,-300.0,21.169874,27.178318,11.136683,297.603241,11.905081,-0.023835,-0.001744,16.823353,-5.72E-4,0.057702,0.012904,0.0,1.0,2372.228516,, takeoff
52.580837,-304.29953,-303.106079,2.898563,0.033166,2.898563,0.033166,-299.999847,-300.0,21.209713,27.683847,11.835914,297.599915,11.915647,-0.025453,-0.002186,18.831196,-5.91E-4,0.057834,0.013257,0.0,1.0,2376.477539,, takeoff
53.437481,-304.241638,-303.048187,2.913182,0.023379,2.913182,0.023379,-299.999847,-300.0,21.269388,28.394899,12.441791,297.598724,11.93897,-0.025523,-0.002029,22.849106,-4.74E-4,0.057971,0.013423,0.0,1.0,2382.437988,, takeoff
54.317871,-304.180328,-302.986877,2.919637,0.023704,2.919637,0.023704,-299.999847,-300.0,21.332106,29.130177,12.639719,297.601349,11.972753,-0.024592,-0.001108,18.890884,-3.34E-4,0.058264,0.013483,0.0,1.0,2388.582031,, takeoff
54.90559,-304.138611,-302.94516,2.923605,0.023938,2.923605,0.023938,-299.999847,-300.0,21.374475,29.622503,12.776718,297.604614,12.000294,-0.023543,-3.4E-4,21.961992,-3.39E-4,0.058393,0.013351,0.0,1.0,2392.685791,, takeoff
55.786106,-304.074799,-302.881348,2.929776,0.024338,2.929776,0.024338,-299.999847,-300.0,21.438896,30.364122,12.983992,297.610199,12.048329,-0.021626,7.72E-4,18.450558,-3.42E-4,0.058472,0.013188,0.0,1.0,2398.853271,, takeoff
56.373421,-304.031525,-302.838074,2.934188,0.024679,2.934188,0.024679,-299.999847,-300.0,21.482426,30.860565,13.126082,297.613525,12.084338,-0.020316,0.00136,22.820637,-3.48E-4,0.058596,0.012909,0.0,1.0,2402.9729,, takeoff
57.229313,-303.967316,-302.773895,2.940392,0.025412,2.940392,0.025412,-299.999847,-300.0,21.546743,31.587378,13.329605,297.616425,12.141705,-0.018667,0.001797,20.170265,-3.53E-4,0.058684,0.012743,0.0,1.0,2408.991455,, takeoff
57.86517,-303.918884,-302.725433,2.945063,0.026108,2.945063,0.026108,-299.999847,-300.0,21.595165,32.129414,13.481309,297.616516,12.187417,-0.017928,0.001757,16.389593,-3.63E-4,0.058808,0.012598,0.0,1.0,2413.470703,, takeoff
58.720982,-303.852722,-302.659271,2.94467,0.02735,2.94467,0.02735,-299.999847,-300.0,21.66073,32.861839,12.921255,297.613586,12.252104,-0.017593,0.001247,19.26396,-3.73E-4,0.058901,0.012593,0.0,1.0,2419.511475,, takeoff
59.312695,-303.807861,-302.61441,2.914684,0.028579,2.914684,0.028579,-299.999847,-300.0,21.692335,33.365902,9.167386,297.610382,12.297887,-0.017487,7.7E-4,24.348476,-3.91E-4,0.058893,0.01274,0.0,1.0,2423.664063,, takeoff
60.224209,-303.742615,-302.549164,2.920866,0.029735,2.920866,0.029735,-299.999847,-300.0,21.74015,34.145859,9.4241,297.604309,12.369466,-0.018238,-6.8E-5,24.150967,-4.08E-4,0.058294,0.0129,0.0,1.0,2430.087891,, takeoff
60.789783,-303.703857,-302.510406,2.927577,0.030522,2.927577,0.030522,-299.999847,-300.0,21.77047,34.632397,9.548538,297.600037,12.413989,-0.01895,-6.01E-4,24.030867,-4.25E-4,0.058417,0.013203,0.0,1.0,2434.090576,, takeoff
61.698341,-303.643433,-302.449982,2.938613,0.027433,2.938613,0.027433,-299.999847,-300.0,21.820593,35.417728,10.255104,297.593811,12.484661,-0.020586,-0.001386,23.879658,-4.36E-4,0.058552,0.013417,0.0,1.0,2440.589844,, takeoff
62.555298,-303.587097,-302.393646,2.94996,0.024232,2.94996,0.024232,-299.999847,-300.0,21.872677,36.16349,10.796501,297.589874,12.549551,-0.020897,-0.001635,18.81884,-3.92E-4,0.058772,0.013728,0.0,1.0,2446.838135,, takeoff
63.142994,-303.548462,-302.355011,2.953893,0.025021,2.953893,0.025021,-299.999847,-300.0,21.908834,36.676434,10.89441,297.588806,12.592498,-0.021228,-0.001486,18.720388,-3.46E-4,0.058999,0.013925,0.0,1.0,2451.158203,, takeoff
64.02317,-303.490326,-302.296875,2.959109,0.026112,2.959109,0.026112,-299.999847,-300.0,21.963696,37.448154,11.047354,297.589691,12.653865,-0.021273,-9.0E-4,15.264533,-3.57E-4,0.059078,0.013979,0.0,1.0,2457.675049,, fly_strait
64.610573,-303.451416,-302.257965,2.93927,0.027111,2.93927,0.027111,-299.999847,-300.0,21.9974,37.964134,6.612778,297.5896,12.692386,-0.021167,-8.17E-4,23.552696,-3.73E-4,0.059182,0.0,0.0,1.0,2462.037598,, fly_strait
65.498444,-303.396729,-302.203278,2.925489,0.030678,2.925489,0.030678,-299.999847,-300.0,22.028473,38.740379,6.327157,297.544342,12.745743,-0.02358,-0.008039,21.612936,-3.87E-4,0.058785,5.0E-6,0.0,1.0,2468.611572,, fly_strait
66.11232,-303.361725,-302.168274,2.932427,0.030842,2.932427,0.030842,-299.999847,-300.0,22.050705,39.280983,6.466434,297.480652,12.77887,-0.027629,-0.017463,15.151932,-4.38E-4,0.05851,0.002267,0.0,1.0,2473.19165,, fly_strait
66.968651,-303.315765,-302.122314,2.941663,0.028833,2.941663,0.028833,-299.999847,-300.0,22.082523,40.039845,6.610903,297.370514,12.818352,-0.037227,-0.032163,18.999683,-4.41E-4,0.058649,0.005452,0.0,1.0,2479.613037,, fly_strait
67.505051,-303.288147,-302.094696,2.94641,0.027084,2.94641,0.027084,-299.999847,-300.0,22.10285,40.517982,6.688915,297.301056,12.838274,-0.0449,-0.040273,19.172155,-4.12E-4,0.058833,0.010959,0.0,1.0,2483.651611,, fly_strait
68.429398,-303.242676,-302.049225,2.950059,0.014473,2.950059,0.014473,-299.999847,-300.0,22.139177,41.345806,7.333882,297.211578,12.862465,-0.056198,-0.047844,20.447578,-3.87E-4,0.058928,0.014432,0.0,1.0,2490.629395,, fly_strait
69.037521,-303.21286,-302.019409,2.928821,-0.043494,2.928821,-0.043494,-299.999847,-300.0,22.166304,41.891705,8.244473,297.184998,12.871051,-0.062519,-0.048284,18.500221,-2.07E-4,0.059001,0.018906,0.0,1.0,2495.222656,, fly_strait
69.916031,-303.16925,-301.9758,2.860739,-0.219138,2.860739,-0.219138,-299.999847,-300.0,22.210533,42.679512,9.703562,297.205933,12.875019,-0.065995,-0.041617,13.564191,6.21E-4,0.058576,0.020235,0.0,1.0,2501.85498,, fly_strait
70.478737,-303.14035,-301.94693,2.806363,-0.352361,2.806363,-0.352361,-299.999847,-300.0,22.24205,43.183884,9.87285,297.253418,12.874671,-0.063379,-0.033023,19.046352,0.003131,0.057215,0.019188,0.0,1.0,2506.107178,, fly_strait
71.386955,-303.091949,-301.898529,2.726867,-0.554936,2.726867,-0.554936,-299.999847,-300.0,22.292223,43.997025,9.658878,297.358856,12.874812,-0.052496,-0.016303,14.517474,0.005034,0.056127,0.016814,0.0,1.0,2512.977539,, fly_strait
71.953171,-303.061066,-301.867645,2.686092,-0.666804,2.686092,-0.666804,-299.999847,-300.0,22.323034,44.503609,9.590312,297.423218,12.878157,-0.042159,-0.007245,20.030954,0.007928,0.054537,0.011542,0.0,1.0,2517.267822, set /instrumentation/magnetic-compass/serviceable false, fly_strait
72.836243,-303.011841,-301.81839,2.638901,-0.819991,2.638901,-0.819991,-299.999847,-300.0,22.37101,45.29821,9.67556,297.479828,12.878157,-0.025359,-0.001504,20.386127,0.009526,0.053722,0.008324,0.0,1.0,2524.002441, set /instrumentation/magnetic-compass/serviceable false, fly_strait
73.74205,-302.960236,-301.766785,2.583464,-0.989503,2.583464,-0.989503,-299.999847,-300.0,22.42174,46.116898,10.042242,297.450958,12.878157,-0.011482,-0.010447,15.726065,0.011714,0.052778,0.005493,0.0,1.0,2530.936279, set /instrumentation/magnetic-compass/serviceable false, fly_strait
74.330208,-302.926117,-301.732697,2.539334,-1.116558,2.539334,-1.116558,-299.999847,-300.0,22.455654,46.648987,10.258291,297.380951,12.878157,-0.005345,-0.023974,16.113241,0.014136,0.051669,0.006937,0.0,1.0,2535.442139, set /instrumentation/magnetic-compass/serviceable false, fly_strait
75.208946,-302.874817,-301.681366,2.492613,-1.382427,2.492613,-1.382427,-299.999847,-300.0,22.499943,47.448654,7.057208,297.219147,12.878157,-0.004371,-0.052458,15.568672,0.015951,0.050787,0.010437,0.0,1.0,2542.20874, set /instrumentation/magnetic-compass/serviceable false, fly_strait
75.721191,-302.846375,-301.652924,2.502044,-1.621948,2.502044,-1.621948,-299.999847,-300.0,22.522852,47.915993,9.101841,297.107269,12.878157,-0.004975,-0.071588,19.868414,0.019749,0.049852,0.018527,0.0,1.0,2546.156494, set /instrumentation/magnetic-compass/serviceable false, fly_strait
76.636475,-302.793335,-301.599884,2.582652,-2.069099,2.582652,-2.069099,-299.999847,-300.0,22.602066,48.763126,22.615524,296.917755,12.878157,-0.006955,-0.100272,22.224455,0.023171,0.050041,0.024121,0.0,1.0,2553.295898, set /instrumentation/magnetic-compass/serviceable false, fly_strait
77.153725,-302.755127,-301.561676,2.660081,-2.313061,2.660081,-2.313061,-299.999847,-300.0,22.691006,49.254276,35.58493,296.827118,12.878157,-0.007984,-0.111354,19.768074,0.029559,0.051653,0.033597,0.0,1.0,2557.415283, set /instrumentation/magnetic-compass/serviceable false, fly_strait
78.017708,-302.657654,-301.464203,2.818293,-2.627547,2.818293,-2.627547,-299.999847,-300.0,22.953173,50.103329,63.980377,296.723572,12.878157,-0.008146,-0.117274,23.836649,0.033044,0.053202,0.038129,0.0,1.0,2564.471191, set /instrumentation/magnetic-compass/serviceable false, fly_strait
78.496796,-302.572113,-301.378693,2.929274,-2.738402,2.929274,-2.738402,-299.999847,-300.0,23.178175,50.594986,82.766212,296.689026,12.878157,-0.006273,-0.114726,32.060295,0.037536,0.056366,0.043306,0.0,1.0,2568.502686, set /instrumentation/magnetic-compass/serviceable false, fly_strait
79.306725,-302.34787,-301.154419,3.119607,-2.781442,3.119607,-2.781442,-299.999847,-300.0,23.724184,51.465973,117.958313,296.653625,12.878157,-5.96E-4,-0.103354,50.508102,0.03912,0.058585,0.045033,0.0,1.0,2575.511719, set /instrumentation/magnetic-compass/serviceable false, fly_strait
79.758553,-302.162018,-300.968567,3.240017,-2.727427,3.240017,-2.727427,-299.999847,-300.0,24.135603,51.978832,138.829208,296.630676,12.878157,0.004702,-0.096161,63.188248,0.039735,0.062392,0.046803,0.0,1.0,2579.540283, set /instrumentation/magnetic-compass/serviceable false, fly_strait
80.447784,-301.765411,-300.57196,3.406871,-2.553264,3.406871,-2.553264,-299.999847,-300.0,24.935287,52.801773,170.958527,296.568024,12.878157,0.013408,-0.088125,86.435173,0.038963,0.0648,0.047951,0.0,1.0,2585.827881, set /instrumentation/magnetic-compass/serviceable false, fly_strait
81.080925,-301.254486,-300.061035,3.554876,-2.332978,3.554876,-2.332978,-299.999847,-300.0,25.865213,53.599102,200.255524,296.465149,12.878157,0.020679,-0.08681,110.554924,0.036475,0.068137,0.051083,0.0,1.0,2591.669434, set /instrumentation/magnetic-compass/serviceable false, fly_strait
81.485176,-300.842163,-299.648712,3.646729,-2.186913,3.646729,-2.186913,-299.999847,-300.0,26.566139,54.128376,219.49971,296.379272,12.878157,0.023859,-0.088694,127.176338,0.033328,0.071098,0.056227,0.0,1.0,2594.976807, set /instrumentation/magnetic-compass/serviceable false, fly_strait
82.066383,-300.112457,-298.919037,3.767577,-2.005357,3.767577,-2.005357,-299.999847,-300.0,27.735006,54.918278,246.940521,296.25412,12.878157,0.026411,-0.091176,152.663208,0.031242,0.072935,0.060521,0.0,1.0,2598.996826, set /instrumentation/magnetic-compass/serviceable false, fly_strait
82.437378,-299.551727,-298.358276,3.857166,-1.900173,3.857166,-1.900173,-299.999847,-300.0,28.588812,55.441902,264.666595,296.185608,12.878157,0.027308,-0.090519,169.715225,0.028648,0.075352,0.066779,0.0,1.0,2601.239502, set /instrumentation/magnetic-compass/serviceable false, fly_strait
82.925301,-298.682861,-297.48941,3.972452,-1.774338,3.972452,-1.774338,-299.999847,-300.0,29.858658,56.157547,288.485901,296.131409,12.878157,0.028902,-0.083695,193.286896,0.027145,0.077143,0.070204,0.0,1.0,2603.934082, set /instrumentation/magnetic-compass/serviceable false, fly_strait
83.305519,-297.888977,-296.695526,4.072462,-1.663318,4.072462,-1.663318,-299.999847,-300.0,30.97699,56.738983,307.565491,296.122437,12.878157,0.03144,-0.073064,212.384293,0.025348,0.079449,0.072914,0.0,1.0,2605.89502, set /instrumentation/magnetic-compass/serviceable false, fly_strait
83.785889,-296.713623,-295.520203,4.199413,-1.492389,4.199413,-1.492389,-299.999847,-300.0,32.588318,57.507919,336.681152,296.1474,12.878157,0.037242,-0.054497,237.890839,0.023762,0.081449,0.073363,0.0,1.0,2608.265137, set /instrumentation/magnetic-compass/serviceable false, fly_strait
84.087494,-295.855133,-294.661682,4.297732,-1.357814,4.297732,-1.357814,-299.999847,-300.0,33.746841,58.016197,357.898468,296.173492,12.878157,0.042648,-0.041801,255.028931,0.02132,0.083988,0.072115,0.0,1.0,2609.726807, set /instrumentation/magnetic-compass/serviceable false, fly_strait
84.512642,-294.449554,-293.256104,4.447531,-1.143111,4.447531,-1.143111,-289.999847,-290.0,35.618172,58.771553,388.570862,296.199738,12.878157,0.051998,-0.026958,281.628113,0.019397,0.085955,0.07081,0.0,1.0,2611.779541, set /instrumentation/magnetic-compass/serviceable false, fly_strait
84.777092,-293.4328,-292.239349,4.543624,-0.995663,4.543624,-0.995663,-289.999847,-290.0,36.943424,59.270157,405.552277,296.199371,12.878157,0.057931,-0.021026,299.706329,0.01633,0.088951,0.069498,0.0,1.0,2613.069092, set /instrumentation/magnetic-compass/serviceable false, fly_strait
85.162231,-291.790375,-290.596924,4.627808,-0.803839,4.627808,-0.803839,-289.999847,-290.0,39.026726,60.010288,426.669586,296.170746,12.878157,0.064934,-0.018212,326.565002,0.014224,0.090872,0.069516,0.0,1.0,2614.906006, set /instrumentation/magnetic-compass/serviceable false, fly_strait
85.412338,-290.621918,-289.428497,4.670139,-0.700801,4.670139,-0.700801,-289.999847,-290.0,40.471294,60.498413,439.462219,296.139923,12.878157,0.067677,-0.018885,343.778564,0.011483,0.092556,0.070947,0.0,1.0,2616.077393, set /instrumentation/magnetic-compass/serviceable false, fly_strait
85.766129,-288.817688,-287.624237,4.735322,-0.602163,4.735322,-0.602163,-289.999847,-290.0,42.652065,61.202541,457.172485,296.098389,12.878157,0.069325,-0.020216,367.901154,0.010011,0.093403,0.072488,0.0,1.0,2617.7229, set /instrumentation/magnetic-compass/serviceable false, fly_strait
86.12973,-286.848694,-285.655273,4.822536,-0.54309,4.822536,-0.54309,-289.999847,-290.0,44.985584,61.917084,475.944641,296.080536,12.878157,0.06957,-0.018313,390.888458,0.008602,0.094706,0.074565,0.0,1.0,2619.346924, set /instrumentation/magnetic-compass/serviceable false, fly_strait
86.354889,-285.412567,-284.219116,4.888383,-0.513832,4.888383,-0.513832,-279.999847,-280.0,46.663139,62.407383,489.957367,296.090118,12.878157,0.069891,-0.013927,406.717621,0.007758,0.096451,0.075458,0.0,1.0,2620.437012, set /instrumentation/magnetic-compass/serviceable false, fly_strait
86.668823,-283.315399,-282.121979,4.970834,-0.470403,4.970834,-0.470403,-279.999847,-280.0,49.095268,63.085491,510.058655,296.131226,12.878157,0.071811,-0.004176,427.878143,0.00734,0.097768,0.074979,0.0,1.0,2621.914063, set /instrumentation/magnetic-compass/serviceable false, fly_strait
86.886795,-281.75589,-280.562439,5.034198,-0.426614,5.034198,-0.426614,-279.999847,-280.0,50.891891,63.563831,524.298096,296.171661,12.878157,0.074306,0.003882,442.585632,0.00672,0.099417,0.072923,0.0,1.0,2622.935791, set /instrumentation/magnetic-compass/serviceable false, fly_strait
87.16037,-279.617004,-278.423553,5.111902,-0.352538,5.111902,-0.352538,-279.999847,-280.0,53.339378,64.187447,543.103027,296.220001,12.878157,0.079228,0.012698,461.949097,0.006094,0.100684,0.070901,0.0,1.0,2624.243652, set /instrumentation/magnetic-compass/serviceable false, fly_strait
87.377235,-277.801544,-276.608124,5.178257,-0.284945,5.178257,-0.284945,-279.999847,-280.0,55.405811,64.69101,558.516968,296.24469,12.878157,0.082387,0.01679,477.516693,0.005036,0.102238,0.068485,0.0,1.0,2625.281982, set /instrumentation/magnetic-compass/serviceable false, fly_strait
87.655464,-275.287811,-274.09436,5.257987,-0.208663,5.257987,-0.208663,-269.999847,-270.0,58.250969,65.353027,578.770325,296.248505,12.878157,0.085803,0.016655,498.188293,0.004071,0.103565,0.06725,0.0,1.0,2626.625244, set /instrumentation/magnetic-compass/serviceable false, fly_strait
87.921318,-272.746094,-271.552673,5.337016,-0.166131,5.337016,-0.166131,-269.999847,-270.0,61.112179,65.986328,597.919006,296.22876,12.878157,0.086428,0.012318,517.811523,0.002981,0.10516,0.067059,0.0,1.0,2627.891113, set /instrumentation/magnetic-compass/serviceable false, fly_strait
88.088585,-270.942963,-269.749512,5.392852,-0.159519,5.392852,-0.159519,-269.999847,-270.0,63.128052,66.414711,611.12677,296.21228,12.878157,0.085438,0.008817,531.660767,0.002373,0.10674,0.068047,0.0,1.0,2628.738281, set /instrumentation/magnetic-compass/serviceable false, fly_strait
88.265038,-269.019409,-267.825989,5.446546,-0.170153,5.446546,-0.170153,-269.999847,-270.0,65.274857,66.85585,624.847595,296.202301,12.878157,0.083645,0.006357,545.597656,0.002279,0.107857,0.068871,0.0,1.0,2629.60376, set /instrumentation/magnetic-compass/serviceable false, fly_strait
88.508873,-266.16217,-264.968719,5.522189,-0.19935,5.522189,-0.19935,-269.999847,-270.0,68.448517,67.481972,643.989197,296.212646,12.878157,0.081025,0.006886,565.619385,0.002431,0.108931,0.06937,0.0,1.0,2630.819824, set /instrumentation/magnetic-compass/serviceable false, fly_strait
88.746819,-263.290741,-262.09729,5.605176,-0.219471,5.605176,-0.219471,-259.999847,-260.0,71.625618,68.080368,662.722717,296.250854,12.878157,0.079942,0.01184,584.575256,0.002848,0.110444,0.068852,0.0,1.0,2631.967041, set /instrumentation/magnetic-compass/serviceable false, fly_strait
88.877464,-261.263031,-260.06958,5.664011,-0.219363,5.664011,-0.219363,-259.999847,-260.0,73.857216,68.484772,675.773987,296.286377,12.878157,0.080334,0.016551,597.994141,0.003135,0.112104,0.066942,0.0,1.0,2632.73291, set /instrumentation/magnetic-compass/serviceable false, fly_strait
89.086914,-258.142456,-256.949036,5.739706,-0.194584,5.739706,-0.194584,-259.999847,-260.0,77.286011,69.082283,695.013306,296.335358,12.878157,0.082455,0.022492,617.565613,0.003134,0.11328,0.065166,0.0,1.0,2633.848633, set /instrumentation/magnetic-compass/serviceable false, fly_strait
89.228363,-255.918671,-254.72522,5.793812,-0.16707,5.793812,-0.16707,-259.999847,-260.0,79.72245,69.490791,707.887634,296.357605,12.878157,0.084022,0.024422,630.933594,0.00278,0.114794,0.062717,0.0,1.0,2634.60083, set /instrumentation/magnetic-compass/serviceable false, fly_strait
89.41552,-252.724609,-251.531158,5.859895,-0.132258,5.859895,-0.132258,-249.999863,-250.0,83.207611,70.053848,725.290161,296.364258,12.878157,0.085519,0.022838,649.710327,0.002387,0.115876,0.061604,0.0,1.0,2635.625, set /instrumentation/magnetic-compass/serviceable false, fly_strait
89.545555,-250.389084,-249.195633,5.910316,-0.119193,5.910316,-0.119193,-249.999863,-250.0,85.747475,70.449745,737.231567,296.354828,12.878157,0.085274,0.0194,662.865601,0.001889,0.117198,0.061272,0.0,1.0,2636.337646, set /instrumentation/magnetic-compass/serviceable false, fly_strait
89.726524,-246.945099,-245.751648,5.975269,-0.127757,5.975269,-0.127757,-249.999863,-250.0,89.477127,71.010689,753.986755,296.334991,12.878157,0.083094,0.013585,681.684875,0.001703,0.118206,0.061743,0.0,1.0,2637.338379, set /instrumentation/magnetic-compass/serviceable false, fly_strait
89.843033,-244.599197,-243.405746,6.019952,-0.148262,6.019952,-0.148262,-239.999863,-240.0,92.009064,71.3787,764.743896,296.327148,12.878157,0.080905,0.010777,693.938782,0.001825,0.119505,0.062735,0.0,1.0,2637.989746, set /instrumentation/magnetic-compass/serviceable false, fly_strait
90.004768,-241.106476,-239.91304,6.077863,-0.185711,6.077863,-0.185711,-239.999863,-240.0,95.764809,71.906914,779.866333,296.335327,12.878157,0.077695,0.010146,711.549988,0.002118,0.120399,0.063127,0.0,1.0,2638.917969, set /instrumentation/magnetic-compass/serviceable false, fly_strait
90.183304,-237.431732,-236.238281,6.142807,-0.214534,6.142807,-0.214534,-239.999863,-240.0,99.702873,72.439819,794.966248,296.368561,12.878157,0.076012,0.013619,728.970337,0.002653,0.121557,0.062718,0.0,1.0,2639.845215, set /instrumentation/magnetic-compass/serviceable false, fly_strait
90.27327,-234.825531,-233.63208,6.189256,-0.220365,6.189256,-0.220365,-229.999863,-230.0,102.482063,72.803688,805.476257,296.400055,12.878157,0.075967,0.01731,741.247009,0.003065,0.122856,0.061056,0.0,1.0,2640.47168, set /instrumentation/magnetic-compass/serviceable false, fly_strait
90.370682,-232.289673,-231.096222,6.227461,-0.212797,6.227461,-0.212797,-229.999863,-230.0,105.184288,73.148239,815.380127,296.428741,12.878157,0.076843,0.020477,752.515381,0.003148,0.123785,0.059482,0.0,1.0,2641.059326, set /instrumentation/magnetic-compass/serviceable false, fly_strait
90.504585,-228.525955,-227.332504,6.276754,-0.187326,6.276754,-0.187326,-229.999863,-230.0,109.181961,73.642372,828.80719,296.455444,12.878157,0.078536,0.022409,768.735596,0.00304,0.124549,0.058047,0.0,1.0,2641.893555, set /instrumentation/magnetic-compass/serviceable false, fly_strait
90.643715,-224.469025,-223.275574,6.332883,-0.161946,6.332883,-0.161946,-219.999863,-220.0,113.477058,74.154091,842.41217,296.458557,12.878157,0.07925,0.020217,785.277649,0.002676,0.125535,0.056712,0.0,1.0,2642.747803, set /instrumentation/magnetic-compass/serviceable false, fly_strait
90.73394,-221.79361,-220.600174,6.369047,-0.155853,6.369047,-0.155853,-219.999863,-220.0,116.300163,74.480217,851.109009,296.449524,12.878157,0.078718,0.017035,795.833252,0.002314,0.126658,0.056557,0.0,1.0,2643.28833, set /instrumentation/magnetic-compass/serviceable false, fly_strait
90.856873,-217.83522,-216.641785,6.411361,-0.168524,6.411361,-0.168524,-219.999863,-220.0,120.468018,74.947754,863.111328,296.432892,12.878157,0.07647,0.012023,810.757996,0.002226,0.127381,0.057008,0.0,1.0,2644.059326, set /instrumentation/magnetic-compass/serviceable false, fly_strait
90.944435,-214.968765,-213.77533,6.44349,-0.189598,6.44349,-0.189598,-219.999863,-220.0,123.479439,75.275925,871.150024,296.426697,12.878157,0.074479,0.00957,821.013245,0.002407,0.128227,0.05784,0.0,1.0,2644.598633, set /instrumentation/magnetic-compass/serviceable false, fly_strait
91.059959,-210.898819,-209.705368,6.485907,-0.223451,6.485907,-0.223451,-209.999863,-210.0,127.741814,75.727379,882.108215,296.43512,12.878157,0.071663,0.009187,835.127625,0.002709,0.12887,0.05815,0.0,1.0,2645.338135, set /instrumentation/magnetic-compass/serviceable false, fly_strait
91.141159,-207.955734,-206.762299,6.518275,-0.242503,6.518275,-0.242503,-209.999863,-210.0,130.818436,76.044205,889.751343,296.453613,12.878157,0.070571,0.011009,844.781494,0.003192,0.129718,0.057729,0.0,1.0,2645.854736, set /instrumentation/magnetic-compass/serviceable false, fly_strait
91.25132,-203.662827,-202.469376,6.559562,-0.250196,6.559562,-0.250196,-199.999863,-200.0,135.295074,76.492233,900.483276,296.489075,12.878157,0.070409,0.015048,858.373474,0.003464,0.130366,0.056804,0.0,1.0,2646.581055, set /instrumentation/magnetic-compass/serviceable false, fly_strait
91.321167,-200.768158,-199.574707,6.588795,-0.243319,6.588795,-0.243319,-199.999863,-200.0,138.308685,76.785591,907.426941,296.511566,12.878157,0.071072,0.017433,867.091675,0.003574,0.131191,0.055031,0.0,1.0,2647.053711, set /instrumentation/magnetic-compass/serviceable false, fly_strait
91.422379,-196.37587,-195.182434,6.626337,-0.22231,6.626337,-0.22231,-199.999863,-200.0,142.872055,77.217697,917.501343,296.530762,12.878157,0.072406,0.018457,879.882935,0.003476,0.131776,0.053906,0.0,1.0,2647.745117, set /instrumentation/magnetic-compass/serviceable false, fly_strait
91.486961,-193.41713,-192.223694,6.652279,-0.20913,6.652279,-0.20913,-189.999863,-190.0,145.941544,77.500549,923.936218,296.531982,12.878157,0.072808,0.01721,888.087769,0.003176,0.132527,0.052946,0.0,1.0,2648.195313, set /instrumentation/magnetic-compass/serviceable false, fly_strait
91.583229,-188.932083,-187.738632,6.685758,-0.203277,6.685758,-0.203277,-189.999863,-190.0,150.585281,77.917114,933.181946,296.520355,12.878157,0.072196,0.013195,900.106934,0.002988,0.133046,0.052885,0.0,1.0,2648.856934, set /instrumentation/magnetic-compass/serviceable false, fly_strait
91.644135,-185.913727,-184.720291,6.708783,-0.210912,6.708783,-0.210912,-189.999863,-190.0,153.706085,78.189758,939.057678,296.509705,12.878157,0.070915,0.010194,907.800293,0.002904,0.133715,0.053467,0.0,1.0,2649.289551, set /instrumentation/magnetic-compass/serviceable false, fly_strait
91.736771,-181.342453,-180.149002,6.739878,-0.236437,6.739878,-0.236437,-179.999863,-180.0,158.42334,78.591263,947.516968,296.501892,12.878157,0.068334,0.007281,919.075439,0.003013,0.134176,0.053999,0.0,1.0,2649.927246, set /instrumentation/magnetic-compass/serviceable false, fly_strait
91.79425,-178.268814,-177.075378,6.762099,-0.25666,6.762099,-0.25666,-179.999863,-180.0,161.591187,78.854034,952.981018,296.506317,12.878157,0.066762,0.007048,926.27948,0.003378,0.134798,0.05439,0.0,1.0,2650.345215, set /instrumentation/magnetic-compass/serviceable true, fly_strait
91.88047,-173.617828,-172.424393,6.792847,-0.278311,6.792847,-0.278311,-169.999863,-170.0,166.376801,79.240944,960.979858,296.527588,12.896245,0.065347,0.009205,936.816528,0.003667,0.135242,0.054169,0.0,1.0,2650.960205, set /instrumentation/magnetic-compass/serviceable true, fly_strait
91.933075,-170.493042,-169.299591,6.814161,-0.282936,6.814161,-0.282936,-169.999863,-170.0,169.589111,79.494102,966.201965,296.547363,12.919023,0.065292,0.011522,943.541992,0.003976,0.135857,0.053105,0.0,1.0,2651.362061, set /instrumentation/magnetic-compass/serviceable true, fly_strait
92.009735,-165.900253,-164.706818,6.842366,-0.274072,6.842366,-0.274072,-169.999863,-170.0,174.304535,79.856522,973.586975,296.572998,12.967166,0.066156,0.014255,953.100159,0.004042,0.136283,0.052116,0.0,1.0,2651.936035, set /instrumentation/magnetic-compass/serviceable true, fly_strait
92.085503,-161.001343,-159.807892,6.87266,-0.255343,6.87266,-0.255343,-159.999863,-160.0,179.327728,80.231018,981.170471,296.586029,13.035897,0.067172,0.014692,962.844055,0.003915,0.136847,0.050835,0.0,1.0,2652.527588, set /instrumentation/magnetic-compass/serviceable true, fly_strait
92.133385,-157.801407,-156.607956,6.891087,-0.245257,6.891087,-0.245257,-159.999863,-160.0,182.606628,80.469269,985.964233,296.584717,13.08917,0.067438,0.013351,968.909851,0.003648,0.137453,0.050183,0.0,1.0,2652.903564, set /instrumentation/magnetic-compass/serviceable true, fly_strait
92.203415,-152.967529,-151.774094,6.913037,-0.24318,6.913037,-0.24318,-149.999863,-150.0,187.55394,80.81987,992.645752,296.572723,13.17998,0.06676,0.009772,977.834839,0.003504,0.137822,0.050249,0.0,1.0,2653.457764, set /instrumentation/magnetic-compass/serviceable true, fly_strait
92.249153,-149.724167,-148.530716,6.928743,-0.251521,6.928743,-0.251521,-149.999863,-150.0,190.87001,81.049179,996.817932,296.563538,13.246721,0.065602,0.007321,983.567444,0.003474,0.138261,0.050848,0.0,1.0,2653.821777, set /instrumentation/magnetic-compass/serviceable true, fly_strait
92.316994,-144.827148,-143.633698,6.950546,-0.274312,6.950546,-0.274312,-149.999863,-150.0,195.869766,81.386642,1002.856079,296.558319,13.354624,0.063416,0.005277,991.979309,0.003593,0.138575,0.051308,0.0,1.0,2654.359863, set /instrumentation/magnetic-compass/serviceable true, fly_strait
92.359932,-141.544327,-140.350876,6.966778,-0.290872,6.966778,-0.290872,-139.999863,-140.0,199.219437,81.607346,1006.801453,296.563416,13.431074,0.062202,0.005413,997.299377,0.003919,0.139011,0.051569,0.0,1.0,2654.713623, set /instrumentation/magnetic-compass/serviceable true, fly_strait
92.423088,-136.590469,-135.397018,6.989178,-0.306501,6.989178,-0.306501,-139.999863,-140.0,204.26857,81.932106,1012.647644,296.582489,13.551561,0.061292,0.007558,1005.109009,0.004155,0.139336,0.051314,0.0,1.0,2655.23584, set /instrumentation/magnetic-compass/serviceable true, fly_strait
92.462135,-133.271072,-132.077621,7.004731,-0.308224,7.004731,-0.308224,-129.999863,-130.0,207.650696,82.144463,1016.480225,296.598785,13.635159,0.061416,0.009523,1010.054749,0.004379,0.139784,0.05036,0.0,1.0,2655.577881, set /instrumentation/magnetic-compass/serviceable true, fly_strait
92.519203,-128.263885,-127.070435,7.025622,-0.298049,7.025622,-0.298049,-129.999863,-130.0,212.747543,82.456848,1022.054993,296.618256,13.764159,0.062331,0.011556,1017.366943,0.004403,0.140095,0.049545,0.0,1.0,2656.081543, set /instrumentation/magnetic-compass/serviceable true, fly_strait
92.554283,-124.910149,-123.716705,7.04013,-0.287535,7.04013,-0.287535,-129.999863,-130.0,216.16066,82.661057,1025.675781,296.62442,13.851583,0.062948,0.011725,1021.987793,0.004258,0.140512,0.048572,0.0,1.0,2656.410889, set /instrumentation/magnetic-compass/serviceable true, fly_strait
92.608124,-119.853073,-118.65963,7.0585,-0.275895,7.0585,-0.275895,-119.999855,-120.0,221.302612,82.961411,1030.887573,296.621246,13.982951,0.063291,0.009918,1028.830688,0.004108,0.140803,0.048264,0.0,1.0,2656.896484, set /instrumentation/magnetic-compass/serviceable true, fly_strait
92.641357,-116.466957,-115.273514,7.070779,-0.274875,7.070779,-0.274875,-119.999855,-120.0,224.744629,83.15773,1034.18396,296.613586,14.06956,0.062853,0.007867,1033.176514,0.003941,0.14117,0.048422,0.0,1.0,2657.215332, set /instrumentation/magnetic-compass/serviceable true, fly_strait
92.691208,-111.367165,-110.173721,7.087027,-0.286055,7.087027,-0.286055,-109.999855,-110.0,229.927765,83.446472,1038.880371,296.602325,14.196342,0.061394,0.004981,1039.379761,0.003927,0.141416,0.048805,0.0,1.0,2657.687012, set /instrumentation/magnetic-compass/serviceable true, fly_strait
92.72789,-108.093681,-106.900238,7.098347,-0.298592,7.098347,-0.298592,-109.999855,-110.0,233.251205,83.627403,1041.766479,296.599396,14.274693,0.060217,0.00394,1043.306885,0.004087,0.141741,0.049368,0.0,1.0,2657.984863, set /instrumentation/magnetic-compass/serviceable true, fly_strait
92.772408,-102.802979,-101.609535,7.115299,-0.318616,7.115299,-0.318616,-99.999855,-100.0,238.616806,83.912781,1046.311157,296.606201,14.395549,0.058742,0.004298,1049.601196,0.004266,0.141967,0.049515,0.0,1.0,2658.45752, set /instrumentation/magnetic-compass/serviceable true, fly_strait
92.817993,-97.630257,-96.436813,7.132731,-0.328764,7.132731,-0.328764,-99.999855,-100.0,243.859512,84.18383,1050.64978,296.62384,14.506343,0.058308,0.006464,1055.462402,0.004552,0.142306,0.049174,0.0,1.0,2658.909668, set /instrumentation/magnetic-compass/serviceable true, fly_strait
92.845184,-94.319489,-93.126045,7.143879,-0.327818,7.143879,-0.327818,-89.999855,-90.0,247.220322,84.35363,1053.398071,296.636688,14.573308,0.058623,0.008062,1058.704834,0.004697,0.142655,0.048293,0.0,1.0,2659.193848, set /instrumentation/magnetic-compass/serviceable true, fly_strait
92.885674,-88.962097,-87.768654,7.159082,-0.316187,7.159082,-0.316187,-89.999855,-90.0,252.644958,84.621368,1057.640869,296.651093,14.674103,0.05954,0.009503,1064.476318,0.004683,0.142878,0.04765,0.0,1.0,2659.643799, set /instrumentation/magnetic-compass/serviceable true, fly_strait
92.912766,-85.622627,-84.429176,7.168781,-0.307032,7.168781,-0.307032,-89.999855,-90.0,256.02774,84.78447,1060.164795,296.653748,14.731961,0.060048,0.009323,1067.767822,0.004517,0.143182,0.04693,0.0,1.0,2659.918701, set /instrumentation/magnetic-compass/serviceable true, fly_strait
92.949799,-80.228302,-79.034859,7.181939,-0.298273,7.181939,-0.298273,-79.999855,-80.0,261.486145,85.041611,1064.026733,296.647583,14.816327,0.060171,0.007318,1073.121582,0.004386,0.143376,0.046797,0.0,1.0,2660.355225, set /instrumentation/magnetic-compass/serviceable true, fly_strait
92.974648,-76.864204,-75.670761,7.190174,-0.299182,7.190174,-0.299182,-79.999855,-80.0,264.888916,85.198257,1066.300781,296.640137,14.862896,0.059652,0.005545,1076.321533,0.004261,0.143639,0.047105,0.0,1.0,2660.623047, set /instrumentation/magnetic-compass/serviceable true, fly_strait
93.011047,-71.436127,-70.242683,7.201998,-0.311529,7.201998,-0.311529,-69.999855,-70.0,270.377777,85.445229,1069.769165,296.630676,14.927842,0.05827,0.003245,1081.229248,0.004274,0.143803,0.047478,0.0,1.0,2661.049805, set /instrumentation/magnetic-compass/serviceable true, fly_strait
93.039192,-68.05426,-66.860817,7.210222,-0.322938,7.210222,-0.322938,-69.999855,-70.0,273.798553,85.59568,1071.859741,296.629547,14.961987,0.057288,0.002679,1084.02356,0.00445,0.14404,0.047951,0.0,1.0,2661.312256, set /instrumentation/magnetic-compass/serviceable true, fly_strait
93.069351,-62.594147,-61.400703,7.222512,-0.338705,7.222512,-0.338705,-59.999859,-60.0,279.315521,85.832893,1075.17041,296.637939,15.007227,0.056226,0.003542,1088.631348,0.004613,0.144204,0.048007,0.0,1.0,2661.730469, set /instrumentation/magnetic-compass/serviceable true, fly_strait
93.093216,-59.193085,-57.999641,7.23092,-0.343761,7.23092,-0.343761,-59.999859,-60.0,282.753448,85.977386,1077.202271,296.64801,15.02962,0.056048,0.004859,1091.24939,0.004839,0.14445,0.047588,0.0,1.0,2661.987305, set /instrumentation/magnetic-compass/serviceable true, fly_strait
93.121986,-53.703281,-52.509838,7.242938,-0.340483,7.242938,-0.340483,-49.999859,-50.0,288.297668,86.205154,1080.422852,296.664764,15.05698,0.056558,0.007009,1095.564941,0.004911,0.144618,0.047084,0.0,1.0,2662.39502, set /instrumentation/magnetic-compass/serviceable true, fly_strait
93.146011,-50.284431,-49.090988,7.250674,-0.333442,7.250674,-0.333442,-49.999859,-50.0,291.752228,86.343864,1082.370483,296.672089,15.068798,0.057115,0.007777,1098.002808,0.004864,0.144859,0.046246,0.0,1.0,2662.64502, set /instrumentation/magnetic-compass/serviceable true, fly_strait
93.169876,-44.766682,-43.573238,7.260914,-0.320816,7.260914,-0.320816,-49.999859,-50.0,297.322479,86.562477,1085.375366,296.674072,15.079642,0.057833,0.007335,1102.063599,0.004763,0.145013,0.04588,0.0,1.0,2663.041748, set /instrumentation/magnetic-compass/serviceable true, fly_strait
93.192932,-41.331005,-40.137562,7.267262,-0.315981,7.267262,-0.315981,-39.999859,-40.0,300.792572,86.69561,1087.135864,296.669739,15.08135,0.05787,0.006157,1104.350464,0.004583,0.145218,0.045781,0.0,1.0,2663.285645, set /instrumentation/magnetic-compass/serviceable true, fly_strait
93.215919,-35.787125,-34.593681,7.275866,-0.318412,7.275866,-0.318412,-39.999859,-40.0,306.386414,86.905418,1089.809692,296.658936,15.076183,0.057184,0.00372,1108.171631,0.004514,0.145345,0.045998,0.0,1.0,2663.674561, set /instrumentation/magnetic-compass/serviceable true, fly_strait
93.238609,-32.335861,-31.142416,7.281597,-0.325624,7.281597,-0.325624,-29.999857,-30.0,309.870361,87.033203,1091.384888,296.653442,15.068295,0.056384,0.002481,1110.308472,0.004549,0.145517,0.046538,0.0,1.0,2663.914307, set /instrumentation/magnetic-compass/serviceable true, fly_strait
93.262276,-26.76561,-25.572166,7.290223,-0.341333,7.290223,-0.341333,-29.999857,-30.0,315.485413,87.234604,1093.844849,296.652527,15.048881,0.055101,0.001916,1114.016357,0.004652,0.145632,0.046812,0.0,1.0,2664.297363, set /instrumentation/magnetic-compass/serviceable true, fly_strait
93.288322,-21.489077,-20.295631,7.299225,-0.352927,7.299225,-0.352927,-19.999857,-20.0,320.808441,87.420502,1096.136597,296.661591,15.024094,0.054428,0.003065,1117.05542,0.004876,0.145804,0.046858,0.0,1.0,2664.65625, set /instrumentation/magnetic-compass/serviceable true, fly_strait
93.3237,-17.864182,-16.670736,7.305693,-0.355546,7.305693,-0.355546,-19.999857,-20.0,324.464966,87.545418,1097.71521,296.671265,15.004229,0.054452,0.004399,1119.043335,0.005042,0.145985,0.046405,0.0,1.0,2664.899902, set /instrumentation/magnetic-compass/serviceable true, fly_strait
93.325615,-12.263679,-11.070234,7.314277,-0.349621,7.314277,-0.349621,-9.999858,-10.0,330.112335,87.734001,1100.099487,296.684723,14.970076,0.055128,0.006143,1122.167969,0.005079,0.146114,0.045921,0.0,1.0,2665.247314, set /instrumentation/magnetic-compass/serviceable true, fly_strait
93.342728,-8.777192,-7.583748,7.319694,-0.342375,7.319694,-0.342375,-9.999858,-10.0,333.628937,87.848816,1101.526367,296.689301,14.9471,0.055676,0.006555,1123.953979,0.004995,0.146286,0.045248,0.0,1.0,2665.443848, set /instrumentation/magnetic-compass/serviceable true, fly_strait
93.360062,-3.154498,-1.961053,7.3269,-0.331862,7.3269,-0.331862,1.42E-4,0.0,339.29541,88.029724,1103.712158,296.687714,14.90786,0.056187,0.005703,1126.991455,0.004891,0.146394,0.045019,0.0,1.0,2665.739502, set /instrumentation/magnetic-compass/serviceable true, fly_strait
93.372131,0.580343,1.773787,7.331384,-0.32914,7.331384,-0.32914,1.42E-4,0.0,342.976776,88.144623,1105.046021,296.682129,14.881139,0.056079,0.004427,1128.800659,0.004741,0.146538,0.045099,0.0,1.0,2665.921875, set /instrumentation/magnetic-compass/serviceable true, fly_strait
93.393875,6.338446,7.53189,7.337268,-0.334089,7.337268,-0.334089,10.000142,10.0,348.506866,88.313423,1106.915649,296.672577,14.839647,0.055298,0.002404,1131.526611,0.004702,0.146628,0.045378,0.0,1.0,2666.185791, set /instrumentation/magnetic-compass/serviceable true, fly_strait
93.408089,10.015575,11.20902,7.34134,-0.341493,7.34134,-0.341493,10.000142,10.0,352.044769,88.419098,1108.061401,296.668793,14.812607,0.054548,0.001567,1132.814941,0.004773,0.146745,0.045856,0.0,1.0,2666.350098, set /instrumentation/magnetic-compass/serviceable true, fly_strait
93.426094,15.953275,17.146719,7.347845,-0.354721,7.347845,-0.354721,20.000143,20.0,357.743744,88.585625,1109.861938,296.670593,14.769112,0.053551,0.001606,1135.591553,0.004878,0.146827,0.046045,0.0,1.0,2666.609375, set /instrumentation/magnetic-compass/serviceable true, fly_strait
93.437599,19.808294,21.001738,7.352678,-0.360854,7.352678,-0.360854,20.000143,20.0,361.445313,88.691391,1111.038696,296.676666,14.741476,0.053251,0.002444,1137.20813,0.005067,0.146957,0.045955,0.0,1.0,2666.774658, set /instrumentation/magnetic-compass/serviceable true, turn_+45
93.453011,25.600286,26.79373,7.361053,-0.393381,7.361053,-0.393381,30.000143,30.0,367.005066,88.846764,1112.813599,296.757202,14.701695,0.04103,0.016065,1139.616089,0.001718,0.147054,0.1,0.0,1.0,2667.017578, set /instrumentation/magnetic-compass/serviceable true, turn_+45
93.452072,29.46517,30.658615,7.375322,-0.405545,7.375322,-0.405545,30.000143,30.0,370.716736,88.948112,1114.216309,296.960083,14.677759,0.040181,0.048051,1141.074097,0.001873,0.147221,0.1,0.0,1.0,2667.170898, set /instrumentation/magnetic-compass/serviceable true, turn_+45
93.429794,35.271301,36.464745,7.407878,-0.247605,7.407878,-0.247605,30.000143,30.0,376.295776,89.096519,1117.574463,297.38681,14.65102,0.057794,0.112354,1143.276855,0.001931,0.147506,0.1,0.0,1.0,2667.369141, set /instrumentation/magnetic-compass/serviceable true, turn_+45
93.396057,39.147644,40.341087,7.429337,-0.007069,7.429337,-0.007069,40.000141,40.0,380.026154,89.192795,1120.636353,297.672546,14.640841,0.078301,0.152654,1144.731934,0.001179,0.148158,0.1,0.0,1.0,2667.471191, set /instrumentation/magnetic-compass/serviceable true, turn_+45
93.342148,44.975445,46.168892,7.443134,0.496674,7.443134,0.496674,40.000141,40.0,385.641388,89.332863,1125.173584,297.99942,14.634198,0.113033,0.192596,1147.147339,3.4E-5,0.148587,0.1,0.0,1.0,2667.57666, set /instrumentation/magnetic-compass/serviceable true, turn_+45
93.289627,50.33392,51.527363,7.442132,1.009995,7.442132,1.009995,50.000141,50.0,390.805939,89.456566,1128.13623,298.148346,14.628486,0.141504,0.201733,1149.679932,-0.002365,0.148863,0.1,0.0,1.0,2667.63623, set /instrumentation/magnetic-compass/serviceable true, turn_+45
93.256165,54.723656,55.917103,7.435649,1.39089,7.435649,1.39089,50.000141,50.0,395.039246,89.554497,1129.397583,298.174255,14.615304,0.153139,0.192561,1151.623169,-0.00481,0.148843,0.1,0.0,1.0,2667.672607, set /instrumentation/magnetic-compass/serviceable true, turn_+45
93.243362,60.422867,61.61631,7.426292,1.757952,7.426292,1.757952,60.000141,60.0,400.530365,89.677338,1129.560669,298.138123,14.575094,0.157875,0.168917,1154.023193,-0.006623,0.148713,0.1,0.0,1.0,2667.720215, set /instrumentation/magnetic-compass/serviceable true, turn_+45
93.205055,64.507263,65.700706,7.419767,1.924978,7.419767,1.924978,60.000141,60.0,404.451416,89.762474,1128.902588,298.110168,14.524787,0.154311,0.151948,1156.083496,-0.008371,0.148526,0.1,0.0,1.0,2667.761475, set /instrumentation/magnetic-compass/serviceable true, turn_+45
93.191254,70.22113,71.414574,7.412259,2.042091,7.412259,2.042091,70.000145,70.0,409.935516,89.878349,1127.394043,298.127167,14.419873,0.143543,0.13756,1158.185791,-0.009167,0.148395,0.1,0.0,1.0,2667.832764, set /instrumentation/magnetic-compass/serviceable true, turn_+45
93.178291,74.146111,75.339554,7.407146,2.075642,7.407146,2.075642,70.000145,70.0,413.691528,89.955734,1126.246094,298.196808,14.324797,0.13606,0.137064,1159.693604,-0.009724,0.148245,0.1,0.0,1.0,2667.890137, set /instrumentation/magnetic-compass/serviceable true, turn_+45
93.171173,80.027443,81.220886,7.401384,2.11025,7.401384,2.11025,80.000145,80.0,419.318634,90.068817,1124.709839,298.392883,14.150673,0.128576,0.150308,1161.190186,-0.009884,0.148143,0.1,0.0,1.0,2667.984619, set /instrumentation/magnetic-compass/serviceable true, turn_+45
93.147659,83.954803,85.148254,7.398455,2.151305,7.398455,2.151305,80.000145,80.0,423.066315,90.142235,1123.970825,298.571198,14.01702,0.12737,0.165831,1162.354614,-0.010049,0.148028,0.1,0.0,1.0,2668.048828, set /instrumentation/magnetic-compass/serviceable true, turn_+45
93.134224,89.831909,91.025352,7.395963,2.264867,7.395963,2.264867,90.000145,90.0,428.684326,90.249382,1123.34436,298.872681,13.796436,0.131055,0.192534,1163.096436,-0.010244,0.147969,0.1,0.0,1.0,2668.140869, set /instrumentation/magnetic-compass/serviceable true, turn_+45
93.11544,93.751991,94.945435,7.394289,2.376566,7.394289,2.376566,90.000145,90.0,432.428497,90.31881,1123.182495,299.073944,13.639124,0.136042,0.208878,1163.599731,-0.010785,0.147919,0.1,0.0,1.0,2668.196777, set /instrumentation/magnetic-compass/serviceable true, turn_+45
93.077431,99.629349,100.822792,7.39093,2.577061,7.39093,2.577061,100.000145,100.0,438.044006,90.419907,1123.027344,299.348511,13.391673,0.144576,0.226787,1164.091919,-0.011317,0.147886,0.1,0.0,1.0,2668.271973, set /instrumentation/magnetic-compass/serviceable true, turn_+45
93.057236,103.22345,104.416893,7.387946,2.70654,7.387946,2.70654,100.000145,100.0,441.47522,90.479904,1122.841431,299.494141,13.23495,0.149466,0.233095,1164.487427,-0.012272,0.147819,0.1,0.0,1.0,2668.313965, set /instrumentation/magnetic-compass/serviceable true, turn_+45
93.033257,109.417328,110.610771,7.381969,2.908654,7.381969,2.908654,110.000145,110.0,447.399719,90.580429,1122.158691,299.710602,12.956204,0.153875,0.236818,1164.390503,-0.012888,0.147759,0.1,0.0,1.0,2668.384766, set /instrumentation/magnetic-compass/serviceable true, turn_+45
