airspeed_indicator_indicated_speed_kt,altimeter_indicated_altitude_ft,altimeter_pressure_alt_ft,attitude_indicator_indicated_pitch_deg,attitude_indicator_indicated_roll_deg,attitude_indicator_internal_pitch_deg,attitude_indicator_internal_roll_deg,encoder_indicated_altitude_ft,encoder_pressure_alt_ft,gps_indicated_altitude_ft,gps_indicated_ground_speed_kt,gps_indicated_vertical_speed,indicated_heading_deg,magnetic_compass_indicated_heading_deg,slip_skid_ball_indicated_slip_skid,turn_indicator_indicated_turn_rate,vertical_speed_indicator_indicated_speed_fpm,flight_aileron,flight_elevator,flight_rudder,flight_flaps,engine_throttle,engine_rpm
Command: takeoff,,,,,,,,,,,,,,,,,,,,,,
0,0,0,0,0,0,0,0,0,0,0,0,0,0,0,0,0,0,0,0,0,0,0
0,0,1.193444,12,40,0,0,0,0,0,0,0,317.980011,0,0,0,0,0,0,0,0,0,0
0,0,1.193444,12,40,0,0,0,0,0,0,0,317.980011,0,0,0,0,0,0,0,0,0,0
0,0,1.193444,12,40,0,0,0,0,0,0,0,137.979996,0,0,0,0,0,0,0,0,0,0
0,0,1.193444,12,40,0,0,0,0,0,0,0,137.979996,0,0,0,0,0,0,0,0,0,0
0,0,1.193444,12,40,0,0,0,0,0,0,0,137.979996,0,0,0,0,0,0,0,0,0,0
0,0,1.193444,12,40,0,0,0,0,0,0,0,137.979996,0,0,0,0,0,0,0,0,0,0
0,0,1.193444,12,40,0,0,0,0,0,0,0,137.979996,0,0,0,0,0,0,0,0,0,0
0,0,1.193444,12,40,0,0,0,0,0,0,0,137.979996,0,0,0,0,0,0,0,0,0,0
0,0,1.193444,12,40,0,0,0,0,0,0,0,137.979996,0,0,0,0,0,0,0,0,0,0
0,0,1.193444,12,40,0,0,0,0,0,0,0,137.979996,0,0,0,0,0,0,0,0,0,0
0,0,1.193444,12,40,0,0,0,0,0,0,0,137.979996,0,0,0,0,0,0,0,0,0,0
0,0,1.193444,12,40,0,0,0,0,0,0,0,137.979996,0,0,0,0,0,0,0,0,0,0
0,0,1.193444,12,40,0,0,0,0,0,0,0,137.979996,0,0,0,0,0,0,0,0,0,0
0,0,1.193444,12,40,0,0,0,0,0,0,0,137.979996,0,0,0,0,0,0,0,0,0,0
0,0,1.193444,12,40,0,0,0,0,0,0,0,137.979996,0,0,0,0,0,-0.001008,0,0,0,0
0,0,1.193444,12,40,0,0,0,0,0,0,0,137.979996,0,0,0,0,0,-0.001008,0,0,0,0
0,0,1.193444,12,40,0,0,0,0,0,0,0,137.979996,0,0,0,0,0,-0.001008,0,0,0,0
0,0,1.193444,12,40,0,0,0,0,0,0,0,137.979996,0,0,0,0,0,-0.001008,0,0,0,0
0,0,1.193444,12,40,0,0,0,0,0,0,0,137.979996,0,0,0,0,0,-0.001008,0,0,0,0
0,0,1.193444,12,40,0,0,0,0,0,0,0,137.979996,0,0,0,0,0.000252,-0.001008,0.000126,0,0,0
0,11.395755,12.589199,12,40,0,0,10.000126,10,58.989975,0,0.0137,317.980011,0.539437,0.009849,-0.247802,1063.244507,0.000252,-0.001008,0.000126,0,0,0
0,48.689701,49.883144,12,40,0,0,50.000141,50,58.990036,0,0.001038,317.980011,10.908033,0.037615,-0.972554,1802.852661,0.000252,-0.001008,0.000126,0,0,0
0,56.789635,57.983078,12,40,0,0,50.000141,50,58.99004,0,-0.0001,317.979553,16.494431,0.042418,-1.095648,1828.044189,0.000252,-0.001008,0.000126,0,0,0
0,65.140816,66.334259,12,40,0,0,60.000141,60,58.990036,0,-0.000804,317.978485,23.491194,0.04665,-1.123265,1841.175171,0.000252,-0.001008,0.000126,0,0,0
0,72.737602,73.931046,12,40,0,0,70.000145,70,58.990032,0,-0.000971,317.977478,30.870287,0.049505,-1.085395,1844.82666,0.000252,-0.001008,0.000126,0,0,0
0,80.180962,81.374405,12,40,0,0,80.000145,80,58.990028,0,-0.001273,317.976471,38.930515,0.052027,-1.011275,1843.070679,0.000252,-0.001008,0.000126,0,0,0
0,96.533302,97.726746,12,40,0,0,100.000145,100,58.990017,0,-0.000703,317.974335,57.87291,0.055236,-0.810379,1849.444214,0.000252,-0.001008,0.000126,0,0,0
0,103.718277,104.91172,12,40,0,0,100.000145,100,58.990017,0,-0.000703,317.973297,67.59227,0.05638,-0.716532,1830.487183,0.000252,-0.001008,0.000126,0,0,0
0,110.884003,112.077446,12,40,0,0,110.000145,110,58.990013,0,-0.000636,317.97229,77.490433,0.057151,-0.632234,1813.374023,0.000252,-0.001008,0.000126,0,0,0
0,118.03476,119.228203,12,40,0,0,120.000145,120,58.990009,0,-0.000603,317.971252,87.438004,0.05783,-0.557795,1798.037109,0.000252,-0.001008,0.000126,0,0,0
0,125.192177,126.38562,12,40,0,0,120.000145,120,58.990005,0,-0.000603,317.970215,97.311317,0.058285,-0.492121,1784.966797,0.000252,-0.001008,0.000126,0,0,0
0,132.318161,133.511597,12,40,0,0,130.000137,130,58.990005,0,-0.000502,317.969177,106.993645,0.058686,-0.434179,1772.660156,0.000252,-0.001008,0.000126,0,0,0
0,139.437988,140.631439,12,40,0,0,140.000137,140,58.990002,0,-0.000469,317.96814,116.376282,0.058954,-0.383059,1761.851685,0.000252,-0.001008,0.000126,0,0,0
0,146.55304,147.746475,12,40,0,0,150.000137,150,58.990002,0,-0.000469,317.967102,125.359474,0.059189,-0.337958,1752.399414,0.000252,-0.001008,0.000126,0,0,0
0,153.664352,154.857788,12,40,0,0,150.000137,150,58.989815,0,-0.037114,317.966034,133.853226,0.059328,-0.298173,1744.164795,0.000252,-0.001008,0.000126,0,0,0
0,160.77272,161.966171,12,40,0,0,160.000137,160,58.989712,0,-0.017318,317.965027,141.777878,0.059494,-0.263069,1737.016479,0.000252,-0.001008,0.000126,0,0,0
0,167.878845,169.072296,12,40,0,0,170.000137,170,58.989658,0,0.016313,317.963989,149.064529,0.059605,-0.232093,1730.833252,0.000252,-0.001008,0.000126,0,0,0
0,174.983047,176.176483,12,40,0,0,170.000137,170,58.988468,0.000438,-4.435332,317.963074,155.655258,0.058229,-0.204753,1725.496338,0.000252,-0.001008,0.000126,0,0,0
0,182.085983,183.279419,12,40,0,0,180.000137,180,58.989483,0.000585,0.102967,317.962067,161.503632,0.057931,-0.18064,1720.913574,0.000252,-0.001008,0.000126,0,0,0
0,189.207245,190.400696,12,40,0,0,190.000137,190,58.989784,0.000571,0.050412,317.960999,166.57457,0.05842,-0.159372,1717.654663,0.000252,-0.001008,0.000126,0,0,0
0,196.304214,197.497665,12,40,0,0,190.000137,190,58.989937,0.000557,0.025993,317.95993,170.844193,0.058743,-0.140612,1714.06604,0.000252,-0.001008,0.000126,0,0,0
0,203.401489,204.59494,12,40,0,0,200.000137,200,58.990013,0.000543,0.012394,317.958862,174.299667,0.059027,-0.124062,1711.043457,0.000252,-0.001008,0.000126,0,0,0
0,210.499008,211.692459,12,40,0,0,210.000137,210,58.990047,0.00053,0.005493,317.957794,176.938705,0.059219,-0.109458,1708.50415,0.000252,-0.001008,0.000126,0,0,0
0,217.596695,218.790146,12,40,0,0,220.000137,220,58.990063,0.000517,0.002512,317.956757,178.769043,0.05939,-0.096573,1706.377686,0.000252,-0.001008,0.000126,0,0,0
0,224.694519,225.887955,12,40,0,0,220.000137,220,58.99007,0.000504,0.001139,317.955688,179.807861,0.059506,-0.085205,1704.60376,0.000252,-0.001008,0.000126,0,0,0
0,231.792435,232.98587,12,40,0,0,230.000137,230,58.990074,0.000491,0.000938,317.954651,180.081146,0.059611,-0.075175,1703.130859,0.000252,-0.001008,0.000126,0,0,0
0,238.890427,240.083878,12,40,0,0,240.000137,240,58.990078,0.000479,0.001005,317.953613,179.622955,0.059684,-0.066327,1701.914673,0.000252,-0.001008,0.000126,0,0,0
0,245.98848,247.181931,12,40,0,0,240.000137,240,58.990086,0.000467,0.001139,317.952545,178.474579,0.059752,-0.05852,1700.917847,0.000252,-0.001008,0.000126,0,0,0
0,253.086578,254.280029,12,40,0,0,250.000137,250,58.990089,0.000456,0.001306,317.951508,176.683685,0.0598,-0.051634,1700.108032,0.000252,-0.001008,0.000126,0,0,0
0,260.184723,261.378174,12,40,0,0,260.000153,260,58.990097,0.000445,0.001541,317.95047,174.303497,0.059847,-0.045558,1699.457642,0.000252,-0.001008,0.000126,0,0,0
0,267.282898,268.476318,12,40,0,0,270.000153,270,58.990105,0.000434,0.001675,317.949402,171.391785,0.059882,-0.040198,1698.943481,0.000252,-0.001008,0.000126,0,0,0
0,273.756958,274.950409,12,40,0,0,270.000153,270,58.990112,0.000423,0.001943,317.948364,168.009995,0.059918,-0.035469,1675.900879,0.000252,-0.001008,0.000126,0,0,0
0,278.807861,280.001312,12,40,0,0,280.000153,280,58.99012,0.000412,0.002077,317.947327,164.22229,0.059947,-0.031298,1604.511353,0.000252,-0.001008,0.000126,0,0,0
0,280.499481,281.692902,12,40,0,0,280.000153,280,58.990124,0.000408,0.002177,317.946899,162.608292,0.059959,-0.02977,1565.60144,0.000252,-0.001008,0.000126,0,0,0
0,285.800354,286.993805,12,40,0,0,290.000153,290,58.990139,0.000392,0.002211,317.945221,155.694,0.060008,-0.024372,1366.678467,0.000252,-0.001008,0.000126,0,0,0
0,288.183289,289.37674,12,40,0,0,290.000153,290,58.99015,0.000383,0.002445,317.944153,151.087311,0.060037,-0.021508,1216.372803,0.000252,-0.001008,0.000126,0,0,0
0,290.039124,291.232544,12,40,0,0,290.000153,290,58.990162,0.000373,0.002646,317.943115,146.34079,0.060064,-0.018981,1052.629028,0.000252,-0.001008,0.000126,0,0,0
0,291.484863,292.678314,12,40,0,0,290.000153,290,58.990173,0.000364,0.002747,317.942047,141.519135,0.060095,-0.016753,879.875916,0.000252,-0.001008,0.000126,0,0,0
0,292.611572,293.805023,12,40,0,0,290.000153,290,58.990185,0.000355,0.003015,317.94101,136.684769,0.060124,-0.014787,702.408386,0.000252,-0.001008,0.000126,0,0,0
0,293.490082,294.683533,12,40,0,0,290.000153,290,58.9902,0.000346,0.003082,317.939941,131.897263,0.060157,-0.013053,525.30072,0.000252,-0.001008,0.000126,0,0,0
0,294.175507,295.368958,12,40,0,0,300.000153,300,58.990215,0.000338,0.003417,317.938904,127.212669,0.060189,-0.011524,356.252716,0.000252,-0.001008,0.000126,0,0,0
0,294.710693,295.904144,12,40,0,0,300.000153,300,58.990231,0.000329,0.003417,317.937836,122.68309,0.060226,-0.010174,210.054016,0.000252,-0.001008,0.000126,0,0,0
0,295.129028,296.322479,12,40,0,0,300.000153,300,58.990246,0.000321,0.003551,317.936798,118.356163,0.06026,-0.008985,113.976669,0.000252,-0.001008,0.000126,0,0,0
0,295.456421,296.649872,12,40,0,0,300.000153,300,58.990261,0.000313,0.003752,317.93573,114.27475,0.060301,-0.007935,75.253563,0.000252,-0.001008,0.000126,0,0,0
0,295.713104,296.906525,12,40,0,0,300.000153,300,58.990276,0.000306,0.003953,317.934692,110.476616,0.060338,-0.00701,57.157459,0.000252,-0.001008,0.000126,0,0,0
0,295.914734,297.108154,12,40,0,0,300.000153,300,58.990295,0.000298,0.00412,317.933624,106.994232,0.060382,-0.006193,44.317169,0.000252,-0.001008,0.000126,0,0,0
0,296.073547,297.266968,12,40,0,0,300.000153,300,58.990314,0.000291,0.004187,317.932556,103.854637,0.060423,-0.005474,34.609127,0.000252,-0.001008,0.000126,0,0,0
0.502962,296.199036,297.392487,12,40,0,0,300.000153,300,58.990334,0.000283,0.004321,317.931519,101.079376,0.060471,-0.004839,27.200672,0.000252,-0.001008,0.000126,0,0,0
1.727816,296.298645,297.492096,12,40,0,0,300.000153,300,58.990353,0.000276,0.004455,317.93045,98.684494,0.060515,-0.004279,21.517199,0.000252,-0.001008,0.000126,0,0,0
2.296111,296.378082,297.571533,12,40,0,0,300.000153,300,58.990372,0.00027,0.004622,317.929382,96.680611,0.060568,-0.003786,22.183517,0.000252,-0.001008,0.000126,0,0,0
2.688437,296.441833,297.635284,12,40,0,0,300.000153,300,58.990391,0.000263,0.00479,317.928314,95.073082,0.060615,-0.003351,19.023176,0.000252,-0.001008,0.000126,0,0,0
2.988529,296.493408,297.686829,12,40,0,0,300.000153,300,58.990414,0.000256,0.00489,317.927277,93.862144,0.060672,-0.002968,17.474157,0.000252,-0.001008,0.000126,0,0,0
3.23171,296.535461,297.728912,12,40,0,0,300.000153,300,58.990437,0.00025,0.005091,317.926208,93.043213,0.060723,-0.00263,22.652414,0.000252,-0.001008,0.000126,0,0,0
3.436998,296.57016,297.76358,12,40,0,0,300.000153,300,58.990459,0.000244,0.005292,317.92514,92.607124,0.060784,-0.002332,21.710865,0.000252,-0.001008,0.000126,0,0,0
3.615954,296.599091,297.792542,12,40,0,0,300.000153,300,58.990482,0.000238,0.005359,317.924072,92.540512,0.060838,-0.00207,19.602797,0.000252,-0.001008,0.000126,0,0,0
3.77612,296.623566,297.817017,12,40,0,0,300.000153,300,58.990505,0.000232,0.005527,317.923035,92.826164,0.060903,-0.001839,17.667177,0.000252,-0.001008,0.000126,0,0,0
3.922637,296.644562,297.838013,12,40,0,0,300.000153,300,58.990532,0.000226,0.005627,317.921967,93.44339,0.060961,-0.001635,10.634983,0.000252,-0.001008,0.000126,0,0,0
4.059122,296.662842,297.856293,12,40,0,0,300.000153,300,58.990555,0.000221,0.005828,317.920898,94.368492,0.06103,-0.001456,18.368414,0.000252,-0.001008,0.000126,0,0,0
4.188163,296.679047,297.872498,12,40,0,0,300.000153,300,58.990582,0.000215,0.005862,317.91983,95.575157,0.061091,-0.001298,16.96303,0.000252,-0.001008,0.000126,0,0,0
4.311646,296.693604,297.887054,12,40,0,0,300.000153,300,58.990608,0.00021,0.006163,317.918762,97.034935,0.061164,-0.001159,18.73604,0.000252,-0.001008,0.000126,0,0,0
4.430956,296.706909,297.90033,12,40,0,0,300.000153,300,58.990635,0.000205,0.006264,317.917694,98.717682,0.06123,-0.001037,17.228373,0.000252,-0.001008,0.000126,0,0,0
4.547121,296.719208,297.912659,12,40,0,0,300.000153,300,58.990665,0.0002,0.006398,317.916626,100.591995,0.061307,-0.000929,9.823465,0.000252,-0.001008,0.000126,0,0,0
4.660906,296.730743,297.924194,12,40,0,0,300.000153,300,58.990692,0.000195,0.006565,317.915558,102.625679,0.061376,-0.000835,13.096036,0.000252,-0.001008,0.000126,0,0,0
4.772885,296.741669,297.93512,12,40,0,0,300.000153,300,58.990723,0.00019,0.006733,317.91449,104.786163,0.061457,-0.000752,13.320067,0.000252,-0.001008,0.000126,0,0,0
4.883488,296.752136,297.945587,12,40,0,0,300.000153,300,58.990753,0.000185,0.0069,317.913422,107.040924,0.061529,-0.000679,11.230283,0.000252,-0.001008,0.000126,0,0,0
4.99304,296.762268,297.955688,12,40,0,0,300.000153,300,58.990784,0.000181,0.007068,317.912354,109.357872,0.061615,-0.000615,19.298687,0.000252,-0.001008,0.000126,0,0,0
5.101785,296.772095,297.965546,12,40,0,0,300.000153,300,58.990814,0.000176,0.007202,317.911285,111.705727,0.061699,-0.000559,15.803862,0.000252,-0.001008,0.000126,0,0,0
5.209903,296.781708,297.975159,12,40,0,0,300.000153,300,58.990845,0.000172,0.00747,317.910248,114.054367,0.061803,-0.000505,10.248618,0.000252,-0.001008,0.000126,0,0,0
5.317544,296.791168,297.984619,12,40,0,0,300.000153,300,58.990879,0.000168,0.007704,317.90918,116.375114,0.061877,-0.000454,16.568419,0.000252,-0.001008,0.000126,0,0,0
5.42482,296.800476,297.993927,12,40,0,0,300.000153,300,58.990913,0.000163,0.007805,317.908112,118.64106,0.061949,-0.000408,8.729716,0.000252,-0.001008,0.000126,0,0,0
5.531813,296.809692,298.003143,12,40,0,0,300.000153,300,58.990948,0.000159,0.007872,317.907074,120.827255,0.062003,-0.000367,13.993933,0.000252,-0.001008,0.000126,0,0,0
5.638583,296.818848,298.012299,12,40,0,0,300.000153,300,58.990986,0.000156,0.008173,317.906006,122.91095,0.062063,-0.000331,17.577667,0.000252,-0.001008,0.000126,0,0,0
5.745178,296.827942,298.021362,12,40,0,0,300.000153,300,58.99102,0.000152,0.008374,317.904968,124.871758,0.062107,-0.000299,8.500466,0.000252,-0.001008,0.000126,0,0,0
5.851635,296.836975,298.030396,12,40,0,0,300.000153,300,58.991058,0.000148,0.008709,317.9039,126.69178,0.062158,-0.000271,13.624097,0.000252,-0.001008,0.000126,0,0,0
5.957981,296.845978,298.039429,12,40,0,0,300.000153,300,58.991096,0.000144,0.008642,317.902832,128.355713,0.062199,-0.000246,17.279621,0.000252,-0.001008,0.000126,0,0,0
6.064239,296.85495,298.048401,12,40,0,0,300.000153,300,58.991135,0.000141,0.008843,317.901794,129.850891,0.062244,-0.000224,8.183802,0.000252,-0.001008,0.000126,0,0,0
6.170426,296.863892,298.057343,12,40,0,0,300.000153,300,58.991173,0.000137,0.008977,317.900726,131.167343,0.062281,-0.000204,13.4393,0.000252,-0.001008,0.000126,0,0,0
6.276556,296.872864,298.066284,12,40,0,0,300.000153,300,58.991215,0.000134,0.009111,317.899689,132.297745,0.062323,-0.000187,17.148272,0.000252,-0.001008,0.000126,0,0,0
6.382638,296.881775,298.075226,12,40,0,0,300.000153,300,58.991253,0.000131,0.009278,317.898621,133.237427,0.062359,-0.000172,8.048606,0.000252,-0.001008,0.000126,0,0,0
6.488683,296.890717,298.084167,12,40,0,0,300.000153,300,58.991295,0.000127,0.009412,317.897583,133.984222,0.062399,-0.000158,13.364481,0.000252,-0.001008,0.000126,0,0,0
6.594695,296.899628,298.093079,12,40,0,0,300.000153,300,58.991337,0.000124,0.009513,317.896515,134.538467,0.062433,-0.000146,17.097799,0.000252,-0.001008,0.000126,0,0,0
6.700681,296.908539,298.10199,12,40,0,0,300.000153,300,58.991379,0.000121,0.009714,317.895447,134.902817,0.062471,-0.000135,8.00018,0.000252,-0.001008,0.000126,0,0,0
6.806646,296.91745,298.110901,12,40,0,0,300.000153,300,58.991421,0.000118,0.009915,317.894409,135.082092,0.062504,-0.000126,13.341026,0.000252,-0.001008,0.000126,0,0,0
6.912613,296.926392,298.119843,12,40,0,0,300.000153,300,58.991467,0.000115,0.009982,317.893341,135.08316,0.062541,-0.000118,17.088381,0.000252,-0.001008,0.000126,0,0,0
7.018538,296.935303,298.128754,12,40,0,0,300.000153,300,58.991508,0.000112,0.010183,317.892303,134.914719,0.062572,-0.00011,7.986387,0.000252,-0.001008,0.000126,0,0,0
7.03266,296.936493,298.129944,12,40,0,0,300.000153,300,58.991516,0.000112,0.010216,317.892151,134.87999,0.062577,-0.000109,14.68891,0.000252,-0.001008,0.000126,0,0,0
7.250409,296.957001,298.150452,12,40,0,0,300.000153,300,58.991634,0.000107,0.006331,317.890076,134.056946,0.062661,-0.000101,19.734318,0.000252,-0.001008,0.000126,0,0,0
7.772253,297.005951,298.199402,12,40,0,0,300.000153,300,58.991867,0.000094,0.007369,317.884888,130.011353,0.062857,-0.000075,19.302668,0.000252,-0.001008,0.000126,0,0,0
7.860972,297.012085,298.205536,12,40,0,0,300.000153,300,58.991898,0.000092,0.008743,317.884003,129.096359,0.062871,-0.000071,10.97619,0.000252,-0.001008,0.000126,0,0,0
7.914193,297.015717,298.209167,12,40,0,0,300.000153,300,58.991917,0.000091,0.010384,317.883514,128.58902,0.06288,-0.00007,15.711884,0.000252,-0.001008,0.000126,0,0,0
8.083712,297.029144,298.222565,12,40,0,0,300.000153,300,58.992001,0.000087,0.010082,317.881744,126.721016,0.062926,-0.000066,15.917417,0.000252,-0.001008,0.000126,0,0,0
8.188117,297.037048,298.230499,12,40,0,0,300.000153,300,58.992046,0.000085,0.011121,317.880707,125.579346,0.062953,-0.000064,15.196884,0.000252,-0.001008,0.000126,0,0,0
8.29848,297.045807,298.239258,12,40,0,0,300.000153,300,58.992107,0.000083,0.011154,317.879639,124.439911,0.062975,-0.000063,17.669464,0.000252,-0.001008,0.000126,0,0,0
8.366885,297.051514,298.244965,12,40,0,0,300.000153,300,58.992138,0.000082,0.011757,317.878906,123.651047,0.062998,-0.000062,18.656755,0.000252,-0.001008,0.000126,0,0,0
8.504499,297.063232,298.256683,12,40,0,0,300.000153,300,58.992218,0.000079,0.01025,317.877533,122.222015,0.063044,-0.000061,10.062823,0.000252,-0.001008,0.000126,0,0,0
8.609641,297.071564,298.265015,12,40,0,0,300.000153,300,58.992264,0.000077,0.011389,317.876465,121.168419,0.063071,-0.000058,10.52954,0.000252,-0.001008,0.000126,0,0,0
8.71483,297.080017,298.273468,12,40,0,0,300.000153,300,58.992317,0.000075,0.012159,317.875427,120.166565,0.063094,-0.000057,12.896696,0.000252,-0.001008,0.000126,0,0,0
8.816644,297.088287,298.281738,12,40,0,0,300.000153,300,58.992367,0.000073,0.012528,317.87439,119.256416,0.063119,-0.000056,13.572334,0.000252,-0.001008,0.000126,0,0,0
8.922123,297.096954,298.290405,12,40,0,0,300.000153,300,58.992424,0.000072,0.012796,317.873352,118.383461,0.063152,-0.000055,15.835789,0.000252,-0.001008,0.000126,0,0,0
9.027691,297.105682,298.299133,12,40,0,0,300.000153,300,58.992481,0.00007,0.013064,317.872284,117.58741,0.06318,-0.000054,18.122145,0.000252,-0.001008,0.000126,0,0,0
9.133327,297.114471,298.307892,12,40,0,0,300.000153,300,58.992538,0.000068,0.013298,317.871246,116.874222,0.063212,-0.000053,9.806234,0.000252,-0.001008,0.000126,0,0,0
9.242568,297.123596,298.317047,12,40,0,0,300.000153,300,58.992599,0.000066,0.013432,317.870148,116.229256,0.063241,-0.000053,15.763416,0.000252,-0.001008,0.000126,0,0,0
9.348305,297.132446,298.325897,12,40,0,0,300.000153,300,58.992661,0.000065,0.013599,317.86911,115.697556,0.063264,-0.000052,19.073891,0.000252,-0.001008,0.000126,0,0,0
9.454091,297.141357,298.334778,12,40,0,0,300.000153,300,58.992722,0.000063,0.0138,317.868042,115.258888,0.06329,-0.000051,11.775559,0.000252,-0.001008,0.000126,0,0,0
9.559908,297.150269,298.343719,12,40,0,0,300.000153,300,58.992779,0.000062,0.013934,317.867004,114.914078,0.063313,-0.000051,15.938045,0.000252,-0.001008,0.000126,0,0,0
9.665752,297.15921,298.352631,12,40,0,0,300.000153,300,58.992844,0.00006,0.014068,317.865936,114.66275,0.06334,-0.00005,19.223785,0.000252,-0.001008,0.000126,0,0,0
9.771616,297.168152,298.361603,12,40,0,0,300.000153,300,58.992905,0.000059,0.01437,317.864868,114.503418,0.063364,-0.000049,11.910259,0.000252,-0.001008,0.000126,0,0,0
9.877839,297.177124,298.370575,12,40,0,0,300.000153,300,58.992966,0.000057,0.01514,317.863831,114.433556,0.063393,-0.000049,16.055141,0.000252,-0.001008,0.000126,0,0,0
9.983741,297.186096,298.379547,12,40,0,0,300.000153,300,58.993031,0.000056,0.015375,317.862762,114.449646,0.063419,-0.000048,19.316164,0.000252,-0.001008,0.000126,0,0,0
10.085852,297.194763,298.388214,12,40,0,0,300.000153,300,58.993092,0.000054,0.014973,317.861755,114.542801,0.063445,-0.000048,10.26396,0.000252,-0.001008,0.000126,0,0,0
10.191703,297.203766,298.397217,12,40,0,0,300.000153,300,58.993156,0.000053,0.014872,317.860687,114.714439,0.063474,-0.000047,14.852468,0.000252,-0.001008,0.000126,0,0,0
10.301943,297.213043,298.406494,12,40,0,0,300.000153,300,58.993225,0.000052,0.01715,317.859619,114.966087,0.063502,-0.000047,19.371077,0.000252,-0.001008,0.000126,0,0,0
10.407394,297.221436,298.414886,12,40,0,0,300.000153,300,58.99329,0.000051,0.015408,317.858582,115.26368,0.063525,-0.000046,8.088194,0.000252,-0.001008,0.000126,0,0,0
10.519929,297.228363,298.421814,12,40,0,0,300.000153,300,58.993359,0.000049,0.015174,317.857544,115.628006,0.063549,-0.000046,16.286297,0.000252,-0.001008,0.000126,0,0,0
10.635066,297.233948,298.427399,12,40,0,0,300.000153,300,58.993427,0.000048,0.017686,317.856445,116.05722,0.063575,-0.000045,17.279785,0.000252,-0.001008,0.000126,0,0,0
10.74438,297.238159,298.43161,12,40,0,0,300.000153,300,58.993496,0.000047,0.01782,317.855408,116.515915,0.0636,-0.000044,12.493745,0.000252,-0.001008,0.000126,0,0,0
10.848236,297.241333,298.434784,12,40,0,0,300.000153,300,58.993561,0.000046,0.015509,317.85437,116.992554,0.063622,-0.000044,14.926565,0.000252,-0.001008,0.000126,0,0,0
10.955746,297.243927,298.437378,12,40,0,0,300.000153,300,58.993629,0.000045,0.01581,317.853333,117.512527,0.063643,-0.000043,14.605268,0.000252,-0.001008,0.000126,0,0,0
11.066518,297.246002,298.439453,12,40,0,0,300.000153,300,58.993702,0.000043,0.016748,317.852234,118.070503,0.063665,-0.000043,11.937587,0.000252,-0.001008,0.000126,0,0,0
11.173423,297.247589,298.44104,12,40,0,0,300.000153,300,58.993774,0.000042,0.018557,317.851196,118.622757,0.063688,-0.000042,18.573128,0.000252,-0.001008,0.000126,0,0,0
11.278987,297.24884,298.442291,12,40,0,0,300.000153,300,58.993843,0.000041,0.017184,317.850128,119.179703,0.063708,-0.000042,12.845496,0.000252,-0.001008,0.000126,0,0,0
11.380929,297.249817,298.443237,12,40,0,0,300.000153,300,58.993916,0.00004,0.016581,317.849121,119.715942,0.063727,-0.000041,16.956072,0.000252,-0.001008,0.000126,0,0,0
11.486434,297.25061,298.444031,12,40,0,0,300.000153,300,58.993988,0.000039,0.016715,317.848053,120.262016,0.063748,-0.000041,7.0725,0.000252,-0.001008,0.000126,0,0,0
11.595623,297.251251,298.444702,12,40,0,0,300.000153,300,58.994064,0.000038,0.017485,317.846985,120.810516,0.063769,-0.00004,11.541842,0.000252,-0.001008,0.000126,0,0,0
11.700869,297.25174,298.44519,12,40,0,0,300.000153,300,58.994137,0.000037,0.017686,317.845917,121.320168,0.063787,-0.00004,14.063055,0.000252,-0.001008,0.000126,0,0,0
11.806016,297.252167,298.445618,12,40,0,0,300.000153,300,58.994209,0.000036,0.017954,317.844879,121.80378,0.063807,-0.000039,15.816762,0.000252,-0.001008,0.000126,0,0,0
11.911128,297.252502,298.445953,12,40,0,0,300.000153,300,58.994286,0.000036,0.018054,317.843811,122.256737,0.063825,-0.000039,17.121147,0.000252,-0.001008,0.000126,0,0,0
12.016135,297.252777,298.446228,12,40,0,0,300.000153,300,58.994362,0.000035,0.018322,317.842773,122.675034,0.063846,-0.000038,18.132195,0.000252,-0.001008,0.000126,0,0,0
12.113832,297.252991,298.446442,12,40,0,0,300.000153,300,58.994438,0.000034,0.017619,317.841736,123.043236,0.063864,-0.000038,18.916153,0.000252,-0.001008,0.000126,0,0,0
12.164645,297.253204,298.446655,12,40,0,0,300.000153,300,58.994499,0.000033,0.011757,317.840698,123.384048,0.06393,-0.000027,6.788593,0.000252,-0.001008,0.000126,0,0,0
12.214508,297.253357,298.446808,12,40,0,0,300.000153,300,58.994541,0.000032,0.009044,317.839691,123.681976,0.063938,-0.000003,8.213621,0.000252,-0.001008,0.000126,0,0,0
12.266163,297.25351,298.44696,12,40,0,0,300.000153,300,58.994579,0.000031,0.008307,317.838654,123.943169,0.063889,0.000025,9.263032,0.000252,-0.001008,0.000126,0,0,0
12.315813,297.253632,298.447083,12,40,0,0,300.000153,300,58.994614,0.000031,0.007135,317.837677,124.149864,0.063822,0.000052,10.028939,0.000252,-0.001008,0.000126,0,0,0
12.36397,297.253723,298.447174,12,40,0,0,300.000153,300,58.994644,0.00003,0.007135,317.8367,124.306305,0.063725,0.000076,10.61283,0.000252,-0.001008,0.000126,0,0,0
12.415513,297.253815,298.447266,12,40,0,0,300.000153,300,58.994675,0.000029,0.007336,317.835693,124.426674,0.063603,0.000099,11.117767,0.000252,-0.001008,0.000126,0,0,0
12.465268,297.253876,298.447327,12,40,0,0,300.000153,300,58.994705,0.000028,0.007436,317.834686,124.497887,0.063464,0.000119,11.52194,0.000252,-0.001008,0.000126,0,0,0
12.515015,297.253937,298.447388,12,40,0,0,300.000153,300,58.994736,0.000028,0.007436,317.83371,124.525902,0.063329,0.000136,11.865399,0.000252,-0.001008,0.000126,0,0,0
12.564755,297.253998,298.447449,12,40,0,0,300.000153,300,58.99477,0.000027,0.007436,317.832703,124.512505,0.063169,0.000152,12.163623,0.000252,-0.001008,0.000126,0,0,0
12.614489,297.254059,298.447479,12,40,0,0,300.000153,300,58.994801,0.000026,0.007604,317.831726,124.4599,0.063025,0.000166,12.427879,0.000252,-0.001008,0.000126,0,0,0
12.664224,297.254089,298.44754,12,40,0,0,300.000153,300,58.994831,0.000026,0.007604,317.830719,124.370644,0.062851,0.000179,12.66623,0.000252,-0.001008,0.000126,0,0,0
12.713968,297.25415,298.447571,12,40,0,0,300.000153,300,58.994865,0.000025,0.007637,317.829742,124.247643,0.062697,0.000191,12.884585,0.000252,-0.001008,0.000126,0,0,0
12.763534,297.254181,298.447632,12,40,0,0,300.000153,300,58.994896,0.000024,0.007269,317.828735,124.094055,0.062516,0.000201,13.087784,0.000252,-0.001008,0.000126,0,0,0
12.811599,297.254211,298.447662,12,40,0,0,300.000153,300,58.994926,0.000024,0.007503,317.827789,123.919685,0.062355,0.00021,13.273082,0.000252,-0.001008,0.000126,0,0,0
12.863141,297.254272,298.447693,12,40,0,0,300.000153,300,58.994961,0.000023,0.007805,317.826752,123.708801,0.062167,0.000218,13.46187,0.000252,-0.001008,0.000126,0,0,0
12.912861,297.254303,298.447754,12,40,0,0,300.000153,300,58.994995,0.000023,0.007905,317.825775,123.484344,0.062002,0.000226,13.637511,0.000252,-0.001008,0.000126,0,0,0
12.960767,297.254333,298.447784,12,40,0,0,300.000153,300,58.995026,0.000022,0.007637,317.824799,123.251869,0.061831,0.000233,13.802089,0.000252,-0.001008,0.000126,0,0,0
13.010509,297.254364,298.447815,12,40,0,0,300.000153,300,58.99506,0.000022,0.007637,317.823822,122.99897,0.061635,0.000239,13.968035,0.000252,-0.001008,0.000126,0,0,0
13.053682,297.254395,298.447845,12,40,0,0,300.000153,300,58.995094,0.000021,0.007068,317.822815,122.728302,0.061428,0.000245,14.135857,0.000252,-0.001008,0.000126,0,0,0
13.053881,297.254425,298.447876,12,40,0,0,300.000153,300,58.995113,0.000021,0.003048,317.821838,122.470016,0.06121,0.000239,14.284623,0.000252,-0.001008,0.000126,0,0,0
13.053892,297.254456,298.447906,12,40,0,0,300.000153,300,58.995121,0.00002,0.00134,317.820801,122.201126,0.061047,0.000219,14.417141,0.000252,-0.001008,0.000126,0,0,0
13.053909,297.254486,298.447937,12,40,0,0,300.000153,300,58.995125,0.00002,0.000737,317.819733,121.924988,0.060918,0.000196,14.528296,0.000252,-0.001008,0.000126,0,0,0
13.053924,297.254517,298.447968,12,40,0,0,300.000153,300,58.995125,0.000019,0.000134,317.818695,121.662689,0.060821,0.000174,14.613689,0.000252,-0.001008,0.000126,0,0,0
13.053936,297.254517,298.447968,12,40,0,0,300.000153,300,58.995125,0.000019,0.000067,317.817657,121.408234,0.060759,0.000154,14.6806,0.000252,-0.001008,0.000126,0,0,0
13.053946,297.254547,298.447998,12,40,0,0,300.000153,300,58.995129,0.000018,0,317.81662,121.16433,0.060704,0.000136,14.7328,0.000252,-0.001008,0.000126,0,0,0
13.053955,297.254547,298.447998,12,40,0,0,300.000153,300,58.995129,0.000018,0.000067,317.815582,120.933456,0.060667,0.00012,14.773446,0.000252,-0.001008,0.000126,0,0,0
13.053962,297.254547,298.447998,12,40,0,0,300.000153,300,58.995129,0.000017,0,317.814514,120.717773,0.060634,0.000106,14.805059,0.000252,-0.001008,0.000126,0,0,0
13.053967,297.254547,298.447998,12,40,0,0,300.000153,300,58.995129,0.000017,0,317.813477,120.51918,0.060612,0.000093,14.829633,0.000252,-0.001008,0.000126,0,0,0
13.05397,297.254578,298.447998,12,40,0,0,300.000153,300,58.995129,0.000016,0,317.812439,120.339264,0.060592,0.000082,14.848735,0.000252,-0.001008,0.000126,0,0,0
13.053973,297.254578,298.448029,12,40,0,0,300.000153,300,58.995129,0.000016,0,317.811401,120.179291,0.060579,0.000073,14.863586,0.000252,-0.001008,0.000126,0,0,0
13.053975,297.254578,298.448029,12,40,0,0,300.000153,300,58.995129,0.000016,0,317.810364,120.040253,0.060567,0.000064,14.875131,0.000252,-0.001008,0.000126,0,0,0
13.053977,297.254578,298.448029,12,40,0,0,300.000153,300,58.995129,0.000015,-0.000033,317.809326,119.922821,0.060559,0.000056,14.884106,0.000252,-0.001008,0.000126,0,0,0
13.053979,297.254578,298.448029,12,40,0,0,300.000153,300,58.995129,0.000015,0,317.808289,119.82737,0.060552,0.00005,14.89109,0.000252,-0.001008,0.000126,0,0,0.319368
13.053867,297.254578,298.448029,12,40,0,0,300.000153,300,58.995129,0.000014,0.000268,317.80722,119.75399,0.06054,0.000043,14.896535,0.000252,-0.001008,0.000126,0,0,93.790672
13.053778,297.254578,298.448029,11.999454,39.998184,0,0,300.000153,300,58.995132,0.000014,0.001574,317.806183,119.702507,0.060544,0.000033,14.902702,0.000252,-0.001008,0.000126,0,0,171.71814
13.05446,297.254578,298.448029,11.674105,38.913681,0,0,300.000153,300,58.995132,0.000014,-0.001239,317.805145,119.672485,0.060519,0.000027,14.912308,0.000252,-0.001008,0.000126,0,0,240.569275
13.05556,297.254578,298.448029,11.139752,37.132507,0,0,300.000153,300,58.995113,0.000013,-0.007972,317.804108,119.663208,0.060505,0.000014,14.912568,0.000252,-0.001008,0.000126,0,0,298.83197
13.056352,297.254578,298.448029,10.51669,35.055634,0.000001,0,300.000153,300,58.995068,0.000013,-0.013465,317.803101,119.673668,0.060546,0.000001,14.880402,0.000252,-0.001008,0.000126,0,0,347.769073
13.056641,297.254547,298.447998,9.83111,32.77034,0.000008,-0.000001,300.000153,300,58.995007,0.000013,-0.015442,317.802094,119.702591,0.060619,-0.000009,14.800808,0.000252,-0.001008,0.000126,0,0,388.627197
13.056671,297.254517,298.447968,9.105389,30.351088,0.00006,-0.00001,300.000153,300,58.994938,0.000012,-0.015844,317.801086,119.748512,0.060694,-0.000017,14.673937,0.000252,-0.001008,0.000126,0,0,422.402771
13.056589,297.254486,298.447937,8.358529,27.860645,0.000321,-0.000051,300.000153,300,58.994877,0.000012,-0.01504,317.80011,119.809822,0.060784,-0.000024,14.508999,0.000252,-0.001008,0.000126,0,0,449.924988
13.056456,297.254456,298.447876,7.606882,25.351696,0.00131,-0.00021,300.000153,300,58.99482,0.000012,-0.01293,317.799072,119.884827,0.060871,-0.000032,14.317533,0.000252,-0.001008,0.000126,0,0,472.017151
13.056971,297.254395,298.447845,6.838204,22.778534,0.00443,-0.000713,300.000153,300,58.99477,0.000012,-0.012126,317.798065,119.971771,0.060891,-0.000043,14.111224,0.000252,-0.001008,0.000126,0,0,550.607971
13.05973,297.254364,298.447784,5.981822,19.891178,0.013798,-0.002234,300.000153,300,58.99469,0.000083,-0.027366,317.797028,120.068787,0.060901,-0.000084,13.886936,0.000252,-0.001008,0.000126,0,0,648.329712
13.061642,297.254272,298.447723,5.108008,16.884914,0.040542,-0.006639,300.000153,300,58.994541,0.000219,-0.041334,317.796051,120.173828,0.061145,-0.00013,13.588374,0.000252,-0.001008,0.000126,0,0,713.21228
13.061738,297.254211,298.447632,4.298376,13.944714,0.109504,-0.018194,300.000153,300,58.994362,0.000362,-0.043813,317.795105,120.284691,0.061482,-0.000158,13.165941,0.000252,-0.001008,0.000126,0,0,750.68103
13.060571,297.254089,298.44754,3.636578,11.188996,0.266414,-0.044885,300.000153,300,58.99419,0.000474,-0.036377,317.794159,120.39917,0.061883,-0.000166,12.621443,0.000252,-0.001008,0.000126,0,0,767.041626
13.05892,297.253967,298.447418,3.208915,8.682077,0.574907,-0.097947,300.000153,300,58.994064,0.000514,-0.023782,317.793182,120.515221,0.062196,-0.000158,11.999994,0.000252,-0.001008,0.000126,0,0,768.091675
13.05733,297.253845,298.447296,3.072769,6.453384,1.081081,-0.185576,300.000153,300,58.993996,0.000501,-0.010953,317.792175,120.63105,0.062481,-0.000141,11.36692,0.000252,-0.001008,0.000126,0,0,758.783203
13.056054,297.253754,298.447205,3.181303,4.523204,1.734674,-0.298893,300.000153,300,58.993973,0.000489,-0.000335,317.791138,120.745117,0.062659,-0.000119,10.78616,0.000252,-0.001008,0.000126,0,0,743.07605
13.055155,297.253662,298.447113,3.339363,2.920536,2.342121,-0.403606,300.000153,300,58.993988,0.000477,0.007034,317.79007,120.856117,0.062785,-0.000095,10.308205,0.000252,-0.001008,0.000126,0,0,723.997986
13.054589,297.253632,298.447052,3.341325,1.666073,2.702248,-0.464183,300.000153,300,58.99403,0.000465,0.011389,317.789001,120.962952,0.062837,-0.000072,9.962257,0.000252,-0.001008,0.000126,0,0,703.779602
13.054843,297.253601,298.447021,3.185017,0.726915,2.822257,-0.482284,300.000153,300,58.99408,0.000453,0.012025,317.787933,121.064659,0.062777,-0.000054,9.75518,0.000252,-0.001008,0.000126,0,0.632822,720.989563
13.057771,297.253571,298.447021,2.994636,0.02806,2.840746,-0.484905,300.000153,300,58.994102,0.000442,-0.003651,317.786865,121.160385,0.062621,-0.000069,9.65743,0.000252,-0.001008,0.000126,0,0.917967,798.781555
13.072176,297.253571,298.446991,2.852603,-0.398804,2.826,-0.48748,300.000153,300,58.994057,0.000596,-0.007302,317.785797,121.249107,0.063656,-0.000132,9.556713,0.000252,-0.001008,0.000126,0,1,934.602722
13.134434,297.25354,298.446991,2.821393,-0.493012,2.821393,-0.493012,300.000153,300,58.994122,0.001716,0.041669,317.784546,121.329323,0.063346,-0.000294,9.461156,0.000252,-0.001008,0.000126,0,1,1110.416992
13.265087,297.253571,298.447021,2.840936,-0.50191,2.840936,-0.50191,300.000153,300,58.994423,0.005266,0.102465,317.782928,121.399406,0.064393,-0.000564,9.65695,0.000252,-0.001008,0.000126,0,1,1299.181396
13.477345,297.253693,298.447144,2.877672,-0.513534,2.877672,-0.513534,300.000153,300,58.994995,0.013077,0.170629,317.780945,121.458,0.06843,-0.000925,10.430709,0.000252,-0.001008,0.000126,0,1,1481.210327
13.776408,297.253937,298.447388,2.924406,-0.526759,2.924406,-0.526759,300.000153,300,58.995857,0.027151,0.239531,317.777008,121.504044,0.070796,-0.001612,11.906459,0.000252,-0.001008,0.000126,0,1,1644.378784
14.159857,297.254395,298.447815,2.975479,-0.540412,2.975479,-0.540412,300.000153,300,58.997021,0.049456,0.313021,317.770142,121.536812,0.072856,-0.002691,14.034251,0.000252,-0.001008,0.000126,0,1,1783.108154
14.619739,297.255005,298.448456,3.026645,-0.553542,3.026645,-0.553542,300.000153,300,58.998497,0.081769,0.388153,317.760162,121.555901,0.077815,-0.004123,16.686705,0.000252,-0.001008,0.000126,0,1,1896.577271
15.145152,297.25589,298.449341,3.074601,-0.565434,3.074601,-0.565434,300.000153,300,59.000298,0.125577,0.469314,317.74646,121.561211,0.078876,-0.005947,7.136689,0.000252,-0.001008,0.000126,0,1,1986.828247
15.72446,297.257019,298.45047,3.117404,-0.575675,3.117404,-0.575675,300.000153,300,59.002426,0.182049,0.550441,317.728058,121.552933,0.078245,-0.008265,13.95512,0.000252,-0.001008,0.000126,0,1,2057.231201
16.346735,297.258423,298.451843,3.154277,-0.58414,3.154277,-0.58414,300.000153,300,59.004898,0.252044,0.634751,317.704346,121.531464,0.07793,-0.011105,5.936682,0.000252,-0.001008,0.000126,0,1,2111.462158
17.002464,297.260101,298.453552,3.185438,-0.59093,3.185438,-0.59093,300.000153,300,59.007732,0.336151,0.729544,317.675049,121.497368,0.077627,-0.014456,15.878798,0.000252,-0.001008,0.000126,0,1,2152.937744
17.683722,297.262115,298.455566,3.213094,-0.596248,3.213094,-0.596248,300.000153,300,59.010971,0.434731,0.82263,317.640045,121.451317,0.077268,-0.018272,13.117668,0.000252,-0.001008,0.000126,0,1,2184.573242
18.384115,297.264496,298.457916,3.235999,-0.598828,3.235999,-0.598828,300.000153,300,59.014694,0.547963,0.941239,317.599213,121.394104,0.076824,-0.022486,11.697854,0.000252,-0.001008,0.000126,0,1,2208.72876
19.09902,297.267212,298.460663,3.255087,-0.599645,3.255087,-0.599645,300.000153,300,59.018829,0.67589,1.03955,317.552704,121.326599,0.075939,-0.027054,12.094213,0.000252,-0.001008,0.000126,0,1,2227.25293
19.824636,297.270355,298.463776,3.271384,-0.599872,3.271384,-0.599872,300.000153,300,59.023418,0.818453,1.171994,317.500885,121.249687,0.074372,-0.0319,14.295993,0.000252,-0.001008,0.000126,0,1,2241.562012
20.558023,297.273895,298.467346,3.284126,-0.601469,3.284126,-0.601469,300.000153,300,59.028526,0.975509,1.275597,317.444366,121.164291,0.072813,-0.036942,17.807125,0.000252,-0.001008,0.000126,0,1,2252.727051
21.297184,297.277863,298.471313,3.295062,-0.602852,3.295062,-0.602852,300.000153,300,59.034065,1.146865,1.380808,317.383545,121.071281,0.070932,-0.042052,12.068571,0.000252,-0.001008,0.000126,0,1,2261.549561
22.040466,297.282257,298.475708,3.304893,-0.603876,3.304893,-0.603876,300.000153,300,59.040051,1.332284,1.487057,317.318909,120.971527,0.069098,-0.047151,19.214581,0.000252,-0.001008,0.000126,0,1,2268.627441
22.78664,297.287109,298.48056,3.313906,-0.604636,3.313906,-0.604636,300.000153,300,59.046474,1.531504,1.593139,317.250885,120.865906,0.066802,-0.052165,17.410078,0.000252,-0.001008,0.000126,0,1,2274.404785
23.534704,297.292419,298.48587,3.322343,-0.605223,3.322343,-0.605223,300.000153,300,59.053337,1.744241,1.698652,317.180054,120.75528,0.06465,-0.057018,17.30764,0.000252,-0.001008,0.000126,0,1,2279.211426
24.283995,297.298157,298.491608,3.330379,-0.605708,3.330379,-0.605708,300.000153,300,59.060642,1.970197,1.804064,317.107025,120.640511,0.062075,-0.061642,18.698587,0.000252,-0.001008,0.000126,0,1,2283.29248
25.033943,297.304352,298.497772,3.338148,-0.606133,3.338148,-0.606133,300.000153,300,59.068386,2.209069,1.908103,317.032349,120.52243,0.059762,-0.06597,10.492743,0.000252,-0.001008,0.000126,0,1,2286.830078
25.784119,297.310974,298.504425,3.345753,-0.606543,3.345753,-0.606543,300.000153,300,59.076561,2.460547,2.012778,316.956635,120.401871,0.057105,-0.069943,16.805349,0.000252,-0.001008,0.000126,0,1,2289.960205
26.534195,297.318054,298.511505,3.353272,-0.606965,3.353272,-0.606965,300.000153,300,59.085171,2.724322,2.116749,316.880493,120.279633,0.054813,-0.073507,12.319062,0.000252,-0.001008,0.000126,0,1,2292.783691
27.283909,297.325592,298.519043,3.360756,-0.607422,3.360756,-0.607422,300.000153,300,59.094208,3.000083,2.21841,316.804565,120.156502,0.052289,-0.076616,9.309759,0.000252,-0.001008,0.000126,0,1,2295.376953
28.033058,297.333557,298.527008,3.368256,-0.607935,3.368256,-0.607935,300.000153,300,59.103668,3.287522,2.319936,316.729431,120.033234,0.050205,-0.079229,8.050715,0.000252,-0.001008,0.000126,0,1,2297.796387
28.781477,297.34198,298.535431,3.375792,-0.60851,3.375792,-0.60851,300.000153,300,59.113556,3.586335,2.421161,316.65564,119.910576,0.04802,-0.081315,9.940309,0.000252,-0.001008,0.000126,0,1,2300.084717
29.529036,297.35083,298.544281,3.383386,-0.609158,3.383386,-0.609158,300.000153,300,59.123859,3.89622,2.52175,316.583801,119.789223,0.046318,-0.082849,14.718378,0.000252,-0.001008,0.000126,0,1,2302.273926
30.275621,297.360138,298.553589,3.391052,-0.609889,3.391052,-0.609889,300.000153,300,59.134583,4.21688,2.621367,316.514404,119.669876,0.044658,-0.083814,19.009001,0.000252,-0.001008,0.000126,0,1,2304.388428
31.021145,297.369873,298.563324,3.398798,-0.610701,3.398798,-0.610701,300.000153,300,59.145721,4.548025,2.721018,316.447968,119.553185,0.043486,-0.084199,15.293583,0.000252,-0.001008,0.000126,0,1,2306.446045
31.765532,297.380066,298.573517,3.406629,-0.611596,3.406629,-0.611596,300.000153,300,59.157272,4.889365,2.820668,316.384918,119.439781,0.042504,-0.084004,12.814954,0.000252,-0.001008,0.000126,0,1,2308.460938
32.508915,297.390656,298.584076,3.415501,-0.610441,3.415501,-0.610441,300.000153,300,59.169064,5.240622,2.814103,316.325653,119.330269,0.042359,-0.083172,10.701264,0.000252,-0.001008,0.000126,0,1,2310.443359
33.251118,297.401581,298.595032,3.422173,-0.602838,3.422173,-0.602838,300.000153,300,59.18082,5.601521,2.857882,316.270416,119.225258,0.042303,-0.081664,11.043396,0.000252,-0.001008,0.000126,0,1,2312.401367
33.992355,297.412811,298.606262,3.424397,-0.594835,3.424397,-0.594835,300.000153,300,59.192863,5.971796,2.850478,316.219757,119.125366,0.041869,-0.079606,13.141499,0.000252,-0.001008,0.000126,0,1,2314.341064
34.732445,297.424316,298.617737,3.431357,-0.59485,3.431357,-0.59485,300.000153,300,59.204868,6.351183,2.927285,316.17395,119.03112,0.041275,-0.077214,16.551502,0.000252,-0.001008,0.000126,0,1,2316.266846
35.471031,297.436035,298.629486,3.439842,-0.596,3.439842,-0.596,300.000153,300,59.21727,6.739424,3.021074,316.133301,118.942978,0.041637,-0.074316,19.683489,0.000252,-0.001008,0.000126,0,1,2318.182129
36.20813,297.448059,298.641479,3.448319,-0.597333,3.448319,-0.597333,300.000153,300,59.230049,7.136264,3.111948,316.097809,118.861374,0.042751,-0.07095,12.228408,0.000252,-0.001008,0.000126,0,1,2320.089355
36.894733,297.459534,298.652985,3.456196,-0.598588,3.456196,-0.598588,300.000153,300,59.242321,7.514186,3.195621,316.069366,118.791466,0.044203,-0.067432,14.365894,0.000252,-0.001008,0.000126,0,1,2321.864014
37.677769,297.472961,298.666412,3.465203,-0.599983,3.465203,-0.599983,300.000153,300,59.256744,7.954747,3.292726,316.042328,118.719337,0.046317,-0.063026,13.800425,0.000252,-0.001008,0.000126,0,1,2323.887207
38.410217,297.485931,298.679382,3.47461,-0.601252,3.47461,-0.601252,300.000153,300,59.270699,8.375904,3.412441,316.022186,118.659576,0.048506,-0.058584,9.560326,0.000252,-0.001008,0.000126,0,1,2325.780029
39.139984,297.499329,298.69278,3.503566,-0.601746,3.503566,-0.601746,300.000153,300,59.285633,8.804688,3.6783,316.007813,118.607758,0.051845,-0.053706,9.36099,0.005106,-0.01235,0.002553,0,1,2327.669678
39.867592,297.513275,298.706726,3.533899,-0.600277,3.533899,-0.600277,300.000153,300,59.301273,9.24086,3.759997,316.004883,118.564514,0.055922,-0.047457,10.282557,0.01235,0,0.006175,0,1,2329.555664
40.596039,297.52771,298.721161,3.517157,-0.598445,3.517157,-0.598445,300.000153,300,59.316986,9.684196,3.798919,316.023254,118.530319,0.062702,-0.038514,13.223088,0.018208,0,0.009104,0,1,2331.440674
41.322964,297.542572,298.736023,3.51212,-0.597969,3.51212,-0.597969,300.000153,300,59.333027,10.13448,3.900412,316.066254,118.505196,0.070784,-0.026812,18.544405,0.030488,0,0.015244,0,1,2333.325439
42.048336,297.557861,298.751312,3.515728,-0.595506,3.515728,-0.595506,300.000153,300,59.349537,10.591504,4.019624,316.137665,118.489403,0.084614,-0.011857,13.570759,0.030488,0,0.015244,0,1,2335.209473
42.772202,297.573608,298.767059,3.523473,-0.59165,3.523473,-0.59165,300.000153,300,59.366879,11.05506,4.247264,316.238708,118.483604,0.09933,0.00593,10.062181,0.030488,0,0.015244,0,1,2337.093506
43.49448,297.589935,298.783356,3.533334,-0.58955,3.533334,-0.58955,300.000153,300,59.384888,11.524949,4.258853,316.36087,118.488739,0.117933,0.024795,10.304505,0.030488,0,0.015244,0,1,2338.988281
44.215607,297.60675,298.800171,3.540923,-0.591381,3.540923,-0.591381,300.000153,300,59.402828,12.000978,4.364198,316.496918,118.505859,0.135159,0.043464,10.947222,0.030488,0,0.015244,0,1,2341.661865
44.935486,297.623993,298.817413,3.550098,-0.592684,3.550098,-0.592684,300.000153,300,59.421284,12.482962,4.490377,316.640686,118.535896,0.154628,0.061094,11.563581,0.030488,0,0.015244,0,1,2345.227051
45.654629,297.641693,298.835114,3.559394,-0.592748,3.559394,-0.592748,300.000153,300,59.440269,12.970733,4.618466,316.786774,118.57975,0.17036,0.076998,15.942605,0.030488,0,0.015244,0,1,2349.341309
46.373314,297.659851,298.853302,3.568676,-0.591427,3.568676,-0.591427,300.000153,300,59.459789,13.464137,4.747929,316.931,118.638145,0.185896,0.090727,10.097728,0.030488,0,0.015244,0,1,2353.793457
47.091724,297.678528,298.871979,3.577263,-0.587129,3.577263,-0.587129,300.000153,300,59.480015,13.963031,5.028526,317.070129,118.711609,0.197136,0.102091,18.856901,0.030488,0,0.015244,0,1,2358.454102
47.809441,297.697845,298.891296,3.588414,-0.571689,3.588414,-0.571689,300.000153,300,59.50148,14.467273,5.232316,317.201752,118.800461,0.206659,0.11117,18.877768,0.030488,0,0.015244,0,1,2363.244141
48.526596,297.717896,298.911346,3.601879,-0.561074,3.601879,-0.561074,300.000153,300,59.524025,14.976725,5.520885,317.323883,118.904915,0.211134,0.117536,10.829128,0.030488,0,0.015244,0,1,2368.114014
49.243664,297.738739,298.93219,3.610798,-0.555045,3.610798,-0.555045,300.000153,300,59.547302,15.491255,5.648137,317.435913,119.024849,0.213106,0.121475,17.777479,0.030488,0,0.015244,0,1,2373.034668
49.96059,297.760376,298.953827,3.619449,-0.548739,3.619449,-0.548739,300.000153,300,59.571121,16.010736,5.779207,317.537567,119.159721,0.212448,0.123322,12.485078,0.030488,0,0.015244,0,1,2377.989258
50.677299,297.782715,298.976135,3.628114,-0.542197,3.628114,-0.542197,300.000153,300,59.595486,16.535046,5.911349,317.628601,119.308701,0.209294,0.123293,20.80607,0.030488,0,0.015244,0,1,2382.966553
51.393742,297.805725,298.999176,3.636742,-0.53779,3.636742,-0.53779,300.000153,300,59.620403,17.064058,6.042352,317.708221,119.470718,0.204063,0.121337,11.221859,0.01235,0,0.006175,0,1,2387.960693
52.109783,297.829407,299.022858,3.64502,-0.542641,3.64502,-0.542641,300.000153,300,59.645859,17.597654,6.171077,317.760803,119.644394,0.194847,0.114999,16.304155,0.009075,0,0.004537,0,1,2392.967529
52.825172,297.853699,299.04715,3.652841,-0.542619,3.652841,-0.542619,300.000153,300,59.671844,18.135714,6.29739,317.782104,119.827904,0.183765,0.10466,11.862966,0.009075,0,0.004537,0,1,2397.984619
53.539295,297.878693,299.072144,3.664398,-0.538954,3.664398,-0.538954,300.000153,300,59.699188,18.678106,6.734683,317.778107,120.019081,0.167025,0.091711,21.336361,0.005106,0,0.002553,0,1,2403.008789
54.252281,297.904541,299.097961,3.672364,-0.535325,3.672364,-0.535325,300.000153,300,59.727501,19.224703,6.851215,317.752594,120.215561,0.149534,0.076953,12.157811,0.005106,0,0.002553,0,1,2408.038574
54.964268,297.931183,299.124603,3.679966,-0.529997,3.679966,-0.529997,300.000153,300,59.756298,19.775373,6.966576,317.711823,120.414726,0.12759,0.061649,11.94678,0.005106,0,0.002553,0,1,2413.07251
55.675182,297.958557,299.151978,3.687726,-0.524402,3.687726,-0.524402,300.000153,300,59.785572,20.329994,7.081132,317.662384,120.613876,0.10786,0.046862,12.51138,0.005106,0,0.002553,0,1,2418.110352
56.385044,297.986603,299.180054,3.695624,-0.519359,3.695624,-0.519359,300.000153,300,59.815319,20.888441,7.193847,317.609772,120.81031,0.086053,0.033353,13.034019,0.003087,0,0.001543,0,1,2423.151367
57.093903,298.015289,299.20874,3.703586,-0.51675,3.703586,-0.51675,300.000153,300,59.845528,21.450594,7.304116,317.556854,121.001419,0.068535,0.021343,13.521319,0.003087,0,0.001543,0,1,2428.195801
57.801792,298.044586,299.238037,3.711547,-0.514476,3.711547,-0.514476,300.000153,300,59.876194,22.016335,7.411705,317.505615,121.184746,0.050989,0.011029,13.979836,0.003087,0,0.001543,0,1,2433.243652
58.508858,298.074493,299.267914,3.71666,-0.506497,3.71666,-0.506497,300.000153,300,59.907692,22.58555,7.638005,317.458221,121.358017,0.038325,0.002704,14.466333,0.003087,0,0.001543,0,1,2438.295166
59.214748,298.105042,299.298492,3.725716,-0.495725,3.725716,-0.495725,300.000153,300,59.939941,23.158133,7.813055,317.415344,121.519295,0.026197,-0.003894,14.982097,0.001008,0,0.000504,0,1,2443.350586
59.919334,298.136292,299.329712,3.739036,-0.488432,3.739036,-0.488432,300.000153,300,59.972946,23.733971,8.068295,317.375153,121.667,0.017355,-0.009409,21.928057,0,0,0,0,1,2448.408936
60.623169,298.168243,299.361694,3.747019,-0.488473,3.747019,-0.488473,300.000153,300,60.006783,24.312963,8.170459,317.33725,121.799828,0.009487,-0.01406,12.625517,0,0,0,0,1,2453.470703
61.326218,298.200928,299.394348,3.754399,-0.48813,3.754399,-0.48813,300.000153,300,60.041058,24.895006,8.27845,317.302216,121.916603,0.004149,-0.017709,15.405505,0,0,0,0,1,2458.566162
62.028484,298.234222,299.427673,3.761883,-0.483294,3.761883,-0.483294,300.000153,300,60.07579,25.480005,8.390494,317.271149,122.016418,-0.000295,-0.020127,21.306396,0.01235,0,0.006175,0,1,2463.732666
62.730019,298.268158,299.461609,3.77115,-0.471853,3.77115,-0.471853,300.000153,300,60.110981,26.067863,8.498954,317.251648,122.09874,-0.003321,-0.020258,21.533678,0.01235,-0.003087,0.006175,0,1,2468.945801
63.43042,298.302673,299.496124,3.78691,-0.460538,3.78691,-0.460538,300.000153,300,60.146782,26.658497,8.638365,317.243988,122.163551,-0.005246,-0.018505,21.884851,0.018208,-0.000252,0.009104,0,1,2474.187988
64.131393,298.337769,299.531219,3.790356,-0.45154,3.790356,-0.45154,300.000153,300,60.182957,27.251822,8.728536,317.248108,122.211182,-0.005613,-0.015219,22.214405,0.018208,-0.000252,0.009104,0,1,2479.452881
64.832008,298.373413,299.566864,3.795866,-0.445333,3.795866,-0.445333,300.000153,300,60.21957,27.847763,8.84316,317.258362,122.242126,-0.004823,-0.011478,22.527143,0.018208,0,0.009104,0,1,2484.735352
65.532379,298.409576,299.603027,3.80097,-0.440125,3.80097,-0.440125,300.000153,300,60.256653,28.446253,8.955539,317.269165,122.257118,-0.00374,-0.008173,16.19738,0.018208,0,0.009104,0,1,2490.031982
66.231346,298.446259,299.639709,3.819622,-0.43517,3.819622,-0.43517,300.000153,300,60.29427,29.047218,9.122919,317.275208,122.25708,-0.002956,-0.006077,14.409413,0.018208,-0.003087,0.009104,0,1,2495.339355
66.929039,298.48349,299.676941,3.840835,-0.430075,3.840835,-0.430075,300.000153,300,60.332607,29.650583,9.26943,317.27121,122.243217,-0.003487,-0.005832,13.794449,0.018208,-0.003087,0.009104,0,1,2500.652344
67.625557,298.521393,299.714844,3.866228,-0.42783,3.866228,-0.42783,300.000153,300,60.373302,30.256262,10.580571,317.25589,122.216812,-0.005821,-0.007491,14.184227,0.018208,-0.003087,0.009104,0,1,2505.971436
68.315811,298.561127,299.754578,3.935755,-0.503482,3.935755,-0.503482,300.000153,300,60.423428,30.864145,13.73675,317.2276,122.179192,-0.011038,-0.013063,19.583336,0.018208,-0.003087,0.009104,0,1,2511.288818
68.996216,298.605316,299.798767,4.06019,-0.790898,4.06019,-0.790898,300.000153,300,60.49165,31.474075,19.770586,317.183929,122.131195,-0.01832,-0.025532,22.321438,0.018208,-0.003087,0.009104,0,1,2516.588867
69.66584,298.659576,299.853027,4.206502,-1.272074,4.206502,-1.272074,300.000153,300,60.605667,32.085808,36.095119,317.125946,122.071854,-0.020103,-0.043098,17.566923,0.018208,-0.003087,0.009104,0,1,2521.863281
70.316086,298.736908,299.930328,4.359101,-1.810432,4.359101,-1.810432,300.000153,300,60.805317,32.698967,59.825565,317.053986,121.998474,-0.018626,-0.062043,21.95558,0.018208,-0.003087,0.009104,0,1,2527.105713
70.939575,298.854584,300.048035,4.54279,-2.34672,4.54279,-2.34672,300.000153,300,61.113945,33.313103,88.035484,316.960449,121.908249,-0.015669,-0.082155,32.962132,0.018208,-0.003087,0.009104,0,1,2532.294189
71.530724,299.030548,300.223999,4.768912,-2.861565,4.768912,-2.861565,300.000153,300,61.548405,33.927692,120.047592,316.83432,121.799202,-0.011215,-0.104624,47.728374,0.018208,-0.003087,0.009104,0,1,2537.397949
72.081039,299.28244,300.475861,5.034692,-3.352412,5.034692,-3.352412,300.000153,300,62.123833,34.542038,155.499588,316.665466,121.670502,-0.006915,-0.130682,66.020897,0.018208,-0.003087,0.009104,0,1,2542.374512
72.581886,299.627106,300.820526,5.382422,-3.824948,5.382422,-3.824948,300.000153,300,62.853172,35.15527,194.201096,316.443298,121.522346,-0.002186,-0.161796,87.574875,0.018208,-0.01235,0.009104,0,1,2547.171875
73.016991,300.081421,301.274841,5.920582,-4.256849,5.920582,-4.256849,300.000153,300,63.761063,35.766327,242.49469,316.155365,121.356491,0.001677,-0.198533,112.446976,0.039368,-0.039368,0.019684,0,1,2551.716309
73.333527,300.667847,301.861298,7.042488,-4.447173,7.042488,-4.447173,300.000153,300,64.911201,36.373703,315.356415,315.787994,121.178551,0.004809,-0.237481,141.872452,0.100783,-0.077168,0.050392,0,1,2555.88208
73.461342,301.430328,302.623779,8.794816,-4.242564,8.794816,-4.242564,300.000153,300,66.489075,36.974483,448.337646,315.357697,121.004539,0.001087,-0.271951,180.039856,0.111111,-0.086236,0.055556,0,1,2559.398193
73.419922,302.456909,303.65036,10.464868,-3.864355,10.464868,-3.864355,300.000153,300,68.752235,37.563824,636.110229,314.927856,120.860023,-0.007504,-0.298058,233.255402,0.111111,-0.086236,0.055556,0,1,2562.145996
73.262589,303.863586,305.057037,11.34497,-3.460094,11.34497,-3.460094,300.000153,300,71.816078,38.136684,817.53479,314.57016,120.768852,-0.015769,-0.307795,303.457611,0.127569,-0.01235,0.063784,0,1,2564.194092
73.072708,305.731262,306.924713,11.248828,-2.918275,11.248828,-2.918275,310.000153,310,75.460014,38.691654,914.259644,314.361786,120.743027,-0.024772,-0.289707,384.595734,0.127569,-0.009075,0.063784,0,1,2565.822998
72.834938,308.052094,309.245544,11.308132,-2.199195,11.308132,-2.199195,310.000153,310,79.366714,39.230495,955.883545,314.25116,120.785034,-0.032303,-0.254668,466.589844,0.14514,-0.009075,0.07257,0,1,2567.038574
72.57756,310.768982,311.962433,11.632468,-1.264212,11.632468,-1.264212,310.000153,310,83.422256,39.75391,990.072327,314.224579,120.89991,-0.040128,-0.205588,543.582886,0.14514,-0.009075,0.07257,0,1,2567.813721
72.308228,313.826385,315.019836,12.028644,-0.207866,12.028644,-0.207866,310.000153,310,87.629593,40.261383,1028.951172,314.267914,121.097984,-0.045617,-0.148785,614.259827,0.14514,-0.009075,0.07257,0,1,2568.179688
72.021561,317.187378,318.380798,12.484438,0.769887,12.484438,0.769887,320.000153,320,92.004623,40.75222,1070.252197,314.350067,121.391716,-0.052337,-0.095703,679.447937,0.077168,-0.030488,0.038584,0,1,2568.19165
71.68158,320.824005,322.017456,13.212865,1.298461,13.212865,1.298461,320.000153,320,96.577209,41.225475,1125.862915,314.405609,121.792297,-0.054338,-0.064325,740.042725,0.0567,-0.030488,0.02835,0,1,2567.825195
71.284836,324.727661,325.921082,13.988449,1.409018,13.988449,1.409018,320.000153,320,101.411942,41.679478,1194.110352,314.414429,122.305954,-0.053506,-0.053632,797.689087,0.039368,-0.04593,0.019684,0,1,2567.05835
70.793152,328.904144,330.097595,14.998608,1.222719,14.998608,1.222719,330.000153,330,106.55941,42.112389,1277.314819,314.386414,122.932571,-0.052544,-0.056662,854.090576,0.030488,-0.0567,0.015244,0,1,2565.834473
70.203957,333.372192,334.565643,16.06138,0.833211,16.06138,0.833211,330.000153,330,112.090042,42.521713,1376.360474,314.32901,123.668129,-0.052053,-0.068422,910.922363,0.030488,-0.064509,0.015244,0,1,2564.087891
69.520172,338.161194,339.354645,17.105122,0.331357,17.105122,0.331357,340.000153,340,118.062599,42.904846,1487.464478,314.260437,124.505112,-0.05228,-0.082918,969.727112,0.030488,-0.064509,0.015244,0,1,2561.811523
68.79921,343.304138,344.497559,17.612064,-0.113971,17.612064,-0.113971,340.000153,340,124.489883,43.259857,1585.9646,314.215271,125.432587,-0.050293,-0.089189,1031.555786,0.086236,-0.009075,0.043118,0,1,2559.080811
68.115974,348.811279,350.00473,17.407553,-0.162641,17.407553,-0.162641,350.000153,350,131.205658,43.588493,1627.688232,314.282013,126.434845,-0.051826,-0.067527,1095.786255,0.086236,-0.005106,0.043118,0,1,2556.170898
67.449165,354.642914,355.836365,17.27087,0.055502,17.27087,0.055502,350.000153,350,138.006363,43.894474,1632.675781,314.445313,127.495056,-0.052231,-0.027361,1159.576782,0.100783,-0.005106,0.050392,0,1,2553.150879
66.807213,360.733368,361.926788,17.31061,0.493461,17.31061,0.493461,360.000153,360,144.79512,44.180088,1625.503662,314.669464,128.600601,-0.05086,0.02214,1219.984375,0.100783,-0.005106,0.050392,0,1,2550.012207
66.193291,367.018768,368.212219,17.405579,1.043741,17.405579,1.043741,370.000153,370,151.549622,44.446243,1616.858887,314.912445,129.74353,-0.046774,0.070925,1275.209839,0.100783,-0.005106,0.050392,0,1,2546.766357
65.591469,373.447266,374.640686,17.594625,1.649257,17.594625,1.649257,370.000153,370,158.266098,44.693333,1608.310303,315.148682,130.918243,-0.042288,0.113948,1324.527466,0.100783,-0.018208,0.050392,0,1,2543.423096
64.989983,379.979431,381.172882,17.857548,2.266201,17.857548,2.266201,380.000153,380,164.962646,44.921227,1607.172607,315.361237,132.120804,-0.038081,0.148214,1367.906372,0.100783,-0.005106,0.050392,0,1,2539.95459
64.41996,386.590057,387.783508,17.835083,2.823771,17.835083,2.823771,390.000153,390,171.655045,45.129807,1603.04187,315.53653,133.34726,-0.037765,0.170681,1405.838135,0.04593,-0.003087,0.022965,0,1,2536.414795
63.890392,393.256378,394.449829,17.616352,3.014529,17.616352,3.014529,390.000153,390,178.297836,45.320316,1583.521973,315.652435,134.589783,-0.037137,0.17236,1438.713745,0.039368,-0.001008,0.019684,0,1,2532.902344
63.394016,399.947266,401.140717,17.421783,2.918759,17.421783,2.918759,400.000153,400,184.82869,45.494587,1551.185791,315.733795,135.834061,-0.036371,0.162184,1466.439575,0.030488,-0.01235,0.015244,0,1,2529.454834
62.907631,406.627441,407.820862,17.458723,2.641794,17.458723,2.641794,410.000153,410,191.221832,45.65377,1519.986084,315.806244,137.062668,-0.036247,0.147869,1488.736572,0.030488,-0.018208,0.015244,0,1,2526.031494
62.424435,413.269897,414.463348,17.615463,2.264857,17.615463,2.264857,410.000153,410,197.503967,45.797913,1497.833252,315.877014,138.258621,-0.037288,0.132756,1505.666992,0.030488,-0.025198,0.015244,0,1,2522.585693
61.946228,419.861664,421.055115,17.741175,1.8242,17.741175,1.8242,420.000153,420,203.71167,45.926727,1482.907959,315.950592,139.405914,-0.03882,0.118451,1517.766357,0.030488,-0.025198,0.015244,0,1,2519.109131
61.480732,426.398895,427.592346,17.74884,1.349199,17.74884,1.349199,430.000153,430,209.858673,46.040314,1467.581665,316.034424,140.488937,-0.039514,0.106771,1525.771973,0.030488,-0.025198,0.015244,0,1,2515.635254
61.031219,432.878571,434.072021,17.671476,0.866717,17.671476,0.866717,430.000153,430,215.932388,46.139339,1447.569214,316.133636,141.492325,-0.038711,0.098733,1530.279663,0.030488,-0.025198,0.015244,0,1,2512.197754
60.601532,439.294128,440.487579,17.547718,0.405311,17.547718,0.405311,440.000153,440,221.911377,46.224735,1422.354858,316.245026,142.401733,-0.035531,0.094185,1531.625,0.0567,-0.025198,0.02835,0,1,2508.81958
60.213833,445.635742,446.829193,17.231308,0.142928,17.231308,0.142928,440.000153,440,227.775223,46.297535,1391.254517,316.38324,143.204697,-0.030036,0.099533,1529.942383,0.077168,-0.005106,0.038584,0,1,2505.537842
59.895401,451.888824,453.082275,16.630301,0.11356,16.630301,0.11356,450.000153,450,233.474594,46.359447,1342.936646,316.557068,143.891251,-0.025579,0.11517,1525.141724,0.077168,-0.003087,0.038584,0,1,2502.454346
59.638645,458.027191,459.220642,16.01104,0.225321,16.01104,0.225321,460.000153,460,238.938217,46.412769,1280.056519,316.74707,144.453857,-0.019795,0.134402,1516.674561,0.077168,-0.003087,0.038584,0,1,2499.61377
59.444576,464.017059,465.21051,15.440096,0.411679,15.440096,0.411679,460.000153,460,244.124878,46.459301,1211.365601,316.927887,144.88829,-0.013874,0.15138,1503.760498,0.077168,-0.001008,0.038584,0,1,2497.016113
59.319187,469.826294,471.019745,14.859976,0.635121,14.859976,0.635121,470.000153,470,249.020004,46.500381,1140.246094,317.082916,145.193115,-0.006886,0.16304,1485.753662,0.086236,-0.01235,0.043118,0,1,2494.678955
59.23967,475.42746,476.620911,14.493974,0.903412,14.493974,0.903412,470.000153,470,253.617371,46.537193,1070.477173,317.209442,145.36911,-0.002831,0.169788,1462.233154,0.0567,-0.01235,0.02835,0,1,2492.603271
59.193798,480.802094,481.995544,14.258767,0.984698,14.258767,0.984698,480.000153,480,257.95639,46.570148,1015.075562,317.270996,145.420547,-0.001234,0.160128,1433.139404,0.030488,-0.030488,0.015244,0,1,2490.733154
59.174007,485.947021,487.140472,14.073525,0.786382,14.073525,0.786382,490.000153,490,262.082733,46.5994,969.312866,317.253967,145.351395,0.000956,0.132993,1398.99707,0.025198,-0.030488,0.012599,0,1,2489.070313
59.179955,490.869873,492.063324,13.844479,0.405013,13.844479,0.405013,490.000153,490,266.043793,46.625069,933.974792,317.177765,145.162949,0.002305,0.095857,1360.692139,0.025198,-0.030488,0.012599,0,1,2487.614014
59.207687,495.58551,496.778961,13.547829,-0.084924,13.547829,-0.084924,500.000153,500,269.862,46.647575,899.612793,317.069489,144.854645,0.001978,0.055854,1319.312622,0.025198,-0.030488,0.012599,0,1,2486.378418
