airspeed_indicator_indicated_speed_kt,altimeter_indicated_altitude_ft,altimeter_pressure_alt_ft,attitude_indicator_indicated_pitch_deg,attitude_indicator_indicated_roll_deg,attitude_indicator_internal_pitch_deg,attitude_indicator_internal_roll_deg,encoder_indicated_altitude_ft,encoder_pressure_alt_ft,gps_indicated_altitude_ft,gps_indicated_ground_speed_kt,gps_indicated_vertical_speed,indicated_heading_deg,magnetic_compass_indicated_heading_deg,slip_skid_ball_indicated_slip_skid,turn_indicator_indicated_turn_rate,vertical_speed_indicator_indicated_speed_fpm,flight_aileron,flight_elevator,flight_rudder,flight_flaps,engine_throttle,engine_rpm,Command_fault,Command
0.367423,-26.746717,-25.553272,3.06832,1.352032,2.716356,0.178818,-29.999857,-30.0,18.855347,4.0E-5,-1.0E-4,297.864838,14.231076,-0.046364,-0.033069,-7.751664,-0.0,0.0,0.0,0.0,0.0,607.018372,, takeoff
0.332332,-26.747761,-25.554317,3.073443,1.369196,2.716322,0.178794,-29.999857,-30.0,18.855345,3.9E-5,-6.7E-5,297.864014,13.830176,-0.046356,-0.029916,-14.150848,-0.0,0.0,0.0,0.0,0.0,607.015259,, takeoff
0.2859,-26.748983,-25.555538,2.883813,0.740303,2.71529,0.178561,-29.999857,-30.0,18.855343,3.8E-5,-0.00201,297.862732,13.242888,-0.046458,-0.025756,-4.821543,-0.01956,0.054326,4.1E-5,0.0,1.0,680.470764,, takeoff
0.259389,-26.749617,-25.556173,2.766822,0.376862,2.70694,0.177255,-29.999857,-30.0,18.855318,6.7E-5,-0.020198,297.861786,12.864761,-0.046603,-0.023361,-10.407265,-0.010576,0.054306,1.05E-4,0.0,1.0,794.076111,, takeoff
0.237986,-26.750395,-25.556952,2.63185,0.171743,2.63185,0.171743,-29.999857,-30.0,18.85503,6.4E-4,-0.05768,297.859894,12.323833,-0.04807,-0.02034,-14.586335,-0.005384,0.054139,1.53E-4,0.0,1.0,1018.837036,, takeoff
0.244151,-26.750837,-25.557394,2.587346,0.165321,2.587346,0.165321,-29.999857,-30.0,18.854944,0.002137,0.008709,297.858551,11.98378,-0.049677,-0.018637,-16.495691,-0.002453,0.052637,2.47E-4,0.0,1.0,1183.793457,, takeoff
0.360069,-26.751329,-25.557884,2.568678,0.152218,2.568678,0.152218,-29.999857,-30.0,18.855312,0.00841,0.140617,297.856445,11.509126,-0.048265,-0.016473,-18.384275,-0.002362,0.051747,3.14E-4,0.0,1.0,1426.083496,, takeoff
0.539981,-26.751492,-25.558046,2.574005,0.141901,2.574005,0.141901,-29.999857,-30.0,18.855942,0.016857,0.238559,297.85495,11.218693,-0.043095,-0.015255,-4.457236,-0.002175,0.051374,4.2E-4,0.0,1.0,1573.418213,, takeoff
0.946216,-26.751404,-25.557961,2.592329,0.12531,2.592329,0.12531,-29.999857,-30.0,18.857557,0.038688,0.410896,297.851105,10.825571,-0.033834,-0.013955,-2.850355,-0.002027,0.05148,4.94E-4,0.0,1.0,1763.414185,, takeoff
1.293508,-26.751074,-25.557629,2.606589,0.11438,2.606589,0.11438,-29.999857,-30.0,18.859148,0.060856,0.544311,297.845032,10.593518,-0.025188,-0.013749,6.026316,-0.00179,0.051847,6.87E-4,0.0,1.0,1867.777832,, takeoff
1.908535,-26.750072,-25.556627,2.626586,0.09947,2.626586,0.09947,-29.999857,-30.0,18.862423,0.107757,0.768936,297.831329,10.29262,-0.020517,-0.014185,13.061931,-0.001634,0.052132,9.9E-4,0.0,1.0,1992.571289,, takeoff
2.370298,-26.74901,-25.555567,2.638386,0.090773,2.638386,0.090773,-29.999857,-30.0,18.865271,0.149168,0.934875,297.817322,10.124277,-0.022486,-0.015173,17.694389,-0.001421,0.052532,0.001675,0.0,1.0,2057.020752,, takeoff
3.123501,-26.746723,-25.553278,2.652707,0.079905,2.652707,0.079905,-29.999857,-30.0,18.870642,0.227846,1.210749,297.790985,9.920756,-0.024618,-0.017253,16.656343,-0.001297,0.052768,0.002376,0.0,1.0,2130.566895,, takeoff
3.657326,-26.744677,-25.551233,2.660538,0.074072,2.660538,0.074072,-29.999857,-30.0,18.87501,0.291886,1.405361,297.77002,9.817665,-0.025591,-0.018973,14.49472,-0.001141,0.053054,0.003693,0.0,1.0,2167.048096,, takeoff
4.493218,-26.740728,-25.547283,2.669634,0.067242,2.669634,0.067242,-29.999857,-30.0,18.882814,0.405921,1.71185,297.736023,9.711091,-0.026671,-0.021581,7.284287,-0.001058,0.053211,0.004741,0.0,1.0,2207.294678,, takeoff
5.068096,-26.737457,-25.544012,2.674554,0.063739,2.674554,0.063739,-29.999857,-30.0,18.888887,0.494107,1.925086,297.712097,9.671237,-0.027179,-0.02328,11.996798,-9.61E-4,0.053393,0.006441,0.0,1.0,2226.586914,, takeoff
5.949009,-26.73151,-25.538067,2.680348,0.059736,2.680348,0.059736,-29.999857,-30.0,18.899347,0.644717,2.251807,297.677826,9.656244,-0.027759,-0.025211,15.679742,-9.11E-4,0.053491,0.007637,0.0,1.0,2247.111572,, takeoff
6.545155,-26.726812,-25.533369,2.683627,0.057687,2.683627,0.057687,-29.999857,-30.0,18.90724,0.757298,2.474087,297.656616,9.674658,-0.027957,-0.026068,13.680243,-8.53E-4,0.053607,0.009351,0.0,1.0,2256.498291,, takeoff
7.44807,-26.718603,-25.52516,2.687723,0.055268,2.687723,0.055268,-29.999857,-30.0,18.920477,0.944223,2.811929,297.630493,9.742017,-0.028018,-0.026269,15.843093,-8.24E-4,0.053673,0.010411,0.0,1.0,2265.857178,, takeoff
8.053777,-26.712326,-25.518881,2.690189,0.053968,2.690189,0.053968,-29.999857,-30.0,18.930246,1.080701,3.039501,297.617126,9.811552,-0.02782,-0.025744,19.776834,-7.9E-4,0.053754,0.011717,0.0,1.0,2269.707031,, takeoff
8.965363,-26.701656,-25.508213,2.6935,0.052307,2.6935,0.052307,-29.999857,-30.0,18.94632,1.302846,3.38163,297.604767,9.949367,-0.027203,-0.023824,8.226633,-7.71E-4,0.053804,0.012386,0.0,1.0,2272.874268,, takeoff
9.573955,-26.693689,-25.500246,2.695625,0.051368,2.695625,0.051368,-29.999857,-30.0,18.957987,1.462322,3.609135,297.601349,10.061476,-0.02656,-0.02194,9.172884,-7.47E-4,0.05387,0.013004,0.0,1.0,2273.671387,, takeoff
10.486588,-26.680429,-25.486986,2.69945,0.050117,2.69945,0.050117,-29.999857,-30.0,18.976955,1.718162,3.993637,297.602966,10.256251,-0.025327,-0.018392,11.733805,-7.34E-4,0.053913,0.013174,0.0,1.0,2273.437012,, takeoff
11.093475,-26.670664,-25.477221,2.707033,0.045276,2.707033,0.045276,-29.999857,-30.0,18.990976,1.899531,4.33677,297.607574,10.401611,-0.025068,-0.015869,19.551361,-7.16E-4,0.053989,0.013094,0.0,1.0,2272.562256,, takeoff
12.001492,-26.65451,-25.461067,2.71697,0.03465,2.71697,0.03465,-29.999857,-30.0,19.013725,2.187316,4.80749,297.618134,10.639198,-0.02273,-0.012027,9.137507,-6.47E-4,0.054141,0.012863,0.0,1.0,2270.47168,, takeoff
12.604754,-26.642693,-25.449247,2.719064,0.033698,2.719064,0.033698,-29.999857,-30.0,19.030149,2.389375,5.039149,297.626434,10.808496,-0.020953,-0.009446,15.472546,-4.95E-4,0.054339,0.012335,0.0,1.0,2268.688477,, takeoff
13.506894,-26.623383,-25.429939,2.720692,0.033773,2.720692,0.033773,-29.999857,-30.0,19.05625,2.707285,5.391595,297.638092,11.074883,-0.019379,-0.006146,18.671535,-4.81E-4,0.054381,0.01192,0.0,1.0,2265.59375,, takeoff
14.106188,-26.609474,-25.416031,2.722208,0.033982,2.722208,0.033982,-29.999857,-30.0,19.074636,2.928827,5.630255,297.644501,11.258462,-0.018743,-0.004425,20.586624,-4.82E-4,0.054414,0.011337,0.0,1.0,2263.401855,, takeoff
15.001694,-26.587082,-25.393639,2.725006,0.034758,2.725006,0.034758,-29.999857,-30.0,19.103695,3.275068,5.983839,297.650391,11.5389,-0.018305,-0.00273,14.179509,-4.85E-4,0.054444,0.011017,0.0,1.0,2261.812256,, takeoff
15.597075,-26.571146,-25.377701,2.727174,0.03547,2.727174,0.03547,-29.999857,-30.0,19.124056,3.514921,6.221192,297.651581,11.726999,-0.018392,-0.002156,14.924969,-4.97E-4,0.0545,0.010722,0.0,1.0,2261.740234,, takeoff
16.488623,-26.545742,-25.352299,2.730707,0.03668,2.730707,0.03668,-29.999857,-30.0,19.156073,3.887828,6.576552,297.649261,12.007121,-0.019012,-0.00204,17.700331,-5.07E-4,0.054543,0.010663,0.0,1.0,2262.531006,, takeoff
17.082285,-26.527815,-25.334372,2.733318,0.037467,2.733318,0.037467,-29.999857,-30.0,19.178406,4.144962,6.812566,297.645355,12.190431,-0.019659,-0.002335,12.736066,-5.24E-4,0.054614,0.010779,0.0,1.0,2263.443115,, takeoff
17.972036,-26.499443,-25.306,2.737436,0.038537,2.737436,0.038537,-29.999857,-30.0,19.213387,4.543096,7.168428,297.637421,12.456861,-0.020799,-0.003041,18.653332,-5.35E-4,0.054666,0.010974,0.0,1.0,2265.154541,, takeoff
18.564804,-26.479546,-25.286102,2.740403,0.03914,2.740403,0.03914,-29.999857,-30.0,19.237696,4.816605,7.406719,297.6315,12.626975,-0.021541,-0.003547,11.566408,-5.51E-4,0.054749,0.011371,0.0,1.0,2266.439209,, takeoff
19.453432,-26.448231,-25.254786,2.745,0.039767,2.745,0.039767,-29.999857,-30.0,19.27564,5.238661,7.760036,297.623596,12.868072,-0.022428,-0.004049,12.537241,-5.59E-4,0.054808,0.011667,0.0,1.0,2268.490234,, takeoff
20.045515,-26.426376,-25.232931,2.748262,0.040038,2.748262,0.040038,-29.999857,-30.0,19.301926,5.527705,7.999131,297.61969,13.017979,-0.022769,-0.004133,13.333261,-5.68E-4,0.0549,0.012062,0.0,1.0,2269.907227,, takeoff
20.93313,-26.392132,-25.198687,2.75323,0.040163,2.75323,0.040163,-29.999857,-30.0,19.342833,5.972462,8.354222,297.616943,13.224504,-0.022805,-0.003745,14.510612,-5.72E-4,0.054965,0.012257,0.0,1.0,2272.072998,, takeoff
21.524511,-26.368328,-25.174885,2.756719,0.040131,2.756719,0.040131,-29.999857,-30.0,19.37109,6.276247,8.591006,297.617371,13.348968,-0.022514,-0.003166,18.507847,-5.74E-4,0.055065,0.012395,0.0,1.0,2273.531982,, takeoff
22.412592,-26.331255,-25.137812,2.738223,0.040103,2.738223,0.040103,-29.999857,-30.0,19.413122,6.742551,7.712874,297.621338,13.514493,-0.021668,-0.001877,21.056488,-5.73E-4,0.055134,0.012373,0.0,1.0,2275.730957,, takeoff
23.006998,-26.30617,-25.112726,2.734997,0.039939,2.734997,0.039939,-29.999857,-30.0,19.43922,7.060365,7.94383,297.626099,13.610124,-0.020868,-8.01E-4,21.131874,-5.73E-4,0.054764,0.012175,0.0,1.0,2277.20166,, takeoff
23.897007,-26.268211,-25.074766,2.742704,0.039832,2.742704,0.039832,-29.999857,-30.0,19.479795,7.547225,8.271488,297.634003,13.730859,-0.019619,7.25E-4,15.509254,-5.71E-4,0.0547,0.011937,0.0,1.0,2279.4104,, takeoff
24.489523,-26.242544,-25.049099,2.747928,0.039933,2.747928,0.039933,-29.999857,-30.0,19.507729,7.878391,8.479599,297.638916,13.796071,-0.018932,0.00156,18.973511,-5.69E-4,0.054854,0.011542,0.0,1.0,2280.883545,, takeoff
25.375957,-26.203213,-25.009768,2.765674,0.035773,2.765674,0.035773,-29.999857,-30.0,19.552437,8.384738,9.355621,297.64386,13.871037,-0.018637,0.002166,13.382233,-5.7E-4,0.054959,0.011296,0.0,1.0,2283.092773,, takeoff
25.965515,-26.176104,-24.982658,2.770958,0.035922,2.770958,0.035922,-19.999857,-20.0,19.583982,8.728529,9.563733,297.645142,13.906039,-0.018301,0.002281,20.12995,-5.11E-4,0.055313,0.011049,0.0,1.0,2284.564697,, takeoff
26.849098,-26.134031,-24.940586,2.775661,0.036965,2.775661,0.036965,-19.999857,-20.0,19.632607,9.253284,9.880807,297.643738,13.936647,-0.01864,0.001921,20.441315,-5.13E-4,0.055419,0.010985,0.0,1.0,2286.771973,, takeoff
27.437538,-26.105057,-24.911612,2.7788,0.037848,2.7788,0.037848,-19.999857,-20.0,19.665869,9.609012,10.040584,297.640717,13.942877,-0.019305,0.001392,14.074843,-5.28E-4,0.055513,0.011055,0.0,1.0,2288.243164,, takeoff
28.32263,-26.060663,-24.867218,2.760132,0.039316,2.760132,0.039316,-19.999857,-20.0,19.712641,10.151212,9.156322,297.634491,13.931831,-0.020619,4.48E-4,14.284531,-5.41E-4,0.055576,0.011206,0.0,1.0,2290.450684,, takeoff
28.912548,-26.031015,-24.83757,2.763611,0.040092,2.763611,0.040092,-19.999857,-20.0,19.743546,10.518289,9.373443,297.62973,13.911485,-0.021549,-2.06E-4,22.740578,-5.62E-4,0.055203,0.011517,0.0,1.0,2291.923828,, takeoff
29.795792,-25.986101,-24.792658,2.772254,0.04106,2.772254,0.04106,-19.999857,-20.0,19.791204,11.07707,9.677554,297.622772,13.862809,-0.022814,-0.001037,16.748053,-5.73E-4,0.055272,0.011755,0.0,1.0,2294.134766,, takeoff
30.383629,-25.955805,-24.76236,2.777493,0.041574,2.777493,0.041574,-19.999857,-20.0,19.823805,11.454892,9.873841,297.618835,13.81915,-0.023453,-0.001405,19.153986,-5.87E-4,0.055445,0.012103,0.0,1.0,2295.609863,, takeoff
31.262709,-25.909531,-24.716087,2.796216,0.034938,2.796216,0.034938,-19.999857,-20.0,19.875851,12.029325,10.925316,297.615173,13.738569,-0.024496,-0.001716,19.470512,-5.94E-4,0.05555,0.0123,0.0,1.0,2297.823486,, takeoff
31.847025,-25.877712,-24.684267,2.802204,0.034534,2.802204,0.034534,-19.999857,-20.0,19.912594,12.417265,11.111889,297.614624,13.675982,-0.023961,-0.001499,19.994495,-4.99E-4,0.055924,0.012483,0.0,1.0,2299.299316,, takeoff
32.722485,-25.828457,-24.635012,2.80747,0.034365,2.80747,0.034365,-19.999857,-20.0,19.96891,13.006415,11.408898,297.616791,13.570848,-0.022813,-7.3E-4,20.736837,-4.93E-4,0.056044,0.012511,0.0,1.0,2301.513916,, takeoff
33.305676,-25.794662,-24.601219,2.800737,0.034597,2.800737,0.034597,-19.999857,-20.0,20.006718,13.403881,10.329857,297.620056,13.494454,-0.021065,3.1E-5,21.180954,-4.91E-4,0.056149,0.012402,0.0,1.0,2302.990967,, takeoff
34.183331,-25.743645,-24.550201,2.791432,0.037783,2.791432,0.037783,-19.999857,-20.0,20.057816,14.006957,10.334882,297.627045,13.3724,-0.0198,0.001369,21.129257,-4.94E-4,0.056015,0.012239,0.0,1.0,2305.208984,, takeoff
34.767174,-25.709707,-24.516264,2.796762,0.037853,2.796762,0.037853,-19.999857,-20.0,20.092611,14.413472,10.532542,297.632019,13.287225,-0.018866,0.002154,21.136532,-5.4E-4,0.055829,0.01189,0.0,1.0,2306.689209,, takeoff
35.640434,-25.658558,-24.465113,2.814559,0.032284,2.814559,0.032284,-19.999857,-20.0,20.147131,15.029722,11.614699,297.637756,13.155849,-0.018215,0.002761,21.352318,-5.41E-4,0.055935,0.011641,0.0,1.0,2308.911377,, takeoff
36.220078,-25.623791,-24.430346,2.823726,0.031089,2.823726,0.031089,-19.999857,-20.0,20.186342,15.444737,11.847631,297.639893,13.067119,-0.017445,0.002933,21.798832,-4.61E-4,0.056291,0.011354,0.0,1.0,2310.393311,, takeoff
37.088245,-25.570299,-24.376854,2.829696,0.031948,2.829696,0.031948,-19.999857,-20.0,20.246265,16.073322,12.116505,297.639893,12.934311,-0.017217,0.002694,22.454161,-4.44E-4,0.056475,0.011247,0.0,1.0,2312.616455,, takeoff
37.665989,-25.533775,-24.34033,2.833568,0.032847,2.833568,0.032847,-19.999857,-20.0,20.286983,16.4963,12.305355,297.637726,12.846967,-0.017632,0.002227,22.876402,-4.56E-4,0.056594,0.011247,0.0,1.0,2314.098633,, takeoff
38.531872,-25.477812,-24.284367,2.827117,0.034568,2.827117,0.034568,-19.999857,-20.0,20.34738,17.136459,11.407092,297.632019,12.719295,-0.018929,0.001244,23.369797,-4.69E-4,0.056671,0.011356,0.0,1.0,2316.322998,, takeoff
39.109585,-25.440275,-24.246832,2.827643,0.0356,2.827643,0.0356,-19.999857,-20.0,20.385738,17.566933,11.602307,297.62735,12.637198,-0.02004,5.32E-4,23.371775,-4.94E-4,0.056542,0.011641,0.0,1.0,2317.806641,, takeoff
39.973839,-25.383816,-24.190371,2.834989,0.037011,2.834989,0.037011,-19.999857,-20.0,20.44445,18.218008,11.886823,297.620209,12.519826,-0.021765,-4.24E-4,23.489548,-5.09E-4,0.056553,0.011874,0.0,1.0,2320.033447,, takeoff
40.548569,-25.345928,-24.152485,2.840403,0.037785,2.840403,0.037785,-19.999857,-20.0,20.484383,18.655523,12.063481,297.615967,12.446101,-0.022768,-9.0E-4,23.637547,-5.29E-4,0.0567,0.012231,0.0,1.0,2321.518311,, takeoff
41.408672,-25.288555,-24.095112,2.847569,0.038605,2.847569,0.038605,-19.999857,-20.0,20.545368,19.316813,12.323511,297.611786,12.343343,-0.023764,-0.00118,15.250016,-5.4E-4,0.056808,0.012444,0.0,1.0,2323.746094,, takeoff
41.98069,-25.249868,-24.056425,2.85237,0.037852,2.85237,0.037852,-19.999857,-20.0,20.586823,19.760906,12.474679,297.610809,12.280602,-0.024158,-0.001101,23.546545,-5.52E-4,0.056951,0.012653,0.0,1.0,2325.231201,, takeoff
42.838871,-25.19153,-23.998085,2.846878,0.03637,2.846878,0.03637,-19.999857,-20.0,20.645855,20.431747,11.794609,297.612671,12.195971,-0.023514,-4.56E-4,17.824625,-5.41E-4,0.057047,0.012701,0.0,1.0,2327.459717,, takeoff
43.409668,-25.152721,-23.959276,2.851172,0.036351,2.851172,0.036351,-19.999857,-20.0,20.685467,20.882013,11.963697,297.615753,12.146282,-0.022709,2.22E-4,16.941916,-5.2E-4,0.056938,0.012608,0.0,1.0,2329.063721,, takeoff
44.263474,-25.094379,-23.900934,2.858873,0.036549,2.858873,0.036549,-19.999857,-20.0,20.745928,21.56179,12.210765,297.621765,12.08242,-0.0211,0.001324,19.035847,-5.19E-4,0.057023,0.012454,0.0,1.0,2332.684326,, takeoff
44.831638,-25.055277,-23.861832,2.863786,0.036808,2.863786,0.036808,-19.999857,-20.0,20.786909,22.017805,12.370976,297.625946,12.047207,-0.019962,0.001996,21.415533,-5.22E-4,0.057177,0.012154,0.0,1.0,2335.689697,, takeoff
45.686749,-24.996754,-23.803308,2.839301,0.035916,2.839301,0.035916,-19.999857,-20.0,20.84116,22.705957,9.743613,297.631226,12.005643,-0.017395,0.002693,18.390022,-5.26E-4,0.057276,0.011945,0.0,1.0,2340.730225,, takeoff
46.25811,-24.959116,-23.765673,2.841128,0.035393,2.841128,0.035393,-19.999857,-20.0,20.873955,23.167444,9.923521,297.633667,11.985412,-0.016875,0.002928,18.150339,-5.13E-4,0.056786,0.011681,0.0,1.0,2344.321777,, takeoff
47.113663,-24.904366,-23.71092,2.850794,0.035819,2.850794,0.035819,-19.999857,-20.0,20.924166,23.863636,10.148212,297.633972,11.966141,-0.016689,0.002725,17.388493,-5.06E-4,0.056823,0.011559,0.0,1.0,2349.916748,, takeoff
47.683453,-24.86862,-23.675175,2.856552,0.036588,2.856552,0.036588,-19.999857,-20.0,20.958227,24.330338,10.281426,297.631775,11.960502,-0.017079,0.00224,17.062881,-5.12E-4,0.057016,0.011543,0.0,1.0,2353.735596,, takeoff
48.537518,-24.815683,-23.62224,2.863633,0.038143,2.863633,0.038143,-19.999857,-20.0,21.010134,25.034142,10.474431,297.625519,11.962365,-0.018427,0.001157,16.772532,-5.23E-4,0.057131,0.011653,0.0,1.0,2359.545654,, takeoff
49.10651,-24.780643,-23.5872,2.868228,0.039299,2.868228,0.039299,-19.999857,-20.0,21.045271,25.505785,10.602588,297.619995,11.970106,-0.019708,3.19E-4,16.682926,-5.45E-4,0.057273,0.011966,0.0,1.0,2363.455322,, takeoff
49.959499,-24.728188,-23.534742,2.874851,0.040946,2.874851,0.040946,-19.999857,-20.0,21.098778,26.216805,10.794051,297.611511,11.990696,-0.021846,-8.06E-4,16.667391,-5.61E-4,0.057365,0.012242,0.0,1.0,2369.35498,, takeoff
50.527847,-24.693161,-23.499718,2.879426,0.041943,2.879426,0.041943,-19.999857,-20.0,21.134983,26.693129,10.923112,297.606537,12.009915,-0.023196,-0.001357,16.719866,-5.85E-4,0.057497,0.012666,0.0,1.0,2373.304932,, takeoff
51.380024,-24.640373,-23.446928,2.885849,0.042224,2.885849,0.042224,-19.999857,-20.0,21.190285,27.410986,11.770328,297.601593,12.046106,-0.025063,-0.001728,16.874905,-5.99E-4,0.057589,0.012915,0.0,1.0,2379.248291,, takeoff
51.946861,-24.604746,-23.411303,2.898446,0.025019,2.898446,0.025019,-19.999857,-20.0,21.229824,27.891739,12.212509,297.600037,12.074672,-0.025724,-0.002051,17.221815,-6.03E-4,0.057717,0.013162,0.0,1.0,2383.220215,, takeoff
52.796322,-24.549948,-23.356503,2.907088,0.024558,2.907088,0.024558,-19.999857,-20.0,21.291399,28.616037,12.40682,297.601349,12.123712,-0.025038,-0.00134,17.940947,-3.57E-4,0.057969,0.01324,0.0,1.0,2389.187988,, takeoff
53.362614,-24.512531,-23.319086,2.911031,0.024734,2.911031,0.024734,-19.999857,-20.0,21.332977,29.100962,12.536517,297.603943,12.160057,-0.024135,-6.54E-4,18.37471,-3.51E-4,0.058142,0.013174,0.0,1.0,2393.173584,, takeoff
54.21183,-24.455202,-23.261759,2.916889,0.025025,2.916889,0.025025,-19.999857,-20.0,21.396177,29.831347,12.737729,297.6091,12.219176,-0.022338,4.41E-4,21.230688,-3.53E-4,0.058221,0.013045,0.0,1.0,2399.162109,, takeoff
54.777756,-24.416237,-23.222792,2.921144,0.025286,2.921144,0.025286,-19.999857,-20.0,21.438875,30.320217,12.87523,297.61261,12.26114,-0.021033,0.001088,21.412769,-3.57E-4,0.058338,0.012787,0.0,1.0,2403.161377,, takeoff
55.62627,-24.35673,-23.163286,2.927402,0.025905,2.927402,0.025905,-19.999857,-20.0,21.503778,31.056356,13.079155,297.616394,12.327008,-0.019268,0.001703,22.93434,-3.61E-4,0.058423,0.012611,0.0,1.0,2409.169922,, takeoff
56.191635,-24.316385,-23.122942,2.931692,0.026462,2.931692,0.026462,-19.999857,-20.0,21.547617,31.548956,13.217259,297.617371,12.372325,-0.018387,0.001821,19.235645,-3.7E-4,0.058548,0.012422,0.0,1.0,2413.182373,, takeoff
57.039162,-24.2549,-23.061455,2.937845,0.02754,2.937845,0.02754,-19.999857,-20.0,21.614229,32.290527,13.422389,297.615936,12.441454,-0.017714,0.001529,18.946201,-3.78E-4,0.058634,0.012373,0.0,1.0,2419.210205,, takeoff
57.604042,-24.213289,-23.019846,2.932986,0.028516,2.932986,0.028516,-19.999857,-20.0,21.658621,32.78664,12.796114,297.61319,12.487738,-0.017888,0.001082,23.650581,-3.93E-4,0.058757,0.012445,0.0,1.0,2423.234863,, takeoff
58.458469,-24.152863,-22.959417,2.905179,0.030088,2.905179,0.030088,-19.999857,-20.0,21.704514,33.533413,9.156365,297.608154,12.556383,-0.018328,3.69E-4,18.423754,-4.07E-4,0.05866,0.012582,0.0,1.0,2429.289063,, takeoff
59.027058,-24.114904,-22.921459,2.910174,0.030895,2.910174,0.030895,-19.999857,-20.0,21.73531,34.032959,9.311687,297.604279,12.60101,-0.018942,-1.38E-4,18.263124,-4.3E-4,0.058104,0.012834,0.0,1.0,2433.337158,, takeoff
59.878197,-24.060431,-22.866985,2.92043,0.03211,2.92043,0.03211,-19.999857,-20.0,21.782373,34.784729,9.499499,297.59845,12.665402,-0.020029,-7.96E-4,17.127228,-4.41E-4,0.058203,0.013028,0.0,1.0,2439.421143,, takeoff
60.444706,-24.025295,-22.83185,2.928332,0.0294,2.928332,0.0294,-19.999857,-20.0,21.814754,35.287495,10.142557,297.595062,12.706193,-0.021151,-0.001226,16.62388,-4.59E-4,0.058409,0.013319,0.0,1.0,2443.484863,, takeoff
61.291878,-23.973129,-22.779686,2.940026,0.025362,2.940026,0.025362,-19.999857,-20.0,21.867704,36.043922,10.680538,297.591858,12.76366,-0.021424,-0.001391,16.53406,-4.2E-4,0.058567,0.013489,0.0,1.0,2449.65625,, takeoff
61.856167,-23.938335,-22.74489,2.943869,0.026135,2.943869,0.026135,-19.999857,-20.0,21.903467,36.549679,10.774193,297.591248,12.799236,-0.021641,-0.001192,16.562538,-3.62E-4,0.058801,0.013649,0.0,1.0,2453.821533,, takeoff
62.7019,-23.885984,-22.692541,2.94894,0.0272,2.94894,0.0272,-19.999857,-20.0,21.957714,37.31044,10.923251,297.592499,12.84804,-0.021533,-5.96E-4,16.662228,-3.73E-4,0.058877,0.013679,0.0,1.0,2460.118896,, takeoff
63.265469,-23.850967,-22.657522,2.9333,0.027979,2.9333,0.027979,-19.999857,-20.0,21.991133,37.819,6.731454,297.594421,12.877328,-0.021315,-7.6E-5,16.637568,-3.89E-4,0.058979,0.013617,0.0,1.0,2464.339844,, takeoff
64.118538,-23.801943,-22.6085,2.917767,0.028975,2.917767,0.028975,-19.999857,-20.0,22.022009,38.583931,6.257418,297.598755,12.916025,-0.020413,8.26E-4,14.221732,-4.0E-4,0.058666,0.013521,0.0,1.0,2470.705322,, fly_strait
64.685478,-23.772013,-22.578568,2.922813,0.030637,2.922813,0.030637,-19.999857,-20.0,22.043068,39.095245,6.369262,297.598816,12.938184,-0.020148,7.49E-4,14.914375,-4.14E-4,0.058355,0.0,0.0,1.0,2474.966797,, fly_strait
65.533768,-23.730114,-22.536669,2.931067,0.033682,2.931067,0.033682,-19.999857,-20.0,22.075258,39.86417,6.49514,297.551086,12.965657,-0.02246,-0.007092,13.859393,-4.38E-4,0.058456,-3.0E-6,0.0,1.0,2481.375732,, fly_strait
66.097549,-23.70369,-22.510244,2.935317,0.033589,2.935317,0.033589,-19.999857,-20.0,22.097036,40.37804,6.567961,297.489166,12.979671,-0.026627,-0.01637,19.160057,-4.81E-4,0.058621,0.002383,0.0,1.0,2485.655518,, fly_strait
66.940109,-23.66568,-22.472235,2.94094,0.031465,2.94094,0.031465,-19.999857,-20.0,22.130144,41.150608,6.675483,297.375671,12.993081,-0.036545,-0.031641,15.065713,-4.8E-4,0.058706,0.005479,0.0,1.0,2492.079346,, fly_strait
67.49971,-23.641136,-22.447691,2.945159,0.029494,2.945159,0.029494,-19.999857,-20.0,22.152527,41.666756,6.750414,297.300751,12.996242,-0.044446,-0.04034,13.903514,-4.49E-4,0.058819,0.011154,0.0,1.0,2496.361816,, fly_strait
68.336525,-23.605066,-22.411621,2.954432,0.013691,2.954432,0.013691,-19.999857,-20.0,22.187887,42.44252,8.183041,297.21936,12.991426,-0.055587,-0.047093,22.145634,-4.21E-4,0.058903,0.0149,0.0,1.0,2502.782715,, fly_strait
68.893219,-23.580784,-22.387339,2.946536,-0.027697,2.946536,-0.027697,-19.999857,-20.0,22.216284,42.960659,8.958877,297.195496,12.981861,-0.061765,-0.046965,19.163704,-1.96E-4,0.059089,0.01897,0.0,1.0,2507.0625,, fly_strait
69.731407,-23.542603,-22.349159,2.878974,-0.179626,2.878974,-0.179626,-19.999857,-20.0,22.263577,43.739239,9.778794,297.216797,12.959811,-0.065336,-0.039905,17.783833,3.96E-4,0.058931,0.020163,0.0,1.0,2513.493652,, fly_strait
70.292557,-23.515762,-22.322317,2.818112,-0.31383,2.818112,-0.31383,-19.999857,-20.0,22.296371,44.259209,9.806261,297.266663,12.942359,-0.06259,-0.030955,13.871208,0.002566,0.057579,0.019098,0.0,1.0,2517.796387,, fly_strait
71.136673,-23.473814,-22.280369,2.745272,-0.498792,2.745272,-0.498792,-19.999857,-20.0,22.344776,45.040581,9.57621,297.369995,12.917398,-0.051654,-0.014537,14.390841,0.004483,0.056362,0.016605,0.0,1.0,2524.277344,, fly_strait
71.700607,-23.445074,-22.251629,2.706981,-0.606326,2.706981,-0.606326,-19.999857,-20.0,22.376694,45.562469,9.53836,297.437775,12.904594,-0.041359,-0.004951,18.808146,0.007126,0.054905,0.011438,0.0,1.0,2528.616211,, fly_strait
72.543427,-23.401134,-22.207691,2.66234,-0.750467,2.66234,-0.750467,-19.999857,-20.0,22.424568,46.346733,9.674756,297.496246,12.895455,-0.024892,9.8E-4,16.553993,0.008662,0.05414,0.008049,0.0,1.0,2535.14209,, fly_strait
73.104546,-23.371393,-22.177948,2.611409,-0.857392,2.611409,-0.857392,-19.999857,-20.0,22.454102,46.870472,5.553871,297.491547,12.897876,-0.017362,-0.002882,14.298758,0.010721,0.053247,0.005125,0.0,1.0,2539.498535,, fly_strait
73.955444,-23.329819,-22.136374,2.504936,-1.081013,2.504936,-1.081013,-19.999857,-20.0,22.478085,47.657444,4.56845,297.411072,12.916562,-0.00549,-0.020728,13.175118,0.012248,0.052228,0.00536,0.0,1.0,2546.05542,, fly_strait
74.522171,-23.304909,-22.111464,2.459608,-1.210381,2.459608,-1.210381,-19.999857,-20.0,22.49334,48.182999,4.568752,297.315216,12.940142,-0.001364,-0.037274,12.424025,0.015443,0.050099,0.009384,0.0,1.0,2550.442627,, fly_strait
75.370331,-23.270662,-22.077217,2.437245,-1.403884,2.437245,-1.403884,-19.999857,-20.0,22.5189,48.972675,6.093828,297.136566,12.992615,-0.002094,-0.064378,13.481069,0.017291,0.049192,0.014177,0.0,1.0,2557.041748,, fly_strait
75.931221,-23.2486,-22.055155,2.480574,-1.599239,2.480574,-1.599239,-19.999857,-20.0,22.543131,49.500004,8.830892,297.012177,13.039079,-0.00634,-0.082606,13.42426,0.020055,0.048745,0.023109,0.0,1.0,2561.445801,, fly_strait
76.75988,-23.211109,-22.017666,2.603766,-1.998284,2.603766,-1.998284,-19.999857,-20.0,22.621758,50.292137,24.412321,296.860565,13.1284,-0.011115,-0.103157,18.722664,0.022846,0.049611,0.029329,0.0,1.0,2568.041016,, fly_strait
77.297752,-23.175077,-21.981634,2.697224,-2.259027,2.697224,-2.259027,-19.999857,-20.0,22.730175,50.820759,40.543255,296.795502,13.203822,-0.012173,-0.109279,22.549299,0.028547,0.052075,0.036909,0.0,1.0,2572.417725,, fly_strait
78.075058,-23.085596,-21.892153,2.837799,-2.539838,2.837799,-2.539838,-19.999857,-20.0,23.003504,51.613979,68.433479,296.755585,13.345466,-0.010306,-0.10579,23.649574,0.032272,0.053944,0.040163,0.0,1.0,2578.921143,, fly_strait
78.570808,-22.991438,-21.797995,2.950148,-2.636998,2.950148,-2.636998,-19.999857,-20.0,23.265841,52.142628,88.399445,296.751617,13.460546,-0.006355,-0.098282,33.066338,0.036283,0.056756,0.042158,0.0,1.0,2583.192627,, fly_strait
79.279076,-22.781904,-21.588459,3.12137,-2.635099,3.12137,-2.635099,-19.999857,-20.0,23.788036,52.934689,119.682922,296.743988,13.664231,0.002464,-0.085516,50.390381,0.037671,0.059003,0.042357,0.0,1.0,2589.466797,, fly_strait
79.726746,-22.588436,-21.394991,3.24173,-2.556928,3.24173,-2.556928,-19.999857,-20.0,24.223278,53.461678,140.676682,296.717316,13.81891,0.009066,-0.079844,63.684544,0.037644,0.062427,0.042738,0.0,1.0,2593.540771,, fly_strait
80.365891,-22.206469,-21.013025,3.393384,-2.376602,3.393384,-2.376602,-19.999857,-20.0,25.005114,54.249828,170.624512,296.628296,14.073263,0.017902,-0.078637,85.586433,0.036528,0.064835,0.044072,0.0,1.0,2599.340332,, fly_strait
80.772728,-21.886425,-20.692982,3.486877,-2.242353,3.486877,-2.242353,-19.999857,-20.0,25.605913,54.773308,189.201828,296.53717,14.253007,0.02183,-0.082562,100.97863,0.033951,0.067868,0.048523,0.0,1.0,2602.533447,, fly_strait
81.35891,-21.304379,-20.110933,3.604713,-2.072133,3.604713,-2.072133,-19.999857,-20.0,26.622494,55.554996,216.320007,296.381531,14.528935,0.02428,-0.091122,124.724731,0.032034,0.069738,0.053079,0.0,1.0,2606.462891,, fly_strait
81.733101,-20.847153,-19.653709,3.689094,-1.981555,3.689094,-1.981555,-19.999857,-20.0,27.373446,56.073444,233.598618,296.283142,14.712175,0.024186,-0.095631,140.780899,0.029602,0.072094,0.060861,0.0,1.0,2608.678711,, fly_strait
82.271133,-20.056921,-18.863478,3.811771,-1.8808,3.811771,-1.8808,-19.999857,-20.0,28.607752,56.846584,259.24942,296.18222,14.978823,0.023201,-0.094764,164.970825,0.028308,0.073782,0.065781,0.0,1.0,2611.589844,, fly_strait
82.612877,-19.460464,-18.267019,3.900028,-1.814212,3.900028,-1.814212,-19.999857,-20.0,29.500893,57.358688,275.99292,296.154694,15.147937,0.023661,-0.087954,181.101791,0.026869,0.076235,0.070827,0.0,1.0,2613.329346,, fly_strait
83.099373,-18.461805,-17.26836,4.019898,-1.688763,4.019898,-1.688763,-19.999857,-20.0,30.944166,58.121311,300.625366,296.172333,15.3844,0.02744,-0.069191,205.210007,0.025917,0.078001,0.072203,0.0,1.0,2615.718262,, fly_strait
83.406937,-17.727064,-16.533621,4.104162,-1.571889,4.104162,-1.571889,-19.999857,-20.0,31.977032,58.625717,318.739258,296.209015,15.528439,0.032448,-0.05368,221.216705,0.024125,0.080398,0.071321,0.0,1.0,2617.195068,, fly_strait
83.842003,-16.519787,-15.326343,4.23541,-1.35369,4.23541,-1.35369,-19.999857,-20.0,33.646915,59.375755,348.841248,296.264099,15.720271,0.042568,-0.032517,245.541443,0.022456,0.082083,0.069487,0.0,1.0,2619.273193, set /instrumentation/slip-skid-ball/serviceable false, fly_strait
84.055054,-15.642381,-14.448936,4.340092,-1.187929,4.340092,-1.187929,-9.999858,-10.0,34.846138,59.871086,369.572784,296.282043,15.829535,0.046197,-0.02276,262.218933,0.019338,0.084708,0.066733,0.0,1.0,2620.580811, set /instrumentation/slip-skid-ball/serviceable false, fly_strait
84.248955,-14.213993,-13.020549,4.472791,-0.952854,4.472791,-0.952854,-9.999858,-10.0,36.763618,60.60659,395.522736,296.262939,15.960894,0.046197,-0.017463,287.853058,0.01697,0.086802,0.065836,0.0,1.0,2622.442139, set /instrumentation/slip-skid-ball/serviceable false, fly_strait
84.387978,-13.187803,-11.994359,4.537506,-0.818368,4.537506,-0.818368,-9.999858,-10.0,38.105965,61.091763,409.093781,296.223053,16.024132,0.046197,-0.019058,304.896759,0.013612,0.089456,0.066791,0.0,1.0,2623.625, set /instrumentation/slip-skid-ball/serviceable false, fly_strait
84.610352,-11.543644,-10.3502,4.5899,-0.684965,4.5899,-0.684965,-9.999858,-10.0,40.200047,61.811596,427.544189,296.148895,16.078669,0.046197,-0.024711,329.606323,0.011691,0.09075,0.068785,0.0,1.0,2625.328613, set /instrumentation/slip-skid-ball/serviceable false, fly_strait
84.76722,-10.381764,-9.18832,4.629277,-0.634753,4.629277,-0.634753,-9.999858,-10.0,41.644501,62.28616,438.658783,296.107147,16.086905,0.046197,-0.027526,345.299103,0.009785,0.091798,0.072493,0.0,1.0,2626.424561, set /instrumentation/slip-skid-ball/serviceable false, fly_strait
85.014397,-8.547243,-7.353798,4.704638,-0.604091,4.704638,-0.604091,-9.999858,-10.0,43.881298,62.989918,455.74353,296.084045,16.057076,0.046197,-0.025872,367.570923,0.009068,0.092586,0.07458,0.0,1.0,2628.014893, set /instrumentation/slip-skid-ball/serviceable false, fly_strait
85.186623,-7.26614,-6.072696,4.765303,-0.590596,4.765303,-0.590596,-9.999858,-10.0,45.421307,63.453613,467.956085,296.100067,16.010317,0.046197,-0.020089,381.683075,0.00863,0.094093,0.075736,0.0,1.0,2629.040771, set /instrumentation/slip-skid-ball/serviceable false, fly_strait
85.455627,-5.260267,-4.066823,4.849884,-0.551163,4.849884,-0.551163,1.42E-4,0.0,47.810993,64.140739,487.466949,296.161957,15.903302,0.046197,-0.006216,402.09314,0.008437,0.095306,0.074934,0.0,1.0,2630.525391, set /instrumentation/slip-skid-ball/serviceable false, fly_strait
85.641914,-3.867553,-2.674109,4.910084,-0.501254,4.910084,-0.501254,1.42E-4,0.0,49.458797,64.593109,500.753601,296.214661,15.809613,0.046197,0.004108,415.388702,0.007874,0.096998,0.07184,0.0,1.0,2631.474121, set /instrumentation/slip-skid-ball/serviceable false, fly_strait
85.931625,-1.695794,-0.502349,4.991876,-0.395571,4.991876,-0.395571,1.42E-4,0.0,52.013889,65.262939,520.617676,296.278229,15.639053,0.046197,0.015754,435.079376,0.007161,0.098202,0.069205,0.0,1.0,2632.840332, set /instrumentation/slip-skid-ball/serviceable false, fly_strait
86.131531,-0.143883,1.049562,5.048,-0.316224,5.048,-0.316224,1.42E-4,0.0,53.772007,65.703621,533.790833,296.298218,15.506939,0.046197,0.019166,448.095337,0.005651,0.099838,0.066026,0.0,1.0,2633.717773, set /instrumentation/slip-skid-ball/serviceable false, fly_strait
86.441368,2.306941,3.500385,5.12289,-0.219022,5.12289,-0.219022,1.42E-4,0.0,56.491596,66.355766,553.336853,296.286835,15.283401,0.046197,0.016687,467.497894,0.004517,0.10096,0.065027,0.0,1.0,2634.990479, set /instrumentation/slip-skid-ball/serviceable false, fly_strait
86.654488,3.997746,5.19119,5.175459,-0.180119,5.175459,-0.180119,1.42E-4,0.0,58.357883,66.784607,565.936768,296.259064,15.118808,0.046197,0.011569,480.353729,0.003129,0.102458,0.065596,0.0,1.0,2635.813721, set /instrumentation/slip-skid-ball/serviceable false, fly_strait
86.98378,6.618282,7.811727,5.247036,-0.17479,5.247036,-0.17479,10.000142,10.0,61.235554,67.419037,584.539795,296.213623,14.851577,0.046197,0.003252,499.4776,0.002573,0.103509,0.066985,0.0,1.0,2637.015625, set /instrumentation/slip-skid-ball/serviceable false, fly_strait
87.209579,8.420856,9.614301,5.299074,-0.197564,5.299074,-0.197564,10.000142,10.0,63.205318,67.836113,596.881104,296.195892,14.662333,0.046197,-1.07E-4,512.10321,0.002497,0.104941,0.069257,0.0,1.0,2637.796631, set /instrumentation/slip-skid-ball/serviceable false, fly_strait
87.557442,11.207057,12.400502,5.374613,-0.2459,5.374613,-0.2459,10.000142,10.0,66.237602,68.452919,615.476624,296.206726,14.367256,0.046197,0.001115,530.858826,0.002822,0.105981,0.070143,0.0,1.0,2638.938232, set /instrumentation/slip-skid-ball/serviceable false, fly_strait
87.795364,13.11901,14.312454,5.430672,-0.270278,5.430672,-0.270278,10.000142,10.0,68.310715,68.858238,627.965332,296.238953,14.16667,0.046197,0.005916,543.25592,0.003513,0.107492,0.069601,0.0,1.0,2639.678223, set /instrumentation/slip-skid-ball/serviceable false, fly_strait
88.161095,16.068249,17.261692,5.509013,-0.27085,5.509013,-0.27085,20.000143,20.0,71.499153,69.457321,646.820007,296.307312,13.866163,0.046197,0.016027,561.732971,0.003861,0.108613,0.06799,0.0,1.0,2640.754883, set /instrumentation/slip-skid-ball/serviceable false, fly_strait
88.410751,18.088488,19.281933,5.564205,-0.246577,5.564205,-0.246577,20.000143,20.0,73.676804,69.850754,659.320679,296.352356,13.669195,0.046197,0.022289,573.993591,0.003869,0.11018,0.064572,0.0,1.0,2641.449463, set /instrumentation/slip-skid-ball/serviceable false, fly_strait
88.793846,21.199682,22.393127,5.636973,-0.186625,5.636973,-0.186625,20.000143,20.0,77.02121,70.431892,677.765747,296.393036,13.382935,0.046197,0.026694,592.314209,0.003523,0.111284,0.06232,0.0,1.0,2642.457275, set /instrumentation/slip-skid-ball/serviceable false, fly_strait
89.054886,23.327391,24.520834,5.686504,-0.146001,5.686504,-0.146001,20.000143,20.0,79.301041,70.813309,689.663147,296.396545,13.199886,0.046197,0.025548,604.472168,0.002666,0.112739,0.060286,0.0,1.0,2643.107422, set /instrumentation/slip-skid-ball/serviceable false, fly_strait
89.454697,26.598305,27.791748,5.751179,-0.112507,5.751179,-0.112507,30.000143,30.0,82.794044,71.376472,706.850342,296.371094,12.939069,0.046197,0.01868,622.578247,0.002086,0.11373,0.06011,0.0,1.0,2644.054199, set /instrumentation/slip-skid-ball/serviceable false, fly_strait
89.72657,28.830961,30.024405,5.795973,-0.114836,5.795973,-0.114836,30.000143,30.0,85.169205,71.745995,717.80481,296.344757,12.775481,0.046197,0.012743,634.523499,0.001607,0.115024,0.061383,0.0,1.0,2644.668457, set /instrumentation/slip-skid-ball/serviceable false, fly_strait
90.142075,32.256138,33.449581,5.856793,-0.154147,5.856793,-0.154147,30.000143,30.0,88.799408,72.291466,733.667419,296.317078,12.547861,0.046197,0.006158,652.182678,0.001641,0.115919,0.0627,0.0,1.0,2645.566162, set /instrumentation/slip-skid-ball/serviceable false, fly_strait
90.423996,34.58918,35.782623,5.900493,-0.192392,5.900493,-0.192392,30.000143,30.0,91.262695,72.649292,743.917542,296.316956,12.409686,0.046197,0.004989,663.750122,0.002202,0.117136,0.064084,0.0,1.0,2646.149414, set /instrumentation/slip-skid-ball/serviceable false, fly_strait
90.853912,38.161049,39.354492,5.961238,-0.240018,5.961238,-0.240018,40.000141,40.0,95.021339,73.177361,759.009827,296.349823,12.226132,0.046197,0.008848,680.75824,0.002748,0.11801,0.06409,0.0,1.0,2647.000488, set /instrumentation/slip-skid-ball/serviceable false, fly_strait
91.145035,40.589375,41.782818,6.004758,-0.254393,6.004758,-0.254393,40.000141,40.0,97.568451,73.523636,768.891907,296.387909,12.121409,0.046197,0.013967,691.862244,0.003429,0.119225,0.062447,0.0,1.0,2647.550781, set /instrumentation/slip-skid-ball/serviceable false, fly_strait
91.588158,44.300694,45.494137,6.063099,-0.23924,6.063099,-0.23924,40.000141,40.0,101.45063,74.034393,783.450806,296.44635,11.993138,0.046197,0.021564,708.171326,0.003634,0.120095,0.060542,0.0,1.0,2648.349609, set /instrumentation/slip-skid-ball/serviceable false, fly_strait
91.887718,46.819824,48.013268,6.102978,-0.21163,6.102978,-0.21163,50.000141,50.0,104.078438,74.369141,792.864136,296.474396,11.927423,0.046197,0.02459,718.818604,0.003418,0.121262,0.05762,0.0,1.0,2648.864502, set /instrumentation/slip-skid-ball/serviceable false, fly_strait
92.342964,50.664146,51.857594,6.153834,-0.165447,6.153834,-0.165447,50.000141,50.0,108.078094,74.862671,806.438965,296.485107,11.858269,0.046197,0.023694,734.452271,0.003023,0.12206,0.056218,0.0,1.0,2649.611572, set /instrumentation/slip-skid-ball/serviceable false, fly_strait
92.65023,53.269665,54.463112,6.187928,-0.144719,6.187928,-0.144719,50.000141,50.0,110.781105,75.186012,815.010681,296.472656,11.831036,0.046197,0.019892,744.642151,0.002364,0.123077,0.055682,0.0,1.0,2650.094727, set /instrumentation/slip-skid-ball/serviceable false, fly_strait
93.116455,57.239693,58.43314,6.232222,-0.146562,6.232222,-0.146562,60.000141,60.0,114.88797,75.662636,827.220154,296.439789,11.816879,0.046197,0.012062,759.549805,0.002067,0.123759,0.056305,0.0,1.0,2650.800537, set /instrumentation/slip-skid-ball/serviceable false, fly_strait
93.430603,59.926159,61.119602,6.263238,-0.168571,6.263238,-0.168571,60.000141,60.0,117.658775,75.974869,834.948608,296.420502,11.82445,0.046197,0.007529,769.218262,0.002094,0.124644,0.057948,0.0,1.0,2651.259766, set /instrumentation/slip-skid-ball/serviceable false, fly_strait
93.906494,64.013069,65.206512,6.305951,-0.218709,6.305951,-0.218709,60.000141,60.0,121.862572,76.435081,846.146912,296.414978,11.860514,0.046197,0.004958,783.290222,0.002408,0.125265,0.058913,0.0,1.0,2651.932373, set /instrumentation/slip-skid-ball/serviceable false, fly_strait
94.226669,66.77446,67.967903,6.336998,-0.250921,6.336998,-0.250921,70.000145,70.0,124.695633,76.736526,853.417114,296.430603,11.90083,0.046197,0.006532,792.379028,0.003124,0.126119,0.059189,0.0,1.0,2652.369873, set /instrumentation/slip-skid-ball/serviceable false, fly_strait
94.710983,70.969612,72.163063,6.379938,-0.27459,6.379938,-0.27459,70.000145,70.0,128.990494,77.180695,864.154175,296.475494,11.985425,0.046197,0.012425,805.582764,0.003585,0.12674,0.058408,0.0,1.0,2653.008057, set /instrumentation/slip-skid-ball/serviceable false, fly_strait
95.036407,73.800697,74.994141,6.410228,-0.270657,6.410228,-0.270657,70.000145,70.0,131.883148,77.471519,871.17395,296.51001,12.057407,0.046197,0.016949,814.112732,0.003923,0.127599,0.056163,0.0,1.0,2653.420898, set /instrumentation/slip-skid-ball/serviceable false, fly_strait
95.52813,78.097153,79.290596,6.449541,-0.239299,6.449541,-0.239299,80.000145,80.0,136.26564,77.899864,881.427734,296.546997,12.187018,0.046197,0.021007,826.527344,0.003867,0.128205,0.054437,0.0,1.0,2654.020264, set /instrumentation/slip-skid-ball/serviceable false, fly_strait
95.8582,80.993759,82.187202,6.475767,-0.212532,6.475767,-0.212532,80.000145,80.0,139.215088,78.180214,887.96637,296.555023,12.286227,0.046197,0.020849,834.56366,0.003419,0.128991,0.052588,0.0,1.0,2654.407715, set /instrumentation/slip-skid-ball/serviceable false, fly_strait
96.356445,85.385475,86.578918,6.508672,-0.186034,6.508672,-0.186034,90.000145,90.0,143.679199,78.593018,897.272888,296.54068,12.450786,0.046197,0.016234,846.267151,0.003036,0.129515,0.052187,0.0,1.0,2654.972412, set /instrumentation/slip-skid-ball/serviceable false, fly_strait
96.690567,88.34343,89.536873,6.530891,-0.185019,6.530891,-0.185019,90.000145,90.0,146.680222,78.863159,903.099121,296.520569,12.568886,0.046197,0.01157,853.833435,0.002658,0.130173,0.052904,0.0,1.0,2655.339844, set /instrumentation/slip-skid-ball/serviceable false, fly_strait
97.194412,92.823616,94.017059,6.560515,-0.212128,6.560515,-0.212128,90.000145,90.0,151.217346,79.260933,911.407715,296.494171,12.755436,0.046197,0.005525,864.816589,0.002643,0.130618,0.053909,0.0,1.0,2655.879395, set /instrumentation/slip-skid-ball/serviceable false, fly_strait
97.531944,95.838097,97.03154,6.581933,-0.241912,6.581933,-0.241912,100.000145,100.0,154.264572,79.52124,916.720947,296.488342,12.884647,0.046197,0.003643,871.888794,0.00303,0.13121,0.055229,0.0,1.0,2656.231934, set /instrumentation/slip-skid-ball/serviceable false, fly_strait
98.040436,100.399483,101.592926,6.612178,-0.283628,6.612178,-0.283628,100.000145,100.0,158.868378,79.90451,924.52655,296.505157,13.083991,0.046197,0.005262,882.122009,0.003456,0.131639,0.055521,0.0,1.0,2656.749756, set /instrumentation/slip-skid-ball/serviceable false, fly_strait
98.551308,105.006531,106.199974,6.644706,-0.302553,6.644706,-0.302553,100.000145,100.0,163.510742,80.279259,932.222534,296.544952,13.288283,0.046197,0.010608,891.923096,0.004052,0.132244,0.05468,0.0,1.0,2657.252441, set /instrumentation/slip-skid-ball/serviceable false, fly_strait
98.893097,108.102364,109.295807,6.664262,-0.296282,6.664262,-0.296282,110.000145,110.0,166.626968,80.524391,937.266357,296.573151,13.426179,0.046197,0.014331,898.234741,0.004287,0.132686,0.053418,0.0,1.0,2657.578125, set /instrumentation/slip-skid-ball/serviceable false, fly_strait
99.407425,112.781639,113.975082,6.693948,-0.267573,6.693948,-0.267573,110.000145,110.0,171.332306,80.885124,944.643372,296.602203,13.633352,0.046197,0.017486,907.396729,0.004233,0.133285,0.05128,0.0,1.0,2658.052734, set /instrumentation/slip-skid-ball/serviceable false, fly_strait
99.751335,115.924194,117.117638,6.710404,-0.245062,6.710404,-0.245062,120.000145,120.0,174.489365,81.12101,949.336609,296.605743,13.77006,0.046197,0.016858,913.315308,0.003983,0.133695,0.050169,0.0,1.0,2658.360107, set /instrumentation/slip-skid-ball/serviceable false, fly_strait
100.268562,120.671387,121.86483,6.734717,-0.224168,6.734717,-0.224168,120.000145,120.0,179.25325,81.468079,955.977234,296.589325,13.969896,0.046197,0.012404,921.919617,0.003501,0.134208,0.049651,0.0,1.0,2658.809814, set /instrumentation/slip-skid-ball/serviceable false, fly_strait
100.614204,123.857643,125.051086,6.750187,-0.225845,6.750187,-0.225845,120.000145,120.0,182.447159,81.695023,960.189026,296.570557,14.097935,0.046197,0.008283,927.473389,0.003202,0.134694,0.050471,0.0,1.0,2659.103516, set /instrumentation/slip-skid-ball/serviceable false, fly_strait
101.133728,128.667847,129.861282,6.770035,-0.252684,6.770035,-0.252684,130.000137,130.0,187.26355,82.028938,966.107239,296.54834,14.279949,0.046197,0.003368,935.527893,0.003226,0.135004,0.05141,0.0,1.0,2659.536377, set /instrumentation/slip-skid-ball/serviceable false, fly_strait
101.48069,131.894333,133.087784,6.784868,-0.279325,6.784868,-0.279325,130.000137,130.0,190.490417,82.247299,969.867554,296.545044,14.393803,0.046197,0.002161,940.709106,0.00361,0.135401,0.052521,0.0,1.0,2659.820313, set /instrumentation/slip-skid-ball/serviceable false, fly_strait
102.001884,136.762222,137.955658,6.806676,-0.313641,6.806676,-0.313641,140.000137,140.0,195.354156,82.568581,975.447632,296.562439,14.552756,0.046197,0.004203,948.196411,0.00399,0.135697,0.052686,0.0,1.0,2660.238281, set /instrumentation/slip-skid-ball/serviceable false, fly_strait
102.349762,140.025543,141.218994,6.822783,-0.325157,6.822783,-0.325157,140.000137,140.0,198.612061,82.778648,979.164185,296.585236,14.650735,0.046197,0.007368,953.00531,0.004481,0.136134,0.051816,0.0,1.0,2660.510986, set /instrumentation/slip-skid-ball/serviceable false, fly_strait
102.872101,144.946716,146.140152,6.844365,-0.317427,6.844365,-0.317427,140.000137,140.0,203.522202,83.087631,984.697388,296.620972,14.785498,0.046197,0.012215,959.967651,0.004645,0.136456,0.050676,0.0,1.0,2660.909912, set /instrumentation/slip-skid-ball/serviceable false, fly_strait
103.220619,148.244507,149.437943,6.858958,-0.300261,6.858958,-0.300261,150.000137,150.0,206.810745,83.289581,988.289001,296.637604,14.86684,0.046197,0.014124,964.456726,0.004535,0.136887,0.048889,0.0,1.0,2661.168701, set /instrumentation/slip-skid-ball/serviceable false, fly_strait
103.743759,153.215942,154.409378,6.876889,-0.271005,6.876889,-0.271005,150.000137,150.0,211.765625,83.58654,993.442627,296.641571,14.975075,0.046197,0.013375,970.981567,0.004289,0.137179,0.048058,0.0,1.0,2661.547119, set /instrumentation/slip-skid-ball/serviceable false, fly_strait
104.092697,156.546265,157.7397,6.88853,-0.258236,6.88853,-0.258236,160.000137,160.0,215.082687,83.780602,996.658813,296.631073,15.037329,0.046197,0.010744,975.198181,0.003872,0.137538,0.047859,0.0,1.0,2661.793701, set /instrumentation/slip-skid-ball/serviceable false, fly_strait
104.616287,161.564835,162.75827,6.903247,-0.261132,6.903247,-0.261132,160.000137,160.0,220.077805,84.065971,1001.181213,296.606476,15.114859,0.046197,0.005488,981.322815,0.003689,0.137771,0.048384,0.0,1.0,2662.157471, set /instrumentation/slip-skid-ball/serviceable false, fly_strait
104.965393,164.925308,166.118759,6.913669,-0.276687,6.913669,-0.276687,160.000137,160.0,223.419998,84.25248,1004.019531,296.592377,15.155766,0.046197,0.002539,985.268921,0.00373,0.138065,0.049614,0.0,1.0,2662.396484, set /instrumentation/slip-skid-ball/serviceable false, fly_strait
105.489021,169.987122,171.180557,6.928607,-0.310292,6.928607,-0.310292,170.000137,170.0,228.450775,84.526764,1008.146484,296.587708,15.20138,0.046197,0.001091,990.97699,0.003953,0.138273,0.050319,0.0,1.0,2662.750244, set /instrumentation/slip-skid-ball/serviceable false, fly_strait
105.838013,173.375137,174.568588,6.939983,-0.330882,6.939983,-0.330882,170.000137,170.0,231.815964,84.706032,1010.86615,296.597687,15.22194,0.046197,0.002343,994.642395,0.004433,0.138572,0.050552,0.0,1.0,2662.982422, set /instrumentation/slip-skid-ball/serviceable false, fly_strait
106.361305,178.476578,179.670029,6.956248,-0.343962,6.956248,-0.343962,180.000137,180.0,236.880844,84.969627,1014.957336,296.62619,15.239454,0.046197,0.006444,999.941162,0.004727,0.1388,0.050053,0.0,1.0,2663.324463, set /instrumentation/slip-skid-ball/serviceable false, fly_strait
106.709984,181.890121,183.083557,6.967843,-0.339222,6.967843,-0.339222,180.000137,180.0,240.268723,85.141869,1017.677063,296.647217,15.243032,0.046197,0.009402,1003.351135,0.004914,0.139125,0.048628,0.0,1.0,2663.547119, set /instrumentation/slip-skid-ball/serviceable false, fly_strait
107.232689,187.028778,188.222214,6.982546,-0.31619,6.982546,-0.31619,190.000137,190.0,245.367477,85.395042,1021.670776,296.667328,15.237216,0.046197,0.011757,1008.30249,0.004846,0.139357,0.047577,0.0,1.0,2663.873291, set /instrumentation/slip-skid-ball/serviceable false, fly_strait
107.580925,190.466492,191.659943,6.992022,-0.298149,6.992022,-0.298149,190.000137,190.0,248.777451,85.560417,1024.204224,296.668945,15.226175,0.046197,0.011322,1011.503662,0.004517,0.139651,0.046571,0.0,1.0,2664.085938, set /instrumentation/slip-skid-ball/serviceable false, fly_strait
108.102867,195.640442,196.833893,7.003397,-0.282387,7.003397,-0.282387,200.000137,200.0,253.907791,85.803482,1027.764282,296.654541,15.199134,0.046197,0.007882,1016.163147,0.004259,0.13984,0.046491,0.0,1.0,2664.398438, set /instrumentation/slip-skid-ball/serviceable false, fly_strait
108.450516,199.100922,200.294357,7.010993,-0.283744,7.010993,-0.283744,200.000137,200.0,257.337494,85.962257,1029.962891,296.639069,15.174341,0.046197,0.004736,1019.174072,0.004034,0.140068,0.047211,0.0,1.0,2664.603516, set /instrumentation/slip-skid-ball/serviceable true, fly_strait
92.310089,204.307602,205.501038,7.021348,-0.30422,7.021348,-0.30422,200.000137,200.0,262.495422,86.195656,1033.084717,296.620972,15.127823,0.046977,0.001079,1023.541016,0.004053,0.14022,0.047984,0.0,1.0,2664.907715, set /instrumentation/slip-skid-ball/serviceable true, fly_strait
92.331978,207.78891,208.982346,7.029204,-0.324285,7.029204,-0.324285,210.000137,210.0,265.942535,86.348129,1035.096069,296.618042,15.091421,0.047394,2.75E-4,1026.349609,0.004346,0.140427,0.048889,0.0,1.0,2665.108154, set /instrumentation/slip-skid-ball/serviceable true, fly_strait
92.364296,213.025421,214.218872,7.040903,-0.349393,7.040903,-0.349393,210.000137,210.0,271.125763,86.572266,1038.103394,296.631012,15.030622,0.048204,0.002048,1030.408691,0.004633,0.140584,0.049036,0.0,1.0,2665.404541, set /instrumentation/slip-skid-ball/serviceable true, fly_strait
92.384346,216.525803,217.719254,7.04973,-0.356999,7.04973,-0.356999,220.000137,220.0,274.589569,86.718681,1040.125,296.648102,14.987144,0.049363,0.00458,1033.016846,0.004991,0.140818,0.048387,0.0,1.0,2665.598877, set /instrumentation/slip-skid-ball/serviceable true, fly_strait
92.41214,221.790009,222.983444,7.061663,-0.349084,7.061663,-0.349084,220.000137,220.0,279.798065,86.93383,1043.161743,296.674225,14.919331,0.051946,0.008334,1036.796143,0.0051,0.140995,0.047533,0.0,1.0,2665.884277, set /instrumentation/slip-skid-ball/serviceable true, fly_strait
92.429436,225.30835,226.501801,7.069631,-0.334813,7.069631,-0.334813,220.000137,220.0,283.278687,87.074326,1045.140869,296.685669,14.873156,0.053801,0.009737,1039.236206,0.004987,0.141233,0.046227,0.0,1.0,2666.070313, set /instrumentation/slip-skid-ball/serviceable true, fly_strait
92.45443,230.598877,231.792313,7.079031,-0.31168,7.079031,-0.31168,230.000137,230.0,288.511749,87.280731,1047.962036,296.686371,14.80324,0.055975,0.009009,1042.789063,0.004783,0.141393,0.045654,0.0,1.0,2666.343018, set /instrumentation/slip-skid-ball/serviceable true, fly_strait
92.470932,234.134308,235.327759,7.084909,-0.302029,7.084909,-0.302029,230.000137,230.0,292.007996,87.415497,1049.697021,296.676849,14.756458,0.056501,0.006907,1045.088989,0.004453,0.141581,0.045619,0.0,1.0,2666.521729, set /instrumentation/slip-skid-ball/serviceable true, fly_strait
92.49585,239.449585,240.643021,7.092168,-0.305051,7.092168,-0.305051,240.000137,240.0,297.262787,87.613503,1052.100952,296.656616,14.686477,0.055877,0.002885,1048.433105,0.004315,0.141698,0.046095,0.0,1.0,2666.786377, set /instrumentation/slip-skid-ball/serviceable true, fly_strait
92.512489,243.000809,244.19426,7.097382,-0.317437,7.097382,-0.317437,240.000137,240.0,300.772369,87.742798,1053.595093,296.645569,14.640379,0.054813,7.38E-4,1050.588257,0.004358,0.141843,0.047107,0.0,1.0,2666.960938, set /instrumentation/slip-skid-ball/serviceable true, fly_strait
92.536873,248.338608,249.532043,7.105183,-0.34303,7.105183,-0.34303,250.000137,250.0,306.04599,87.9328,1055.772949,296.642426,14.573205,0.053098,-8.0E-5,1053.703003,0.004535,0.141948,0.047659,0.0,1.0,2667.220703, set /instrumentation/slip-skid-ball/serviceable true, fly_strait
92.552284,251.904099,253.097534,7.111352,-0.357955,7.111352,-0.357955,250.000137,250.0,309.567719,88.056885,1057.226196,296.650513,14.530577,0.052487,0.001085,1055.700562,0.0049,0.142104,0.047816,0.0,1.0,2667.391846, set /instrumentation/slip-skid-ball/serviceable true, fly_strait
92.573624,257.262329,258.45578,7.12036,-0.365817,7.12036,-0.365817,260.000153,260.0,314.859558,88.239189,1059.442505,296.672394,14.47132,0.052732,0.004417,1058.584473,0.005114,0.142227,0.047412,0.0,1.0,2667.644775, set /instrumentation/slip-skid-ball/serviceable true, fly_strait
92.586609,260.841003,262.034454,7.12677,-0.36058,7.12677,-0.36058,260.000153,260.0,318.393585,88.358208,1060.93042,296.687836,14.4356,0.0536,0.006687,1060.438599,0.005226,0.142407,0.046318,0.0,1.0,2667.810303, set /instrumentation/slip-skid-ball/serviceable true, fly_strait
92.604721,266.218475,267.411926,7.134646,-0.341295,7.134646,-0.341295,270.000153,270.0,323.703918,88.533028,1063.112305,296.701202,14.38832,0.055305,0.008318,1063.130371,0.005151,0.142535,0.045546,0.0,1.0,2668.053467, set /instrumentation/slip-skid-ball/serviceable true, fly_strait
92.616341,269.809692,271.003143,7.139505,-0.327162,7.139505,-0.327162,270.000153,270.0,327.25,88.647133,1064.47998,296.700714,14.361042,0.056112,0.00781,1064.870728,0.004876,0.142693,0.044878,0.0,1.0,2668.212646, set /instrumentation/slip-skid-ball/serviceable true, fly_strait
92.633789,275.205475,276.398926,7.144979,-0.31593,7.144979,-0.31593,270.000153,270.0,332.577362,88.814705,1066.365234,296.6875,14.32623,0.056309,0.004987,1067.403687,0.004674,0.14279,0.044902,0.0,1.0,2668.447754, set /instrumentation/slip-skid-ball/serviceable true, fly_strait
92.645638,278.808441,280.001892,7.148517,-0.317973,7.148517,-0.317973,280.000153,280.0,336.133911,88.924103,1067.503174,296.674835,14.306921,0.055642,0.002565,1069.038818,0.004513,0.1429,0.045563,0.0,1.0,2668.603027, set /instrumentation/slip-skid-ball/serviceable true, fly_strait
92.663544,284.221039,285.41449,7.153463,-0.33484,7.153463,-0.33484,280.000153,280.0,341.475555,89.084793,1069.099609,296.661072,14.283733,0.053919,-4.2E-5,1071.405273,0.004542,0.14297,0.046196,0.0,1.0,2668.834229, set /instrumentation/slip-skid-ball/serviceable true, fly_strait
92.675232,287.834595,289.028015,7.157428,-0.350314,7.157428,-0.350314,290.000153,290.0,345.041016,89.189705,1070.132324,296.659515,14.272282,0.052815,-4.32E-4,1072.922363,0.004783,0.143069,0.046884,0.0,1.0,2668.987305, set /instrumentation/slip-skid-ball/serviceable true, turn_+45
92.689789,293.262177,294.455627,7.165228,-0.397388,7.165228,-0.397388,290.000153,290.0,350.395752,89.343826,1071.720093,296.730469,14.261514,0.040276,0.011725,1075.106689,0.001668,0.143149,0.1,0.0,1.0,2669.214355, set /instrumentation/slip-skid-ball/serviceable true, turn_+45
92.690544,296.885284,298.078735,7.179061,-0.422089,7.179061,-0.422089,300.000153,300.0,353.970245,89.444359,1073.018433,296.927155,14.259823,0.039359,0.042878,1076.506226,0.001892,0.143305,0.1,0.0,1.0,2669.358887, set /instrumentation/slip-skid-ball/serviceable true, turn_+45
92.66877,302.32724,303.52066,7.211453,-0.284789,7.211453,-0.284789,300.000153,300.0,359.342896,89.591576,1076.229614,297.351349,14.270426,0.056701,0.107115,1078.554077,0.00201,0.143581,0.1,0.0,1.0,2669.546387, set /instrumentation/slip-skid-ball/serviceable true, turn_+45
92.639313,305.960815,307.154266,7.233499,-0.055195,7.233499,-0.055195,310.000153,310.0,362.935364,89.687096,1079.224365,297.64032,14.28765,0.07696,0.148221,1079.934814,0.001356,0.144229,0.1,0.0,1.0,2669.642578, set /instrumentation/slip-skid-ball/serviceable true, turn_+45
92.582962,311.421844,312.615295,7.248135,0.441559,7.248135,0.441559,310.000153,310.0,368.343536,89.826073,1083.782837,297.977081,14.325649,0.111296,0.190204,1082.138428,2.63E-4,0.14467,0.1,0.0,1.0,2669.73999, set /instrumentation/slip-skid-ball/serviceable true, turn_+45
92.544914,315.070709,316.26416,7.24875,0.820587,7.24875,0.820587,310.000153,310.0,371.960388,89.915771,1086.128052,298.107056,14.354074,0.131384,0.200863,1083.733276,-0.002103,0.144963,0.1,0.0,1.0,2669.780029, set /instrumentation/slip-skid-ball/serviceable true, turn_+45
92.496284,320.556641,321.750092,7.240542,1.345488,7.240542,1.345488,320.000153,320.0,377.397064,90.045937,1088.157349,298.16687,14.389151,0.151105,0.193046,1086.28894,-0.003908,0.144975,0.1,0.0,1.0,2669.820557, set /instrumentation/slip-skid-ball/serviceable true, turn_+45
92.47142,324.22171,325.415161,7.233333,1.627788,7.233333,1.627788,320.000153,320.0,381.024963,90.129944,1088.453735,298.146576,14.400014,0.155893,0.177765,1088.042603,-0.006407,0.144811,0.1,0.0,1.0,2669.845215, set /instrumentation/slip-skid-ball/serviceable true, turn_+45
92.444527,329.728546,330.921997,7.224678,1.904828,7.224678,1.904828,330.000153,330.0,386.465912,90.252144,1087.755737,298.096985,14.386913,0.152327,0.151834,1090.60376,-0.007751,0.144667,0.1,0.0,1.0,2669.890381, set /instrumentation/slip-skid-ball/serviceable true, turn_+45
92.431793,333.404114,334.597565,7.218995,2.004068,7.218995,2.004068,330.000153,330.0,390.090179,90.331284,1086.800049,298.090332,14.354854,0.145412,0.139159,1092.180664,-0.009071,0.144494,0.1,0.0,1.0,2669.929688, set /instrumentation/slip-skid-ball/serviceable true, turn_+45
92.416771,338.920929,340.11438,7.211696,2.063733,7.211696,2.063733,340.000153,340.0,395.519775,90.446793,1085.069458,298.163788,14.2701,0.133671,0.133676,1094.236816,-0.009543,0.14438,0.1,0.0,1.0,2670.001709, set /instrumentation/slip-skid-ball/serviceable true, turn_+45
92.407097,342.599518,343.792969,7.207158,2.080398,7.207158,2.080398,340.000153,340.0,399.134735,90.521797,1083.963867,298.275818,14.190598,0.127688,0.139888,1095.361328,-0.009827,0.144234,0.1,0.0,1.0,2670.056396, set /instrumentation/slip-skid-ball/serviceable true, turn_+45
92.389549,348.116425,349.309845,7.202891,2.122932,7.202891,2.122932,350.000153,350.0,404.550995,90.631363,1082.685181,298.522644,14.041906,0.12418,0.160614,1096.660767,-0.009907,0.144143,0.1,0.0,1.0,2670.142334, set /instrumentation/slip-skid-ball/serviceable true, turn_+45
92.374619,351.792969,352.98642,7.200893,2.183228,7.200893,2.183228,350.000153,350.0,408.158997,90.702454,1082.174438,298.719513,13.926649,0.125726,0.178391,1097.285156,-0.010109,0.144058,0.1,0.0,1.0,2670.197998, set /instrumentation/slip-skid-ball/serviceable true, turn_+45
92.34758,357.305298,358.498749,7.198661,2.329842,7.198661,2.329842,360.000153,360.0,413.568787,90.806107,1081.818237,299.023773,13.735007,0.132375,0.204271,1097.920044,-0.010396,0.144018,0.1,0.0,1.0,2670.27417, set /instrumentation/slip-skid-ball/serviceable true, turn_+45
92.32766,360.978546,362.171997,7.196574,2.458434,7.196574,2.458434,360.000153,360.0,417.174683,90.873207,1081.719604,299.213654,13.597134,0.138132,0.21797,1098.185181,-0.011094,0.143973,0.1,0.0,1.0,2670.319092, set /instrumentation/slip-skid-ball/serviceable true, turn_+45
92.297798,366.486176,367.679626,7.192262,2.66761,7.192262,2.66761,370.000153,370.0,422.582764,90.97084,1081.478149,299.461548,13.377753,0.146094,0.2306,1098.412109,-0.011707,0.143931,0.1,0.0,1.0,2670.379395, set /instrumentation/slip-skid-ball/serviceable true, turn_+45
92.279335,370.156494,371.349945,7.188371,2.802819,7.188371,2.802819,370.000153,370.0,426.187134,91.033958,1081.11853,299.601807,13.224038,0.149732,0.234001,1098.47583,-0.012703,0.143845,0.1,0.0,1.0,2670.416992, set /instrumentation/slip-skid-ball/serviceable true, turn_+45
92.255188,375.659607,376.853058,7.182183,2.971363,7.182183,2.971363,380.000153,380.0,431.590515,91.125801,1080.190186,299.787323,12.98356,0.151851,0.233969,1098.45874,-0.013347,0.143767,0.1,0.0,1.0,2670.474365, set /instrumentation/slip-skid-ball/serviceable true, turn_+45
92.241585,379.326447,380.519897,7.177382,3.05672,7.177382,3.05672,380.000153,380.0,435.189697,91.185226,1079.323242,299.905884,12.817684,0.151192,0.232647,1098.370483,-0.014149,0.143644,0.1,0.0,1.0,2670.515137, set /instrumentation/slip-skid-ball/serviceable true, turn_+45
92.224251,384.82309,386.016541,7.17043,3.142332,7.17043,3.142332,380.000153,380.0,440.582397,91.27182,1077.7677,300.095551,12.563335,0.148258,0.231925,1098.108765,-0.014556,0.143548,0.1,0.0,1.0,2670.582275, set /instrumentation/slip-skid-ball/serviceable true, turn_+45
92.214058,388.484619,389.67804,7.165324,3.17962,7.165324,3.17962,390.000153,390.0,444.173035,91.327942,1076.652222,300.237762,12.392413,0.145884,0.233602,1097.838867,-0.014963,0.143409,0.1,0.0,1.0,2670.631348, set /instrumentation/slip-skid-ball/serviceable true, turn_+45
92.199478,393.97168,395.165131,7.158478,3.220737,7.158478,3.220737,390.000153,390.0,449.552032,91.409828,1075.014893,300.479767,12.138958,0.143052,0.239981,1097.283203,-0.015141,0.143306,0.1,0.0,1.0,2670.709717, set /instrumentation/slip-skid-ball/serviceable true, turn_+45
