airspeed_indicator_indicated_speed_kt,altimeter_indicated_altitude_ft,altimeter_pressure_alt_ft,attitude_indicator_indicated_pitch_deg,attitude_indicator_indicated_roll_deg,attitude_indicator_internal_pitch_deg,attitude_indicator_internal_roll_deg,encoder_indicated_altitude_ft,encoder_pressure_alt_ft,gps_indicated_altitude_ft,gps_indicated_ground_speed_kt,gps_indicated_vertical_speed,indicated_heading_deg,magnetic_compass_indicated_heading_deg,slip_skid_ball_indicated_slip_skid,turn_indicator_indicated_turn_rate,vertical_speed_indicator_indicated_speed_fpm,flight_aileron,flight_elevator,flight_rudder,flight_flaps,engine_throttle,engine_rpm,Command_fault,Command
3.182955,-25.030342,-23.836897,2.970143,1.377822,2.586576,0.099266,-19.999857,-20.0,2.285873,0.0,-1.34E-4,297.869263,272.741699,0.011383,-0.057095,-12.970691,-0.0,0.0,0.0,0.0,0.0,601.963684,, takeoff
3.181108,-25.030825,-23.837381,2.920282,1.21299,2.586161,0.099256,-19.999857,-20.0,2.28587,0.0,-0.004221,297.868011,276.169281,0.011367,-0.049129,-15.265739,-0.019683,0.051732,0.0,0.0,1.0,610.45929,, takeoff
3.181998,-25.031019,-23.837576,2.765459,0.721049,2.578841,0.09899,-19.999857,-20.0,2.285832,3.1E-5,-0.017887,297.867126,278.46344,0.01127,-0.044465,-16.098446,-0.017328,0.051723,6.3E-5,0.0,1.0,675.41217,, takeoff
3.189327,-25.031183,-23.83774,2.573387,0.200239,2.54221,0.096316,-19.999857,-20.0,2.285675,2.27E-4,-0.041368,297.865601,281.873383,0.011088,-0.038377,-16.768789,-0.010301,0.051577,1.07E-4,0.0,1.0,858.308411,, takeoff
3.224983,-25.031235,-23.83779,2.514073,0.09217,2.514073,0.09217,-19.999857,-20.0,2.28558,8.08E-4,-0.012126,297.86441,284.101563,0.010862,-0.034881,-16.969074,-0.002861,0.050844,1.83E-4,0.0,1.0,1012.980896,, takeoff
3.362649,-25.031214,-23.837769,2.50778,0.082055,2.50778,0.082055,-19.999857,-20.0,2.285682,0.004193,0.050847,297.862305,287.338257,0.011769,-0.030397,-16.885902,-0.001317,0.050281,2.43E-4,0.0,1.0,1259.467163,, takeoff
3.522009,-25.031113,-23.837667,2.521204,0.073232,2.521204,0.073232,-19.999857,-20.0,2.285917,0.009542,0.089501,297.860321,289.405365,0.013586,-0.027894,-16.480383,-0.001172,0.050156,3.48E-4,0.0,1.0,1418.343994,, takeoff
3.871876,-25.030806,-23.83736,2.552944,0.058283,2.552944,0.058283,-19.999857,-20.0,2.286497,0.024906,0.142995,297.854858,292.338501,0.018716,-0.025034,-15.179553,-0.001046,0.050424,4.47E-4,0.0,1.0,1632.019165,, takeoff
4.178255,-25.030489,-23.837044,2.576178,0.048079,2.576178,0.048079,-19.999857,-20.0,2.287026,0.041622,0.176792,297.848389,294.165863,0.022906,-0.023827,-13.70819,-8.33E-4,0.051059,7.2E-4,0.0,1.0,1753.383911,, takeoff
4.737949,-25.029837,-23.836391,2.607772,0.033811,2.607772,0.033811,-19.999857,-20.0,2.288024,0.078887,0.228845,297.832336,296.69046,0.031502,-0.02321,-10.021632,-6.87E-4,0.051524,0.001044,0.0,1.0,1902.158081,, takeoff
5.169363,-25.02928,-23.835836,2.625427,0.025743,2.625427,0.025743,-19.999857,-20.0,2.288834,0.113085,0.2607,297.815765,298.217194,0.035414,-0.023751,-5.073465,-4.83E-4,0.052155,0.001846,0.0,1.0,1980.578613,, takeoff
5.887697,-25.028254,-23.834808,2.645011,0.016503,2.645011,0.016503,-19.999857,-20.0,2.29028,0.180081,0.318581,297.781738,300.25592,0.03251,-0.025842,10.584044,-3.68E-4,0.052509,0.002675,0.0,1.0,2071.48291,, takeoff
6.404929,-25.027433,-23.83399,2.654409,0.012324,2.654409,0.012324,-19.999857,-20.0,2.291416,0.235927,0.361523,297.752075,301.439911,0.030994,-0.028127,14.897106,-2.36E-4,0.0529,0.004376,0.0,1.0,2117.209717,, takeoff
7.22428,-25.02599,-23.832544,2.663556,0.008799,2.663556,0.008799,-19.999857,-20.0,2.293402,0.33731,0.4323,297.698456,302.943756,0.028889,-0.032498,8.710657,-1.76E-4,0.053088,0.005859,0.0,1.0,2168.28833,, takeoff
7.792543,-25.02487,-23.831427,2.667625,0.0073,2.667625,0.0073,-19.999857,-20.0,2.29493,0.416933,0.48241,297.656921,303.761719,0.027539,-0.035949,15.031719,-1.26E-4,0.053271,0.00854,0.0,1.0,2193.10791,, takeoff
8.668355,-25.022943,-23.829498,2.671473,0.006077,2.671473,0.006077,-19.999857,-20.0,2.297547,0.554651,0.562566,297.591339,304.709808,0.025628,-0.040954,11.898994,-1.04E-4,0.053353,0.010617,0.0,1.0,2219.932861,, takeoff
9.263519,-25.021479,-23.828033,2.67321,0.005912,2.67321,0.005912,-19.999857,-20.0,2.299519,0.658666,0.618304,297.546326,305.156952,0.024486,-0.044073,18.38764,-8.7E-5,0.053429,0.013896,0.0,1.0,2232.473633,, takeoff
9.263519,-25.021479,-23.828033,2.67321,0.005912,2.67321,0.005912,-19.999857,-20.0,2.299519,0.658666,0.618304,297.546326,305.156952,0.024486,-0.044073,18.38764,-8.7E-5,0.053429,0.013896,0.0,1.0,2232.473633,, takeoff
10.774231,-25.017679,-23.824234,2.676043,0.007531,2.676043,0.007531,-19.999857,-20.0,2.305275,0.96097,0.761701,297.444916,305.644379,0.021969,-0.048858,12.782287,-8.4E-5,0.053464,0.016147,0.0,1.0,2251.02002,, takeoff
11.689601,-25.014448,-23.821003,2.677347,0.009081,2.677347,0.009081,-19.999857,-20.0,2.309309,1.170756,0.84936,297.386932,305.524231,0.021059,-0.050714,15.967568,-1.08E-4,0.053521,0.021217,0.0,1.0,2256.179688,, takeoff
12.300928,-25.012098,-23.818655,2.678198,0.010395,2.678198,0.010395,-19.999857,-20.0,2.312242,1.322135,0.90838,297.355286,305.283325,0.020739,-0.050655,14.974423,-1.3E-4,0.053547,0.024117,0.0,1.0,2257.972412,, takeoff
13.217536,-25.008268,-23.814823,2.679706,0.012262,2.679706,0.012262,-19.999857,-20.0,2.317012,1.566053,0.997111,297.322052,304.697357,0.020884,-0.048341,7.25444,-1.48E-4,0.053564,0.025699,0.0,1.0,2258.869629,, takeoff
13.802233,-25.005621,-23.812178,2.680869,0.013459,2.680869,0.013459,-19.999857,-20.0,2.320291,1.732226,1.053585,297.308472,304.192169,0.021458,-0.045848,8.178318,-1.75E-4,0.053594,0.027361,0.0,1.0,2258.591553,, takeoff
14.740225,-25.00102,-23.807577,2.682895,0.015509,2.682895,0.015509,-19.999857,-20.0,2.325945,2.015965,1.144695,297.297821,303.186768,0.0228,-0.040574,18.529417,-1.92E-4,0.053617,0.02804,0.0,1.0,2258.259521,, takeoff
15.347133,-24.997807,-23.804363,2.684397,0.017187,2.684397,0.017187,-19.999857,-20.0,2.329861,2.210555,1.203313,297.295929,302.420807,0.023855,-0.036797,9.627219,-2.22E-4,0.053658,0.028572,0.0,1.0,2258.875244,, takeoff
16.256165,-24.992641,-23.799198,2.686927,0.020011,2.686927,0.020011,-19.999857,-20.0,2.336106,2.517538,1.291876,297.296661,301.127716,0.025321,-0.031264,9.903131,-2.46E-4,0.053688,0.028667,0.0,1.0,2260.513428,, takeoff
16.861647,-24.988966,-23.795521,2.688863,0.022134,2.688863,0.022134,-19.999857,-20.0,2.340515,2.73201,1.350695,297.29718,300.183716,0.026037,-0.028029,15.79461,-2.86E-4,0.053739,0.02863,0.0,1.0,2261.885498,, takeoff
17.744219,-24.983271,-23.789827,2.691902,0.025597,2.691902,0.025597,-19.999857,-20.0,2.347298,3.058474,1.437182,297.294525,298.712921,0.026464,-0.024414,17.809532,-3.16E-4,0.053777,0.028604,0.0,1.0,2264.09375,, takeoff
18.349232,-24.97913,-23.785686,2.694185,0.028235,2.694185,0.028235,-19.999857,-20.0,2.352191,3.2915,1.49637,297.288818,297.653839,0.026211,-0.022842,13.678546,-3.66E-4,0.053838,0.028737,0.0,1.0,2265.681396,, takeoff
19.281746,-24.972374,-23.778929,2.697882,0.032677,2.697882,0.032677,-19.999857,-20.0,2.360121,3.664953,1.587747,297.272491,295.966034,0.024954,-0.021884,7.198711,-4.03E-4,0.053884,0.029022,0.0,1.0,2268.172607,, takeoff
19.886473,-24.967747,-23.774302,2.700486,0.03574,2.700486,0.03574,-19.999857,-20.0,2.365517,3.916182,1.647169,297.256714,294.849854,0.023601,-0.022149,18.233187,-4.67E-4,0.053958,0.029839,0.0,1.0,2269.794189,, takeoff
20.7932,-24.960447,-23.767002,2.704531,0.040369,2.704531,0.040369,-19.999857,-20.0,2.37398,4.305914,1.735967,297.227448,293.167175,0.020969,-0.023345,16.696314,-5.11E-4,0.05401,0.030627,0.0,1.0,2272.2146,, takeoff
21.39736,-24.955336,-23.76189,2.707473,0.043444,2.707473,0.043444,-19.999857,-20.0,2.37987,4.57412,1.795188,297.204926,292.052551,0.019053,-0.02451,16.749489,-5.77E-4,0.054091,0.032091,0.0,1.0,2273.815674,, takeoff
22.277189,-24.947479,-23.754036,2.717053,0.052681,2.717053,0.052681,-19.999857,-20.0,2.389354,4.976934,2.151453,297.171509,290.456818,0.016621,-0.025948,17.284296,-6.21E-4,0.054149,0.033217,0.0,1.0,2276.129639,, takeoff
22.904753,-24.941494,-23.748049,2.721872,0.056783,2.721872,0.056783,-19.999857,-20.0,2.396763,5.27293,2.166827,297.148041,289.35022,0.014457,-0.026859,8.00314,-7.53E-4,0.054341,0.034888,0.0,1.0,2277.767822,, takeoff
23.782442,-24.932575,-23.739132,2.726259,0.060231,2.726259,0.060231,-19.999857,-20.0,2.407524,5.698573,2.259209,297.119385,287.86438,0.012358,-0.027322,15.274974,-8.11E-4,0.054437,0.036061,0.0,1.0,2280.042969,, takeoff
24.40806,-24.925848,-23.732405,2.729677,0.062306,2.729677,0.062306,-19.999857,-20.0,2.415492,6.010435,2.327474,297.102661,286.858215,0.01166,-0.027038,9.663301,-8.6E-4,0.054525,0.037494,0.0,1.0,2281.655762,, takeoff
25.306278,-24.915733,-23.722288,2.734974,0.064796,2.734974,0.064796,-19.999857,-20.0,2.427381,6.470648,2.425785,297.085297,285.504578,0.011629,-0.025629,7.853626,-8.9E-4,0.054594,0.03833,0.0,1.0,2283.952148,, takeoff
25.879164,-24.909018,-23.715572,2.738602,0.066308,2.738602,0.066308,-19.999857,-20.0,2.435235,6.771375,2.48849,297.077728,284.705444,0.012136,-0.02429,16.324932,-9.26E-4,0.054699,0.039198,0.0,1.0,2285.406494,, takeoff
26.774492,-24.89813,-23.704685,2.74429,0.068586,2.74429,0.068586,-19.999857,-20.0,2.44793,7.252261,2.586968,297.070313,283.567657,0.013419,-0.021759,17.930849,-9.47E-4,0.054772,0.039577,0.0,1.0,2287.668701,, takeoff
27.394892,-24.890276,-23.696831,2.748387,0.070332,2.748387,0.070332,-19.999857,-20.0,2.457037,7.593328,2.655066,297.06662,282.863983,0.014363,-0.020002,18.0718,-9.8E-4,0.054886,0.039947,0.0,1.0,2289.231689,, takeoff
28.286894,-24.878536,-23.685091,2.754196,0.073175,2.754196,0.073175,-19.999857,-20.0,2.470565,8.094405,2.75331,297.06076,281.981995,0.015496,-0.017877,12.842916,-0.001005,0.054968,0.040132,0.0,1.0,2291.474854,, takeoff
28.856009,-24.870787,-23.677341,2.758032,0.075303,2.758032,0.075303,-19.999857,-20.0,2.479476,8.420517,2.894563,297.055176,281.502106,0.015838,-0.016976,11.526467,-0.001045,0.055084,0.040425,0.0,1.0,2292.904541,, takeoff
29.768984,-24.857788,-23.664345,2.771292,0.078939,2.771292,0.078939,-19.999857,-20.0,2.495407,8.954604,3.26379,297.041351,280.869476,0.015408,-0.016458,11.274284,-0.001076,0.055161,0.040704,0.0,1.0,2295.200439,, takeoff
30.360096,-24.848867,-23.655422,2.775397,0.08187,2.775397,0.08187,-19.999857,-20.0,2.506397,9.307112,3.327868,297.028381,280.551331,0.014447,-0.016789,16.791725,-0.001128,0.055426,0.041396,0.0,1.0,2296.6875,, takeoff
31.245443,-24.834799,-23.641354,2.780465,0.086419,2.780465,0.086419,-19.999857,-20.0,2.523301,9.844549,3.431974,297.003906,280.208771,0.012075,-0.017989,19.923904,-0.00117,0.055508,0.042044,0.0,1.0,2298.91626,, takeoff
31.810175,-24.825417,-23.631971,2.784104,0.0894,2.784104,0.0894,-19.999857,-20.0,2.53438,10.193214,3.501244,296.985382,280.072937,0.010049,-0.019113,15.751898,-0.001235,0.055609,0.043268,0.0,1.0,2300.339355,, takeoff
32.692596,-24.810169,-23.616726,2.790084,0.093783,2.790084,0.093783,-19.999857,-20.0,2.552166,10.746988,3.610139,296.954559,279.985657,0.00677,-0.020936,14.064496,-0.001277,0.055682,0.044194,0.0,1.0,2302.566162,, takeoff
33.303978,-24.799179,-23.605734,2.794491,0.096649,2.794491,0.096649,-19.999857,-20.0,2.564841,11.137162,3.686678,296.932678,280.011292,0.004663,-0.022118,16.515512,-0.00134,0.055802,0.045735,0.0,1.0,2304.112061,, takeoff
34.18256,-24.782793,-23.58935,2.80072,0.100134,2.80072,0.100134,-19.999857,-20.0,2.583545,11.706824,3.779964,296.903931,280.164856,0.002146,-0.023165,17.320423,-0.001381,0.05589,0.046829,0.0,1.0,2306.337646,, takeoff
34.742329,-24.771999,-23.578554,2.813644,0.103835,2.813644,0.103835,-19.999857,-20.0,2.595901,12.075463,4.132209,296.887848,280.330353,0.001131,-0.023358,18.438154,-0.00143,0.056014,0.048267,0.0,1.0,2307.759033,, takeoff
35.63982,-24.75386,-23.560415,2.82317,0.109111,2.82317,0.109111,-19.999857,-20.0,2.618041,12.675895,4.402187,296.867401,280.69693,4.3E-4,-0.022793,17.166353,-0.001483,0.056273,0.049071,0.0,1.0,2310.044434,, takeoff
36.196407,-24.742016,-23.548573,2.825139,0.110568,2.825139,0.110568,-19.999857,-20.0,2.632228,13.053601,4.477018,296.857941,280.981537,6.22E-4,-0.022018,12.883169,-0.001559,0.056463,0.050093,0.0,1.0,2311.464355,, takeoff
37.065456,-24.722692,-23.529247,2.82959,0.112332,2.82959,0.112332,-19.999857,-20.0,2.654922,13.651436,4.597871,296.848053,281.503845,0.001914,-0.020187,16.317732,-0.00158,0.056503,0.050566,0.0,1.0,2313.685791,, takeoff
37.643406,-24.709326,-23.515881,2.833595,0.113529,2.833595,0.113529,-19.999857,-20.0,2.67039,14.054361,4.6793,296.843536,281.897705,0.00318,-0.018806,15.656773,-0.001605,0.056592,0.051061,0.0,1.0,2315.165771,, takeoff
38.508202,-24.688574,-23.495131,2.84,0.115446,2.84,0.115446,-19.999857,-20.0,2.694097,14.665077,4.799585,296.837524,282.545563,0.005203,-0.016874,13.351043,-0.001622,0.056672,0.051286,0.0,1.0,2317.384766,, takeoff
39.106827,-24.673662,-23.480219,2.850466,0.117231,2.850466,0.117231,-19.999857,-20.0,2.71186,15.09351,5.373205,296.832275,283.028442,0.006256,-0.015865,19.557037,-0.001649,0.0568,0.051587,0.0,1.0,2318.924805,, takeoff
39.966179,-24.651098,-23.457653,2.858666,0.121489,2.858666,0.121489,-19.999857,-20.0,2.739088,15.716445,5.516233,296.820892,283.759094,0.007045,-0.015171,16.721922,-0.001675,0.057009,0.051849,0.0,1.0,2321.140869,, takeoff
40.537918,-24.635357,-23.441914,2.86265,0.123799,2.86265,0.123799,-19.999857,-20.0,2.757619,16.135538,5.598935,296.809875,284.262482,0.006795,-0.015322,17.34157,-0.001736,0.057173,0.052419,0.0,1.0,2322.617432,, takeoff
41.39365,-24.610847,-23.417404,2.868467,0.127558,2.868467,0.127558,-19.999857,-20.0,2.785942,16.769676,5.726923,296.788422,285.030457,0.005272,-0.016279,18.213129,-0.001769,0.057253,0.052969,0.0,1.0,2324.831299,, takeoff
41.962929,-24.593985,-23.400539,2.872635,0.130238,2.872635,0.130238,-19.999857,-20.0,2.805184,17.19598,5.81398,296.770996,285.544556,0.003578,-0.017322,18.712807,-0.001822,0.057369,0.054042,0.0,1.0,2326.306641,, takeoff
42.814468,-24.567877,-23.374434,2.878918,0.134157,2.878918,0.134157,-19.999857,-20.0,2.83459,17.840555,5.944614,296.742493,286.308228,4.56E-4,-0.019052,12.791642,-0.001861,0.057453,0.054913,0.0,1.0,2328.518311,, takeoff
43.356834,-24.550741,-23.357296,2.888287,0.141735,2.888287,0.141735,-19.999857,-20.0,2.854442,18.255476,6.521886,296.723663,286.785919,-9.78E-4,-0.019953,16.625183,-0.001917,0.057578,0.056339,0.0,1.0,2329.932373,, takeoff
44.201756,-24.522591,-23.329147,2.900678,0.150537,2.900678,0.150537,-19.999857,-20.0,2.888999,18.909571,6.992104,296.695709,287.508301,-0.004757,-0.02111,21.211403,-0.002025,0.057766,0.05728,0.0,1.0,2333.086426,, takeoff
44.787251,-24.502056,-23.308611,2.904756,0.152771,2.904756,0.152771,-19.999857,-20.0,2.913443,19.367031,7.083883,296.678131,287.986359,-0.006555,-0.021582,17.379194,-0.002151,0.058014,0.058678,0.0,1.0,2336.012207,, takeoff
45.605659,-24.472128,-23.278685,2.910153,0.155032,2.910153,0.155032,-19.999857,-20.0,2.948221,20.011759,7.222121,296.658539,288.615753,-0.008003,-0.021384,12.064436,-0.002182,0.058095,0.059557,0.0,1.0,2340.708496,, takeoff
46.166153,-24.450901,-23.257458,2.91441,0.156302,2.91441,0.156302,-19.999857,-20.0,2.972464,20.456665,7.319796,296.648346,289.016602,-0.008118,-0.020772,12.638868,-0.002215,0.058203,0.060536,0.0,1.0,2344.185303,, takeoff
47.029381,-24.417154,-23.223711,2.921112,0.157671,2.921112,0.157671,-19.999857,-20.0,3.01048,21.146894,7.471164,296.63736,289.579651,-0.007054,-0.01921,17.438848,-0.002233,0.058288,0.061046,0.0,1.0,2349.787598,, takeoff
47.588837,-24.394669,-23.201223,2.925637,0.158486,2.925637,0.158486,-19.999857,-20.0,3.035557,21.597345,7.57038,296.632202,289.906433,-0.005756,-0.018034,17.867477,-0.002252,0.058422,0.061595,0.0,1.0,2353.520752,, takeoff
48.42746,-24.360117,-23.166674,2.932136,0.159681,2.932136,0.159681,-19.999857,-20.0,3.073785,22.276934,7.717494,296.625336,290.336273,-0.003376,-0.016353,18.474007,-0.002264,0.058513,0.061853,0.0,1.0,2359.207764,, takeoff
48.986237,-24.336567,-23.143122,2.936552,0.160665,2.936552,0.160665,-19.999857,-20.0,3.099682,22.732533,7.81604,296.619904,290.581024,-0.001848,-0.015513,18.856073,-0.002281,0.058643,0.062196,0.0,1.0,2363.036377,, takeoff
49.824043,-24.300503,-23.107059,2.942874,0.162443,2.942874,0.162443,-19.999857,-20.0,3.139141,23.419626,7.963389,296.608673,290.883728,-1.18E-4,-0.014888,18.066011,-0.002295,0.058731,0.062468,0.0,1.0,2368.815186,, takeoff
50.382389,-24.27599,-23.082544,2.946778,0.164322,2.946778,0.164322,-19.999857,-20.0,3.165793,23.880087,7.999331,296.598267,291.042053,4.82E-4,-0.014972,14.863988,-0.002321,0.058857,0.063029,0.0,1.0,2372.684326, set /instrumentation/magnetic-compass/serviceable false, takeoff
51.219818,-24.238611,-23.045166,2.952087,0.167604,2.952087,0.167604,-19.999857,-20.0,3.205963,24.574274,8.101091,296.578278,291.108154,2.23E-4,-0.015757,21.106403,-0.002347,0.058936,0.06355,0.0,1.0,2378.506104, set /instrumentation/magnetic-compass/serviceable false, takeoff
51.754635,-24.214388,-23.020943,2.956165,0.169339,2.956165,0.169339,-19.999857,-20.0,3.232001,25.01992,8.19689,296.562866,291.108154,-6.17E-4,-0.016616,17.708017,-0.002394,0.059042,0.064549,0.0,1.0,2382.234619, set /instrumentation/magnetic-compass/serviceable false, takeoff
52.614319,-24.17478,-22.981337,2.965752,0.170422,2.965752,0.170422,-19.999857,-20.0,3.275034,25.740221,8.80605,296.536102,291.108154,-0.002719,-0.018167,21.31629,-0.002419,0.059123,0.06532,0.0,1.0,2388.244629, set /instrumentation/magnetic-compass/serviceable false, takeoff
53.171326,-24.148527,-22.955084,2.971701,0.171766,2.971701,0.171766,-19.999857,-20.0,3.30457,26.209612,8.90627,296.518188,291.108154,-0.004123,-0.019108,17.875883,-0.002435,0.059315,0.066658,0.0,1.0,2392.149414, set /instrumentation/magnetic-compass/serviceable false, takeoff
54.004688,-24.107891,-22.914448,2.986155,0.173657,2.986155,0.173657,-19.999857,-20.0,3.351843,26.916792,9.952286,296.493683,291.108154,-0.00598,-0.019958,22.578291,-0.002454,0.059434,0.067554,0.0,1.0,2398.014404, set /instrumentation/magnetic-compass/serviceable false, takeoff
54.559502,-24.079647,-22.886202,2.99097,0.174716,2.99097,0.174716,-19.999857,-20.0,3.385177,27.39024,10.045338,296.47934,291.108154,-0.006782,-0.02015,14.528028,-0.002481,0.059723,0.068779,0.0,1.0,2401.927979, set /instrumentation/magnetic-compass/serviceable false, takeoff
55.391254,-24.035669,-22.842224,2.995932,0.175715,2.995932,0.175715,-19.999857,-20.0,3.43579,28.10331,10.198482,296.462402,291.108154,-0.006975,-0.01968,13.875732,-0.002496,0.059819,0.069496,0.0,1.0,2407.804443, set /instrumentation/magnetic-compass/serviceable false, takeoff
55.945278,-24.005413,-22.811968,2.999748,0.176231,2.999748,0.176231,-19.999857,-20.0,3.469978,28.580564,10.309253,296.453949,291.108154,-0.006425,-0.018975,19.002956,-0.00251,0.059919,0.070343,0.0,1.0,2411.726074, set /instrumentation/magnetic-compass/serviceable false, takeoff
56.775349,-23.958801,-22.765358,3.007982,0.179172,3.007982,0.179172,-19.999857,-20.0,3.522341,29.299166,10.810522,296.445068,291.108154,-0.004261,-0.017368,19.609879,-0.002518,0.059995,0.070766,0.0,1.0,2417.614502, set /instrumentation/magnetic-compass/serviceable false, takeoff
57.327618,-23.926746,-22.733303,3.015338,0.182292,3.015338,0.182292,-19.999857,-20.0,3.55933,29.779989,11.162833,296.440521,291.108154,-0.002847,-0.016244,20.152754,-0.00256,0.06016,0.07121,0.0,1.0,2421.543213, set /instrumentation/magnetic-compass/serviceable false, takeoff
58.15543,-23.877098,-22.683655,3.020966,0.182569,3.020966,0.182569,-19.999857,-20.0,3.615564,30.503761,11.327701,296.433533,291.108154,1.15E-4,-0.014862,20.892735,-0.002604,0.060307,0.071437,0.0,1.0,2427.441406, set /instrumentation/magnetic-compass/serviceable false, takeoff
58.706936,-23.843079,-22.649633,3.024604,0.182742,3.024604,0.182742,-19.999857,-20.0,3.653522,30.987917,11.442994,296.427673,291.108154,0.002099,-0.014251,21.327236,-0.002608,0.060419,0.071787,0.0,1.0,2431.377441, set /instrumentation/magnetic-compass/serviceable false, takeoff
59.533646,-23.790823,-22.597378,3.030046,0.182993,3.030046,0.182993,-19.999857,-20.0,3.711185,31.71653,11.617945,296.415924,291.108154,0.004756,-0.013914,21.913954,-0.002611,0.060492,0.07208,0.0,1.0,2437.287842, set /instrumentation/magnetic-compass/serviceable false, takeoff
60.083443,-23.755083,-22.561638,3.043801,0.183143,3.043801,0.183143,-19.999857,-20.0,3.752843,32.203804,12.983044,296.405823,291.108154,0.006099,-0.014075,22.491549,-0.002614,0.060601,0.072667,0.0,1.0,2441.232422, set /instrumentation/magnetic-compass/serviceable false, takeoff
60.90686,-23.69923,-22.505785,3.050544,0.183161,3.050544,0.183161,-19.999857,-20.0,3.818165,32.936909,13.143222,296.387451,291.108154,0.00774,-0.01479,23.585089,-0.002616,0.060876,0.073172,0.0,1.0,2447.160645, set /instrumentation/magnetic-compass/serviceable false, takeoff
61.455692,-23.66066,-22.467216,3.053532,0.183123,3.053532,0.183123,-19.999857,-20.0,3.862181,33.427067,13.262434,296.373505,291.108154,0.008519,-0.015471,18.880653,-0.002617,0.061011,0.074091,0.0,1.0,2451.162842, set /instrumentation/magnetic-compass/serviceable false, takeoff
62.278515,-23.601103,-22.40766,3.058295,0.182809,3.058295,0.182809,-19.999857,-20.0,3.928976,34.16436,13.451653,296.352417,291.108154,0.009453,-0.01638,21.69552,-0.002616,0.061071,0.074788,0.0,1.0,2457.235107, set /instrumentation/magnetic-compass/serviceable false, takeoff
62.826683,-23.560539,-22.367094,3.061871,0.182463,3.061871,0.182463,-19.999857,-20.0,3.974039,34.657223,13.58125,296.33905,291.108154,0.010104,-0.016797,18.906754,-0.002612,0.061166,0.075842,0.0,1.0,2461.314453, set /instrumentation/magnetic-compass/serviceable false, takeoff
63.648365,-23.498095,-22.304649,3.067177,0.181527,3.067177,0.181527,-19.999857,-20.0,4.042444,35.398441,13.775627,296.322327,291.108154,0.011545,-0.016823,23.79739,-0.002607,0.061237,0.076511,0.0,1.0,2467.463867, set /instrumentation/magnetic-compass/serviceable false, takeoff
64.195686,-23.45565,-22.262205,3.070848,0.180726,3.070848,0.180726,-19.999857,-20.0,4.088591,35.893837,13.906564,296.313599,291.108154,0.012966,-0.016458,18.515556,-0.002593,0.061344,0.077347,0.0,1.0,2471.577881, set /instrumentation/magnetic-compass/serviceable false, fly_strait
65.018616,-23.390837,-22.197392,3.077018,0.198054,3.077018,0.198054,-19.999857,-20.0,4.159238,36.638744,14.47871,296.232117,291.108154,0.010037,-0.028481,16.239574,-0.002582,0.061417,0.0,0.0,1.0,2477.767334, set /instrumentation/magnetic-compass/serviceable false, fly_strait
65.573105,-23.34667,-22.153227,3.081674,0.205176,3.081674,0.205176,-19.999857,-20.0,4.2085,37.136559,14.872054,295.994995,291.108154,-0.002858,-0.065048,16.610226,-0.002829,0.06154,0.004074,0.0,1.0,2481.916504, set /instrumentation/magnetic-compass/serviceable false, fly_strait
66.413567,-23.278824,-22.085379,3.079709,0.191424,3.079709,0.191424,-19.999857,-20.0,4.283321,37.886002,15.056852,295.426147,291.108154,-0.042573,-0.146107,16.858517,-0.002931,0.061633,0.01593,0.0,1.0,2488.195313, set /instrumentation/magnetic-compass/serviceable false, fly_strait
66.977463,-23.232639,-22.039196,3.078177,0.175807,3.078177,0.175807,-19.999857,-20.0,4.333759,38.388416,15.202661,294.975769,291.108154,-0.081271,-0.204161,17.194468,-0.002735,0.061594,0.044373,0.0,1.0,2492.419678, set /instrumentation/magnetic-compass/serviceable false, fly_strait
67.826286,-23.162062,-21.968616,3.078879,0.144761,3.078879,0.144761,-19.999857,-20.0,4.410398,39.144039,15.451135,294.370483,291.108154,-0.144051,-0.268414,17.665667,-0.002512,0.061564,0.066891,0.0,1.0,2498.807861, set /instrumentation/magnetic-compass/serviceable false, fly_strait
68.389229,-23.11418,-21.920734,3.083414,0.125795,3.083414,0.125795,-19.999857,-20.0,4.462216,39.649113,15.632616,294.087799,291.108154,-0.179912,-0.286402,17.968428,-0.002068,0.061578,0.097156,0.0,1.0,2503.09082, set /instrumentation/magnetic-compass/serviceable false, fly_strait
69.231064,-23.041067,-21.847624,3.087538,0.08567,3.087538,0.08567,-19.999857,-20.0,4.54237,40.408535,16.634953,293.958832,291.108154,-0.212706,-0.263526,18.494385,-0.001797,0.061668,0.11129,0.0,1.0,2509.526855, set /instrumentation/magnetic-compass/serviceable false, fly_strait
69.795448,-22.991096,-21.797653,3.06488,0.019886,3.06488,0.019886,-19.999857,-20.0,4.599138,40.916004,17.331873,294.084351,291.108154,-0.216189,-0.217847,20.772831,-0.001224,0.061751,0.117738,0.0,1.0,2513.830322, set /instrumentation/magnetic-compass/serviceable false, fly_strait
70.636147,-22.91374,-21.720295,3.020125,-0.099581,3.020125,-0.099581,-19.999857,-20.0,4.688395,41.679024,18.863581,294.539368,291.108154,-0.191145,-0.116899,21.440351,-2.84E-4,0.061298,0.111462,0.0,1.0,2520.307373, set /instrumentation/magnetic-compass/serviceable false, fly_strait
71.180504,-22.860142,-21.666698,3.008033,-0.142028,3.008033,-0.142028,-19.999857,-20.0,4.751282,42.188759,18.768385,294.952606,291.108154,-0.155401,-0.040378,22.17062,0.001423,0.060403,0.088712,0.0,1.0,2524.603516, set /instrumentation/magnetic-compass/serviceable false, fly_strait
71.976433,-22.777056,-21.583611,3.008506,-0.155136,3.008506,-0.155136,-19.999857,-20.0,4.8448,42.954605,18.91396,295.546448,291.108154,-0.08521,0.056037,20.365988,0.002029,0.060161,0.06805,0.0,1.0,2530.960693, set /instrumentation/magnetic-compass/serviceable false, fly_strait
72.500809,-22.72007,-21.526627,2.989806,-0.131708,2.989806,-0.131708,-19.999857,-20.0,4.910645,43.465797,20.576536,295.834564,291.108154,-0.03642,0.095642,23.042555,0.002216,0.06017,0.038358,0.0,1.0,2535.136719, set /instrumentation/magnetic-compass/serviceable false, fly_strait
73.296448,-22.630934,-21.437489,2.872811,-0.021304,2.872811,-0.021304,-19.999857,-20.0,5.016937,44.233292,21.354214,295.970703,291.108154,0.026198,0.102471,20.600798,0.001882,0.059796,0.023952,0.0,1.0,2541.357178, set /instrumentation/magnetic-compass/serviceable false, fly_strait
73.837532,-22.569139,-21.375694,2.790168,0.039161,2.790168,0.039161,-19.999857,-20.0,5.086811,44.745411,20.491255,295.8461,291.108154,0.054104,0.072288,19.392284,3.04E-4,0.057456,0.017145,0.0,1.0,2545.515625, set /instrumentation/magnetic-compass/serviceable false, fly_strait
74.661324,-22.474541,-21.281097,2.742851,-0.025225,2.742851,-0.025225,-19.999857,-20.0,5.188972,45.514427,20.942949,295.398193,291.108154,0.071009,-0.011208,19.781328,-5.59E-4,0.055803,0.023375,0.0,1.0,2551.810303, set /instrumentation/magnetic-compass/serviceable false, fly_strait
75.216698,-22.410223,-21.21678,2.707271,-0.222656,2.707271,-0.222656,-19.999857,-20.0,5.260984,46.027786,22.173998,295.007233,291.108154,0.067144,-0.077321,20.180653,3.6E-4,0.054857,0.04577,0.0,1.0,2556.05249, set /instrumentation/magnetic-compass/serviceable false, fly_strait
76.055023,-22.310545,-21.1171,2.640025,-0.749616,2.640025,-0.749616,-19.999857,-20.0,5.378279,46.799061,25.110363,294.492157,291.108154,0.046162,-0.156963,21.13059,0.003181,0.054145,0.065318,0.0,1.0,2562.489502, set /instrumentation/magnetic-compass/serviceable false, fly_strait
76.611572,-22.240614,-21.047171,2.645844,-1.190343,2.645844,-1.190343,-19.999857,-20.0,5.469344,47.314133,29.884525,294.283478,291.108154,0.029508,-0.183771,22.275078,0.010709,0.0528,0.091072,0.0,1.0,2566.817871, set /instrumentation/magnetic-compass/serviceable false, fly_strait
77.428734,-22.124283,-20.930838,2.763445,-1.796722,2.763445,-1.796722,-19.999857,-20.0,5.654654,48.087887,45.783031,294.262939,291.108154,0.011104,-0.1716,26.042721,0.017005,0.052917,0.101506,0.0,1.0,2573.325684, set /instrumentation/magnetic-compass/serviceable false, fly_strait
77.950424,-22.031549,-20.838106,2.894486,-2.071978,2.894486,-2.071978,-19.999857,-20.0,5.835614,48.604191,62.908367,294.426697,291.108154,0.009299,-0.133887,30.90077,0.025667,0.055269,0.102533,0.0,1.0,2577.635498, set /instrumentation/magnetic-compass/serviceable false, fly_strait
78.683769,-21.850521,-20.657078,3.106239,-2.147421,3.106239,-2.147421,-19.999857,-20.0,6.23055,49.378536,95.028748,294.81601,291.108154,0.023461,-0.055046,42.702869,0.0296,0.05789,0.094345,0.0,1.0,2583.97583, set /instrumentation/magnetic-compass/serviceable false, fly_strait
79.138161,-21.689432,-20.495989,3.252903,-1.976719,3.252903,-1.976719,-19.999857,-20.0,6.587777,49.894154,118.63929,295.076324,291.108154,0.04175,-0.004574,53.494431,0.030677,0.062125,0.074879,0.0,1.0,2588.077148, set /instrumentation/magnetic-compass/serviceable false, fly_strait
79.779472,-21.367514,-20.174068,3.427119,-1.480905,3.427119,-1.480905,-19.999857,-20.0,7.273047,50.665745,154.051575,295.295593,291.108154,0.074055,0.039451,73.423569,0.028239,0.065058,0.061864,0.0,1.0,2594.01001, set /instrumentation/magnetic-compass/serviceable false, fly_strait
80.189171,-21.090372,-19.896927,3.526532,-1.092322,3.526532,-1.092322,-19.999857,-20.0,7.824625,51.178432,175.818192,295.277191,291.108154,0.091501,0.040337,88.514236,0.021156,0.068542,0.0509,0.0,1.0,2597.82959, set /instrumentation/magnetic-compass/serviceable false, fly_strait
80.789803,-20.571527,-19.378082,3.633297,-0.634008,3.633297,-0.634008,-19.999857,-20.0,8.779046,51.944332,204.128067,295.007629,291.108154,0.104218,0.00112,112.623756,0.015605,0.070531,0.05182,0.0,1.0,2603.133301, set /instrumentation/magnetic-compass/serviceable false, fly_strait
81.183235,-20.154976,-18.961533,3.696594,-0.47705,3.696594,-0.47705,-19.999857,-20.0,9.488647,52.452637,220.844177,294.725067,291.108154,0.100919,-0.04077,128.990662,0.009057,0.072666,0.065298,0.0,1.0,2606.009277, set /instrumentation/magnetic-compass/serviceable false, fly_strait
81.76001,-19.424786,-18.231342,3.786954,-0.525569,3.786954,-0.525569,-19.999857,-20.0,10.65325,53.211426,243.945267,294.319763,291.108154,0.082155,-0.098143,153.359039,0.006815,0.073932,0.079427,0.0,1.0,2609.605713, set /instrumentation/magnetic-compass/serviceable false, fly_strait
82.133316,-18.86915,-17.675707,3.859459,-0.690624,3.859459,-0.690624,-19.999857,-20.0,11.492048,53.714699,258.809082,294.146454,291.108154,0.066313,-0.1188,169.294815,0.007508,0.075739,0.099692,0.0,1.0,2611.669678, set /instrumentation/magnetic-compass/serviceable false, fly_strait
82.670944,-17.935047,-16.741604,3.976784,-0.985044,3.976784,-0.985044,-19.999857,-20.0,12.844275,54.465363,281.478973,294.134491,291.108154,0.047412,-0.107676,192.722961,0.009866,0.077189,0.108357,0.0,1.0,2614.424805, set /instrumentation/magnetic-compass/serviceable false, fly_strait
83.007835,-17.246243,-16.052799,4.070339,-1.113641,4.070339,-1.113641,-19.999857,-20.0,13.809196,54.962654,296.986481,294.285797,291.108154,0.044349,-0.074751,208.1091,0.014072,0.079536,0.108955,0.0,1.0,2616.090332, set /instrumentation/magnetic-compass/serviceable false, fly_strait
83.474052,-16.114717,-14.921273,4.207415,-1.069147,4.207415,-1.069147,-19.999857,-20.0,15.356363,55.703136,321.815704,294.646515,291.108154,0.056008,-0.005986,231.032852,0.015909,0.081407,0.10139,0.0,1.0,2618.384521, set /instrumentation/magnetic-compass/serviceable false, fly_strait
83.896675,-14.863481,-13.670036,4.351063,-0.740278,4.351063,-0.740278,-9.999858,-10.0,17.039858,56.436165,351.561493,294.987701,291.108154,0.081822,0.054662,254.246689,0.015274,0.084148,0.083354,0.0,1.0,2620.474121, set /instrumentation/magnetic-compass/serviceable false, fly_strait
84.161171,-13.959565,-12.766121,4.439995,-0.425523,4.439995,-0.425523,-9.999858,-10.0,18.249249,56.920235,373.260071,295.10202,291.108154,0.101057,0.073764,270.288666,0.01252,0.086094,0.071155,0.0,1.0,2621.774414, set /instrumentation/magnetic-compass/serviceable false, fly_strait
84.416534,-12.996811,-11.803367,4.53397,-0.104894,4.53397,-0.104894,-9.999858,-10.0,19.52994,57.400368,393.812836,295.097229,291.108154,0.115849,0.072123,286.932922,0.006079,0.0888,0.060579,0.0,1.0,2623.015869, set /instrumentation/magnetic-compass/serviceable false, fly_strait
84.793068,-11.43976,-10.246316,4.634509,0.225933,4.634509,0.225933,-9.999858,-10.0,21.564594,58.112988,417.856567,294.884308,291.108154,0.124969,0.034703,312.598877,0.001498,0.090679,0.060819,0.0,1.0,2624.794922, set /instrumentation/magnetic-compass/serviceable false, fly_strait
85.169312,-9.752067,-8.558622,4.688588,0.283288,4.688588,0.283288,-9.999858,-10.0,23.698206,58.816547,434.663269,294.55545,291.108154,0.114878,-0.020077,337.80722,-0.003228,0.09269,0.071465,0.0,1.0,2626.504883, set /instrumentation/magnetic-compass/serviceable false, fly_strait
85.420166,-8.560181,-7.366736,4.709921,0.162916,4.709921,0.162916,-9.999858,-10.0,25.164225,59.280659,444.331757,294.377563,291.108154,0.100483,-0.048376,353.759247,-0.004278,0.093524,0.082449,0.0,1.0,2627.617432, set /instrumentation/magnetic-compass/serviceable false, fly_strait
85.667953,-7.319311,-6.125867,4.743865,-0.030173,4.743865,-0.030173,-9.999858,-10.0,26.661102,59.740879,453.470398,294.285706,291.108154,0.085628,-0.061547,368.856201,-0.002327,0.094198,0.096802,0.0,1.0,2628.710938, set /instrumentation/magnetic-compass/serviceable false, fly_strait
86.026024,-5.373319,-4.179874,4.821423,-0.318515,4.821423,-0.318515,1.42E-4,0.0,28.966446,60.423847,468.651184,294.363251,291.108154,0.069911,-0.04488,389.927216,4.31E-4,0.094877,0.101395,0.0,1.0,2630.30957, set /instrumentation/magnetic-compass/serviceable false, fly_strait
86.355469,-3.331611,-2.138166,4.924495,-0.441989,4.924495,-0.441989,1.42E-4,0.0,31.355158,61.097622,486.920929,294.645874,291.108154,0.071301,0.004112,409.575989,0.00455,0.096428,0.097517,0.0,1.0,2631.834229, set /instrumentation/magnetic-compass/serviceable false, fly_strait
86.55722,-1.918223,-0.724779,4.990809,-0.37618,4.990809,-0.37618,1.42E-4,0.0,33.001816,61.541409,500.582336,294.866821,291.108154,0.081794,0.040559,422.262543,0.006138,0.097802,0.088783,0.0,1.0,2632.802979, set /instrumentation/magnetic-compass/serviceable false, fly_strait
86.838837,0.353975,1.547419,5.088782,-0.102541,5.088782,-0.102541,1.42E-4,0.0,35.559654,62.198597,522.098145,295.117279,291.108154,0.104259,0.078923,441.168762,0.005374,0.099816,0.072339,0.0,1.0,2634.182861, set /instrumentation/magnetic-compass/serviceable false, fly_strait
87.020988,1.949429,3.142873,5.138578,0.128876,5.138578,0.128876,1.42E-4,0.0,37.324677,62.630913,536.152527,295.164795,291.108154,0.11865,0.083155,453.865112,0.003015,0.101183,0.062984,0.0,1.0,2635.060791, set /instrumentation/magnetic-compass/serviceable false, fly_strait
87.29509,4.429114,5.622559,5.205583,0.406396,5.205583,0.406396,1.42E-4,0.0,40.056808,63.270645,555.951416,295.046631,291.108154,0.128782,0.057755,473.083801,-0.001841,0.102772,0.05744,0.0,1.0,2636.334473, set /instrumentation/magnetic-compass/serviceable false, fly_strait
87.479942,6.139713,7.333158,5.24759,0.476984,5.24759,0.476984,10.000142,10.0,41.931469,63.691399,568.256958,294.879395,291.108154,0.125752,0.026796,485.934204,-0.005806,0.104112,0.063348,0.0,1.0,2637.165771, set /instrumentation/magnetic-compass/serviceable false, fly_strait
87.75808,8.790191,9.983635,5.304769,0.363352,5.304769,0.363352,10.000142,10.0,44.816963,64.314171,585.157898,294.625549,291.108154,0.109063,-0.018377,505.074829,-0.006814,0.104952,0.07171,0.0,1.0,2638.396484, set /instrumentation/magnetic-compass/serviceable false, fly_strait
87.94149,10.611938,11.805383,5.345522,0.184508,5.345522,0.184508,10.000142,10.0,46.786125,64.723923,595.881653,294.529083,291.108154,0.094348,-0.035048,517.625488,-0.006107,0.105718,0.080626,0.0,1.0,2639.208008, set /instrumentation/magnetic-compass/serviceable false, fly_strait
88.206657,13.423815,14.617259,5.42311,-0.110982,5.42311,-0.110982,10.000142,10.0,49.808331,65.33049,612.800476,294.554596,291.108154,0.077327,-0.030771,536.027527,-0.002636,0.10691,0.089226,0.0,1.0,2640.407715, set /instrumentation/magnetic-compass/serviceable true, fly_strait
88.371796,15.350342,16.543787,5.484811,-0.250136,5.484811,-0.250136,20.000143,20.0,51.87196,65.729424,625.054382,294.681183,291.187897,0.073368,-0.009853,548.055542,0.001585,0.108462,0.08795,0.0,1.0,2641.189453, set /instrumentation/magnetic-compass/serviceable true, fly_strait
88.597298,18.31827,19.511715,5.575953,-0.271266,5.575953,-0.271266,20.000143,20.0,55.047031,66.319397,644.555786,294.949219,291.15271,0.080238,0.033382,565.9328,0.003573,0.109696,0.081621,0.0,1.0,2642.321289, set /instrumentation/magnetic-compass/serviceable true, fly_strait
88.734459,20.34976,21.543203,5.63437,-0.164823,5.63437,-0.164823,20.000143,20.0,57.218678,66.706932,657.861755,295.108215,291.031708,0.09131,0.057648,577.858093,0.004155,0.110922,0.072797,0.0,1.0,2643.043213, set /instrumentation/magnetic-compass/serviceable true, fly_strait
88.928459,23.477783,24.671228,5.719825,0.089603,5.719825,0.089603,20.000143,20.0,60.559803,67.279358,678.051758,295.22522,290.714142,0.108796,0.072189,595.879333,0.002355,0.112687,0.060269,0.0,1.0,2644.077881, set /instrumentation/magnetic-compass/serviceable true, fly_strait
89.055573,25.617777,26.81122,5.768598,0.255079,5.768598,0.255079,30.000143,30.0,62.842701,67.655014,691.1026,295.196228,290.417419,0.116375,0.063632,608.015015,-0.00128,0.114396,0.054419,0.0,1.0,2644.741455, set /instrumentation/magnetic-compass/serviceable true, fly_strait
89.248795,28.91008,30.103525,5.821605,0.373761,5.821605,0.373761,30.000143,30.0,66.34478,68.209686,708.741333,295.022858,289.85434,0.116654,0.029523,626.347107,-0.003644,0.115372,0.055869,0.0,1.0,2645.711914, set /instrumentation/magnetic-compass/serviceable true, fly_strait
89.379425,31.158901,32.352345,5.858088,0.343148,5.858088,0.343148,30.000143,30.0,68.725494,68.573746,719.19043,294.873108,289.406006,0.108864,0.002229,638.541992,-0.005339,0.116432,0.064537,0.0,1.0,2646.348877, set /instrumentation/magnetic-compass/serviceable true, fly_strait
89.574921,34.609951,35.803398,5.91251,0.148502,5.91251,0.148502,30.000143,30.0,72.359833,69.111519,733.98584,294.715546,288.634827,0.09045,-0.02573,656.563904,-0.004902,0.117162,0.072025,0.0,1.0,2647.294434, set /instrumentation/magnetic-compass/serviceable true, fly_strait
89.701805,36.960548,38.153996,5.955535,-0.024197,5.955535,-0.024197,40.000141,40.0,74.823257,69.464592,743.73761,294.697876,288.062256,0.079129,-0.02902,668.306763,-0.002121,0.11825,0.079903,0.0,1.0,2647.917236, set /instrumentation/magnetic-compass/serviceable true, fly_strait
89.880318,40.558487,41.751934,6.023071,-0.222154,6.023071,-0.222154,40.000141,40.0,78.580437,69.986046,758.773193,294.819305,287.130432,0.070066,-0.008877,685.465881,3.46E-4,0.119111,0.080786,0.0,1.0,2648.832275, set /instrumentation/magnetic-compass/serviceable true, fly_strait
89.987968,43.004089,44.197533,6.07613,-0.268336,6.07613,-0.268336,40.000141,40.0,81.127625,70.328171,769.238098,294.966919,286.470093,0.071989,0.014964,696.628967,0.003174,0.120461,0.074715,0.0,1.0,2649.423096, set /instrumentation/magnetic-compass/serviceable true, fly_strait
90.132744,46.742184,47.935627,6.149036,-0.172753,6.149036,-0.172753,50.000141,50.0,85.015564,70.832886,785.482361,295.18219,285.437805,0.084423,0.048287,713.065674,0.003833,0.121523,0.067334,0.0,1.0,2650.27002, set /instrumentation/magnetic-compass/serviceable true, fly_strait
90.221718,49.280666,50.474113,6.19564,-0.035401,6.19564,-0.035401,50.000141,50.0,87.652489,71.16362,796.262329,295.269135,284.731232,0.094918,0.060127,723.885498,0.002468,0.122981,0.05657,0.0,1.0,2650.807617, set /instrumentation/magnetic-compass/serviceable true, fly_strait
90.353012,53.157837,54.351284,6.2464,0.176999,6.2464,0.176999,50.000141,50.0,91.673759,71.651093,811.481323,295.256989,283.658325,0.106939,0.05327,739.971558,5.06E-4,0.123913,0.052223,0.0,1.0,2651.580078, set /instrumentation/magnetic-compass/serviceable true, fly_strait
90.442513,55.788284,56.981731,6.276262,0.265929,6.276262,0.265929,60.000141,60.0,94.394539,71.970406,820.528687,295.164337,282.941772,0.108243,0.034961,750.584351,-0.002529,0.124928,0.05283,0.0,1.0,2652.079834, set /instrumentation/magnetic-compass/serviceable true, fly_strait
90.580963,59.799999,60.993446,6.312906,0.247557,6.312906,0.247557,60.000141,60.0,98.52903,72.441147,832.617615,294.976288,281.876129,0.09972,4.18E-4,766.223877,-0.003799,0.125525,0.057463,0.0,1.0,2652.818115, set /instrumentation/magnetic-compass/serviceable true, fly_strait
90.674812,62.51651,63.709957,6.339508,0.146342,6.339508,0.146342,60.000141,60.0,101.317169,72.749672,839.942017,294.872253,281.177856,0.089361,-0.017975,776.381653,-0.003537,0.126258,0.066866,0.0,1.0,2653.305908, set /instrumentation/magnetic-compass/serviceable true, fly_strait
90.81337,66.650597,67.84404,6.380931,-0.067559,6.380931,-0.067559,70.000145,70.0,105.544403,73.204704,850.610291,294.831421,280.158997,0.073481,-0.025044,791.10376,-0.002091,0.12679,0.072067,0.0,1.0,2654.031494, set /instrumentation/magnetic-compass/serviceable true, fly_strait
90.900566,69.44429,70.637733,6.415687,-0.193682,6.415687,-0.193682,70.000145,70.0,108.392227,73.502945,857.871887,294.891693,279.505188,0.067559,-0.015056,800.550537,9.65E-4,0.127619,0.074109,0.0,1.0,2654.508057, set /instrumentation/magnetic-compass/serviceable true, fly_strait
91.018356,73.688972,74.882416,6.470487,-0.262049,6.470487,-0.262049,70.000145,70.0,112.710945,73.942574,869.382324,295.069794,278.573639,0.068567,0.014094,814.204468,0.002767,0.128314,0.071095,0.0,1.0,2655.20166, set /instrumentation/magnetic-compass/serviceable true, fly_strait
91.087479,76.554146,77.747589,6.510491,-0.217818,6.510491,-0.217818,80.000145,80.0,115.622726,74.230431,877.44751,295.200104,277.991608,0.07538,0.034544,823.018921,0.003744,0.12941,0.06219,0.0,1.0,2655.644775, set /instrumentation/magnetic-compass/serviceable true, fly_strait
91.182144,80.904564,82.098007,6.558248,-0.048858,6.558248,-0.048858,80.000145,80.0,120.041405,74.654259,889.566101,295.317719,277.186035,0.089573,0.050953,835.924866,0.003112,0.13021,0.055675,0.0,1.0,2656.2771, set /instrumentation/magnetic-compass/serviceable true, fly_strait
91.243591,83.839775,85.033218,6.585379,0.080204,6.585379,0.080204,80.000145,80.0,123.019882,74.931511,897.171021,295.317688,276.697998,0.096844,0.048429,844.368103,6.98E-4,0.131165,0.049794,0.0,1.0,2656.679932, set /instrumentation/magnetic-compass/serviceable true, fly_strait
91.339195,88.294037,89.48748,6.612969,0.196767,6.612969,0.196767,90.000145,90.0,127.532639,75.3396,907.322632,295.206512,276.043671,0.099859,0.026167,856.806458,-0.001146,0.131708,0.049796,0.0,1.0,2657.26709, set /instrumentation/magnetic-compass/serviceable true, fly_strait
91.406242,91.296677,92.49012,6.630005,0.195639,6.630005,0.195639,90.000145,90.0,130.567276,75.606628,913.146362,295.093567,275.660553,0.095244,0.005629,864.914917,-0.002811,0.132259,0.055354,0.0,1.0,2657.652832, set /instrumentation/magnetic-compass/serviceable true, fly_strait
91.510002,95.847412,97.040855,6.654172,0.070718,6.654172,0.070718,100.000145,100.0,135.153625,75.999924,921.033875,294.957825,275.166382,0.081769,-0.018245,876.705566,-0.002795,0.1326,0.061002,0.0,1.0,2658.229248, set /instrumentation/magnetic-compass/serviceable true, fly_strait
91.578926,98.910583,100.104027,6.674368,-0.055773,6.674368,-0.055773,100.000145,100.0,138.232468,76.257423,926.085327,294.927612,274.890808,0.072537,-0.023421,884.27002,-0.00101,0.133083,0.067789,0.0,1.0,2658.612305, set /instrumentation/magnetic-compass/serviceable true, fly_strait
91.676407,103.546585,104.740028,6.709232,-0.215421,6.709232,-0.215421,100.000145,100.0,142.882919,76.636742,933.945496,294.998322,274.558655,0.063969,-0.01136,895.14093,7.97E-4,0.133487,0.069299,0.0,1.0,2659.180664, set /instrumentation/magnetic-compass/serviceable true, fly_strait
91.734428,106.663658,107.857101,6.73844,-0.262508,6.73844,-0.262508,110.000145,110.0,146.005707,76.884987,939.59259,295.102783,274.391663,0.064472,0.005802,902.088745,0.003077,0.134185,0.065764,0.0,1.0,2659.550049, set /instrumentation/magnetic-compass/serviceable true, fly_strait
91.81012,111.377983,112.571426,6.779871,-0.205918,6.779871,-0.205918,110.000145,110.0,150.72673,77.250305,948.598633,295.266846,274.222839,0.073294,0.031782,912.143311,0.00375,0.134769,0.060541,0.0,1.0,2660.081787, set /instrumentation/magnetic-compass/serviceable true, fly_strait
91.855217,114.546585,115.740028,6.806322,-0.107257,6.806322,-0.107257,110.000145,110.0,153.899231,77.48912,954.679565,295.338684,274.164001,0.08154,0.042102,918.660583,0.002942,0.135597,0.052338,0.0,1.0,2660.419434, set /instrumentation/magnetic-compass/serviceable true, fly_strait
91.921471,119.33799,120.531433,6.833171,0.055695,6.833171,0.055695,120.000145,120.0,158.695145,77.840248,963.233582,295.338867,274.153381,0.091713,0.038923,928.235718,0.001532,0.136126,0.048746,0.0,1.0,2660.904297, set /instrumentation/magnetic-compass/serviceable true, fly_strait
91.967751,122.557587,123.751038,6.847286,0.128726,6.847286,0.128726,120.000145,120.0,161.914642,78.06971,968.190247,295.272064,274.195129,0.093415,0.025858,934.498352,-7.96E-4,0.136663,0.048737,0.0,1.0,2661.218262, set /instrumentation/magnetic-compass/serviceable true, fly_strait
92.04203,127.423424,128.616867,6.862621,0.123708,6.862621,0.123708,130.000137,130.0,166.772491,78.407219,974.550903,295.128265,274.324463,0.087597,-2.44E-4,943.670898,-0.001839,0.136946,0.052077,0.0,1.0,2661.68457, set /instrumentation/magnetic-compass/serviceable true, fly_strait
92.094025,130.690262,131.883698,6.873832,0.050956,6.873832,0.050956,130.000137,130.0,170.027466,78.627937,978.251465,295.04538,274.451019,0.079753,-0.014666,949.595825,-0.001767,0.137252,0.059267,0.0,1.0,2661.995605, set /instrumentation/magnetic-compass/serviceable true, fly_strait
92.172035,135.62236,136.815811,6.893482,-0.11005,6.893482,-0.11005,140.000137,140.0,174.93251,78.952805,983.613037,295.00769,274.694092,0.067316,-0.020843,958.130432,-7.28E-4,0.137477,0.063411,0.0,1.0,2662.462646, set /instrumentation/magnetic-compass/serviceable true, fly_strait
92.221039,138.930374,140.12381,6.911791,-0.206873,6.911791,-0.206873,140.000137,140.0,178.217651,79.165314,987.378357,295.050018,274.887878,0.062551,-0.013604,963.567993,0.001572,0.13787,0.065295,0.0,1.0,2662.771973, set /instrumentation/magnetic-compass/serviceable true, fly_strait
92.285477,143.78006,144.973511,6.941839,-0.260792,6.941839,-0.260792,140.000137,140.0,183.032288,79.469368,993.420288,295.178589,275.210541,0.063168,0.007797,971.049683,0.002955,0.138236,0.063179,0.0,1.0,2663.212646, set /instrumentation/magnetic-compass/serviceable true, fly_strait
92.322342,147.265625,148.459061,6.965938,-0.227264,6.965938,-0.227264,150.000137,150.0,186.490021,79.682259,998.120789,295.281036,275.466705,0.068472,0.024148,976.336365,0.003726,0.138837,0.05675,0.0,1.0,2663.515625, set /instrumentation/magnetic-compass/serviceable true, fly_strait
92.37133,152.311218,153.504654,6.993144,-0.097959,6.993144,-0.097959,150.000137,150.0,191.498505,79.982491,1005.018311,295.369202,275.867279,0.079695,0.036778,983.585693,0.003247,0.139319,0.051628,0.0,1.0,2663.930908, set /instrumentation/magnetic-compass/serviceable true, fly_strait
92.402695,155.694672,156.888123,7.007489,8.67E-4,7.007489,8.67E-4,160.000137,160.0,194.856033,80.17852,1009.28772,295.367126,276.151093,0.085477,0.034758,988.385071,0.001399,0.139863,0.04722,0.0,1.0,2664.196289, set /instrumentation/magnetic-compass/serviceable true, fly_strait
92.453407,160.796677,161.990128,7.019974,0.088535,7.019974,0.088535,160.000137,160.0,199.917191,80.466507,1014.795837,295.27832,276.59436,0.08786,0.017475,995.391724,-1.2E-5,0.14015,0.047324,0.0,1.0,2664.584473, set /instrumentation/magnetic-compass/serviceable true, fly_strait
92.490318,164.216629,165.410065,7.026879,0.085552,7.026879,0.085552,160.000137,160.0,203.305161,80.654617,1017.803223,295.189941,276.896729,0.084195,0.001691,999.994385,-0.001265,0.140399,0.051764,0.0,1.0,2664.841064, set /instrumentation/magnetic-compass/serviceable true, fly_strait
92.548897,169.371384,170.564819,7.037216,-0.013427,7.037216,-0.013427,170.000137,170.0,208.404526,80.931198,1021.747192,295.08609,277.352417,0.073604,-0.016201,1006.659912,-0.001222,0.140538,0.056183,0.0,1.0,2665.227295, set /instrumentation/magnetic-compass/serviceable true, fly_strait
92.588135,172.823257,174.016708,7.047166,-0.111066,7.047166,-0.111066,170.000137,170.0,211.814713,81.111984,1024.282837,295.065033,277.653381,0.066494,-0.019592,1010.915894,1.92E-4,0.140744,0.061375,0.0,1.0,2665.486084, set /instrumentation/magnetic-compass/serviceable true, fly_strait
92.64286,178.022461,179.215897,7.066762,-0.230064,7.066762,-0.230064,180.000137,180.0,216.946503,81.377853,1028.399048,295.123291,278.094543,0.060219,-0.009356,1016.999512,0.001587,0.140943,0.062428,0.0,1.0,2665.87207, set /instrumentation/magnetic-compass/serviceable true, fly_strait
92.674316,181.502228,182.695679,7.084104,-0.261346,7.084104,-0.261346,180.000137,180.0,220.379807,81.551559,1031.520386,295.204926,278.379089,0.061013,0.004233,1020.868469,0.003287,0.141335,0.059515,0.0,1.0,2666.123779, set /instrumentation/magnetic-compass/serviceable true, fly_strait
92.71344,186.742111,187.935562,7.108732,-0.209712,7.108732,-0.209712,190.000137,190.0,225.550507,81.806747,1036.660156,295.328278,278.787628,0.068448,0.023985,1026.45105,0.003734,0.141682,0.055434,0.0,1.0,2666.486572, set /instrumentation/magnetic-compass/serviceable true, fly_strait
92.735916,190.248993,191.442444,7.123881,-0.130212,7.123881,-0.130212,190.000137,190.0,229.012085,81.973274,1040.160889,295.378357,279.045746,0.075026,0.031229,1030.067505,0.002996,0.142175,0.049266,0.0,1.0,2666.717285, set /instrumentation/magnetic-compass/serviceable true, fly_strait
92.769241,195.530014,196.72345,7.137592,-0.005757,7.137592,-0.005757,200.000137,200.0,234.225693,82.217705,1044.981812,295.368439,279.407745,0.082738,0.027397,1035.389282,0.00186,0.142478,0.046762,0.0,1.0,2667.049561, set /instrumentation/magnetic-compass/serviceable true, fly_strait
92.793503,199.064377,200.257828,7.143832,0.045838,7.143832,0.045838,200.000137,200.0,237.713638,82.377174,1047.624023,295.311188,279.629883,0.08368,0.016604,1038.877319,8.2E-5,0.142752,0.047258,0.0,1.0,2667.265869, set /instrumentation/magnetic-compass/serviceable true, fly_strait
92.834084,204.385468,205.578918,7.149796,0.031985,7.149796,0.031985,200.000137,200.0,242.960373,82.611359,1050.834473,295.197571,279.930084,0.078511,-0.003588,1043.988892,-6.55E-4,0.142877,0.050121,0.0,1.0,2667.588867, set /instrumentation/magnetic-compass/serviceable true, fly_strait
92.863266,207.944992,209.138443,7.154445,-0.02967,7.154445,-0.02967,210.000137,210.0,246.466293,82.764275,1052.627075,295.136414,280.10611,0.072207,-0.013995,1047.285278,-4.57E-4,0.142996,0.055801,0.0,1.0,2667.805664, set /instrumentation/magnetic-compass/serviceable true, fly_strait
92.907043,213.300812,214.494247,7.164515,-0.155219,7.164515,-0.155219,210.000137,210.0,251.736145,82.989021,1055.267578,295.116333,280.331421,0.062775,-0.016937,1052.015259,4.24E-4,0.143089,0.058859,0.0,1.0,2668.133301, set /instrumentation/magnetic-compass/serviceable true, fly_strait
92.933838,216.881561,218.074997,7.174998,-0.225534,7.174998,-0.225534,220.000137,220.0,255.257095,83.135803,1057.262329,295.155334,280.4552,0.059602,-0.010135,1055.013916,0.002217,0.14329,0.059863,0.0,1.0,2668.35083, set /instrumentation/magnetic-compass/serviceable true, fly_strait
92.967514,222.267242,223.460693,7.193495,-0.254542,7.193495,-0.254542,220.000137,220.0,260.552155,83.35141,1060.749634,295.261963,280.601318,0.061119,0.007767,1059.299316,0.003222,0.1435,0.057913,0.0,1.0,2668.669922, set /instrumentation/magnetic-compass/serviceable true, fly_strait
92.98539,225.867371,227.060806,7.207265,-0.220111,7.207265,-0.220111,230.000137,230.0,264.092438,83.492081,1063.368774,295.335297,280.673035,0.0658,0.019523,1062.043335,0.003636,0.14387,0.052582,0.0,1.0,2668.874756, set /instrumentation/magnetic-compass/serviceable true, fly_strait
93.008339,231.282394,232.47583,7.222271,-0.113433,7.222271,-0.113433,230.000137,230.0,269.419647,83.698441,1067.351563,295.392029,280.743347,0.074751,0.027522,1066.050293,0.003144,0.144145,0.048915,0.0,1.0,2669.168213, set /instrumentation/magnetic-compass/serviceable true, fly_strait
93.023582,234.902481,236.095932,7.229299,-0.038591,7.229299,-0.038591,230.000137,230.0,272.981689,83.832954,1069.744995,295.380859,280.766052,0.078901,0.024516,1068.674805,0.00162,0.144445,0.046078,0.0,1.0,2669.356445, set /instrumentation/magnetic-compass/serviceable true, fly_strait
93.049606,240.34761,241.541061,7.233776,0.018275,7.233776,0.018275,240.000137,240.0,278.338348,84.030273,1072.671997,295.302002,280.764648,0.079789,0.009767,1072.550659,5.51E-4,0.144586,0.046637,0.0,1.0,2669.633545, set /instrumentation/magnetic-compass/serviceable true, fly_strait
93.069687,243.987244,245.180679,7.235598,0.006415,7.235598,0.006415,240.000137,240.0,281.916565,84.158974,1074.149902,295.2323,280.740448,0.076341,-0.002431,1075.078857,-2.61E-4,0.144676,0.05058,0.0,1.0,2669.818359, set /instrumentation/magnetic-compass/serviceable true, fly_strait
93.102562,249.459732,250.653183,7.239326,-0.080118,7.239326,-0.080118,250.000137,250.0,287.292175,84.347954,1076.003174,295.159088,280.670349,0.067719,-0.014725,1078.741211,-9.2E-5,0.144712,0.054065,0.0,1.0,2670.098633, set /instrumentation/magnetic-compass/serviceable true, fly_strait
93.124588,253.115952,254.309402,7.244405,-0.156525,7.244405,-0.156525,250.000137,250.0,290.880951,84.471313,1077.233765,295.151428,280.602234,0.06247,-0.015732,1081.07251,0.001145,0.144787,0.057726,0.0,1.0,2670.287598, set /instrumentation/magnetic-compass/serviceable true, fly_strait
93.154213,258.611084,259.804504,7.256332,-0.239381,7.256332,-0.239381,260.000153,260.0,296.272522,84.652481,1079.413574,295.208008,280.470856,0.058641,-0.005725,1084.38916,0.002236,0.144888,0.058109,0.0,1.0,2670.570068, set /instrumentation/magnetic-compass/serviceable true, fly_strait
93.17012,262.281372,263.474823,7.267212,-0.253158,7.267212,-0.253158,260.000153,260.0,299.873596,84.770676,1081.200806,295.274384,280.366028,0.060076,0.005375,1086.490356,0.00342,0.145127,0.05528,0.0,1.0,2670.754639, set /instrumentation/magnetic-compass/serviceable true, fly_strait
93.188393,267.797241,268.990662,7.282037,-0.198854,7.282037,-0.198854,270.000153,270.0,305.287292,84.944031,1084.224609,295.364624,280.187164,0.066733,0.019816,1089.521484,0.003617,0.145344,0.051961,0.0,1.0,2671.021484, set /instrumentation/magnetic-compass/serviceable true, fly_strait
93.198463,271.481659,272.675079,7.290392,-0.132438,7.290392,-0.132438,270.000153,270.0,308.904907,85.056976,1086.261353,295.394409,280.055878,0.071903,0.02398,1091.491333,0.002841,0.145641,0.047449,0.0,1.0,2671.19165, set /instrumentation/magnetic-compass/serviceable true, fly_strait
93.214203,277.019379,278.212799,7.296369,-0.040201,7.296369,-0.040201,280.000153,280.0,314.343414,85.222511,1088.94397,295.371582,279.844391,0.077206,0.01865,1094.404419,0.001892,0.145808,0.045959,0.0,1.0,2671.438477, set /instrumentation/magnetic-compass/serviceable true, fly_strait
93.226761,280.718506,281.911957,7.29796,-0.008931,7.29796,-0.008931,280.000153,280.0,317.975677,85.33036,1090.307983,295.320099,279.695435,0.077186,0.009269,1096.321045,5.74E-4,0.145927,0.047101,0.0,1.0,2671.60083, set /instrumentation/magnetic-compass/serviceable true, fly_strait
93.249298,286.277527,287.470978,7.298612,-0.035043,7.298612,-0.035043,290.000153,290.0,323.431335,85.488548,1091.817993,295.231232,279.462494,0.072152,-0.006187,1099.130859,1.28E-4,0.145959,0.049675,0.0,1.0,2671.845459, set /instrumentation/magnetic-compass/serviceable true, fly_strait
93.266029,289.989777,291.183228,7.299922,-0.090135,7.299922,-0.090135,290.000153,290.0,327.072113,85.591721,1092.615112,295.18985,279.302368,0.067031,-0.013052,1100.936646,5.01E-4,0.145972,0.054118,0.0,1.0,2672.010742, set /instrumentation/magnetic-compass/serviceable true, fly_strait
93.290863,295.566345,296.759796,7.305458,-0.187513,7.305458,-0.187513,300.000153,300.0,332.53833,85.743172,1093.878052,295.18811,279.0578,0.060196,-0.012798,1103.510132,0.001288,0.145998,0.056187,0.0,1.0,2672.261963, set /instrumentation/magnetic-compass/serviceable true, turn_+45
93.305016,299.289063,300.482513,7.312368,-0.240993,7.312368,-0.240993,300.000153,300.0,336.186401,85.841957,1094.957764,295.237061,278.89386,0.052634,-0.003905,1105.129395,8.93E-4,0.146109,0.1,0.0,1.0,2672.428955, set /instrumentation/magnetic-compass/serviceable true, turn_+45
93.320274,304.875244,306.068695,7.332581,-0.269791,7.332581,-0.269791,300.000153,300.0,341.666443,85.986771,1097.170288,295.517578,278.65097,0.050124,0.042043,1107.144531,0.001148,0.146247,0.1,0.0,1.0,2672.668945, set /instrumentation/magnetic-compass/serviceable true, turn_+45
93.300293,308.605499,309.79895,7.354722,-0.174938,7.354722,-0.174938,310.000153,310.0,345.327454,86.08091,1099.498535,295.793304,278.494568,0.061055,0.084874,1108.577393,0.001285,0.146652,0.1,0.0,1.0,2672.810547, set /instrumentation/magnetic-compass/serviceable true, turn_+45
93.362175,314.018829,315.21228,7.383947,0.157368,7.383947,0.157368,310.000153,310.0,350.683258,86.214409,1104.039063,296.194977,278.28064,0.090005,0.143371,1108.640137,8.33E-4,0.147094,0.1,0.0,1.0,2672.975342, set /instrumentation/magnetic-compass/serviceable true, turn_+45
93.237564,317.739655,318.933105,7.397656,0.489184,7.397656,0.489184,320.000153,320.0,354.369202,86.303185,1107.404785,296.410431,278.146851,0.112154,0.171202,1109.344116,-7.49E-4,0.147679,0.1,0.0,1.0,2673.057617, set /instrumentation/magnetic-compass/serviceable true, turn_+45
93.22216,320.697388,321.890839,7.401235,0.779226,7.401235,0.779226,320.000153,320.0,357.295013,86.371811,1109.861694,296.52829,278.049683,0.12594,0.183402,1110.442139,-0.002329,0.147953,0.1,0.0,1.0,2673.108154, set /instrumentation/magnetic-compass/serviceable true, turn_+45
93.361794,325.179352,326.372772,7.397589,1.230207,7.397589,1.230207,320.000153,320.0,361.925873,86.477219,1112.613037,296.617401,277.913269,0.147685,0.185333,1101.914429,-0.003711,0.148025,0.1,0.0,1.0,2673.16748, set /instrumentation/magnetic-compass/serviceable true, turn_+45
93.089081,332.690948,333.884399,7.386456,1.809641,7.386456,1.809641,330.000153,330.0,369.350555,86.638779,1114.257324,296.586945,277.739502,0.159473,0.159131,1109.410522,-0.005858,0.147952,0.1,0.0,1.0,2673.253906, set /instrumentation/magnetic-compass/serviceable true, turn_+45
93.070374,338.289185,339.482635,7.378243,2.056843,7.378243,2.056843,340.000153,340.0,374.766388,86.751617,1113.802856,296.536621,277.646576,0.153374,0.135737,1118.93457,-0.008617,0.147729,0.1,0.0,1.0,2673.328125, set /instrumentation/magnetic-compass/serviceable true, turn_+45
93.066925,342.120636,343.314087,7.373972,2.13838,7.373972,2.13838,340.000153,340.0,378.477814,86.826828,1113.056763,296.536163,277.598724,0.145781,0.125238,1123.691284,-0.009483,0.147614,0.1,0.0,1.0,2673.387451, set /instrumentation/magnetic-compass/serviceable true, turn_+45
93.062943,347.857483,349.050903,7.367185,2.187207,7.367185,2.187207,350.000153,350.0,384.039703,86.936615,1111.722778,296.623932,277.550903,0.134465,0.123725,1128.809692,-0.010183,0.147479,0.1,0.0,1.0,2673.488281, set /instrumentation/magnetic-compass/serviceable true, turn_+45
93.058952,351.67569,352.869141,7.363728,2.204476,7.363728,2.204476,350.000153,350.0,387.744019,87.007881,1110.917725,296.744415,277.53537,0.129396,0.132232,1131.184814,-0.010367,0.147386,0.1,0.0,1.0,2673.560791, set /instrumentation/magnetic-compass/serviceable true, turn_+45
93.047958,357.394379,358.58783,7.360271,2.258424,7.360271,2.258424,360.000153,360.0,393.296356,87.111954,1110.141357,296.996338,277.537842,0.127609,0.155004,1133.594238,-0.010498,0.147275,0.1,0.0,1.0,2673.670898, set /instrumentation/magnetic-compass/serviceable true, turn_+45
93.036552,361.201721,362.395172,7.359536,2.328878,7.359536,2.328878,360.000153,360.0,396.99649,87.179451,1109.989014,297.189911,277.557556,0.130154,0.172983,1134.619751,-0.01064,0.147221,0.1,0.0,1.0,2673.741211, set /instrumentation/magnetic-compass/serviceable true, turn_+45
