airspeed_indicator_indicated_speed_kt,altimeter_indicated_altitude_ft,altimeter_pressure_alt_ft,attitude_indicator_indicated_pitch_deg,attitude_indicator_indicated_roll_deg,attitude_indicator_internal_pitch_deg,attitude_indicator_internal_roll_deg,encoder_indicated_altitude_ft,encoder_pressure_alt_ft,gps_indicated_altitude_ft,gps_indicated_ground_speed_kt,gps_indicated_vertical_speed,indicated_heading_deg,magnetic_compass_indicated_heading_deg,slip_skid_ball_indicated_slip_skid,turn_indicator_indicated_turn_rate,vertical_speed_indicator_indicated_speed_fpm,flight_aileron,flight_elevator,flight_rudder,flight_flaps,engine_throttle,engine_rpm,Command_fault,Command
0.413119,-26.745199,-25.551756,3.069476,1.355754,2.716406,0.178853,-29.999857,-30.0,18.855347,4.1E-5,-2.01E-4,297.865814,14.703684,-0.046374,-0.037169,-14.098918,-0.0,0.0,0.0,0.0,0.0,607.023071,, takeoff
0.355378,-26.747087,-25.553642,3.028313,1.21872,2.716339,0.178808,-29.999857,-30.0,18.855347,4.0E-5,1.0E-4,297.864563,14.096843,-0.046369,-0.031983,-10.4925,-0.019368,0.054328,0.0,0.0,1.0,615.476563,, takeoff
0.32146,-26.748064,-25.554621,2.884616,0.742891,2.715322,0.17858,-29.999857,-30.0,18.855345,3.9E-5,-0.00201,297.863708,13.697959,-0.046466,-0.028948,-15.531014,-0.01741,0.054327,6.3E-5,0.0,1.0,680.473267,, takeoff
0.278067,-26.749212,-25.555767,2.722022,0.255742,2.69808,0.175936,-29.999857,-30.0,18.855293,1.09E-4,-0.020768,297.862213,13.115448,-0.046668,-0.025023,-7.350674,-0.010613,0.054306,1.05E-4,0.0,1.0,863.710571,, takeoff
0.258355,-26.749796,-25.556351,2.66482,0.171988,2.66482,0.171988,-29.999857,-30.0,18.855185,4.46E-4,-0.051785,297.861084,12.75684,-0.047885,-0.022888,-11.505875,-0.003653,0.053962,1.8E-4,0.0,1.0,1012.098755,, takeoff
0.27622,-26.75057,-25.557127,2.592739,0.161442,2.592739,0.161442,-29.999857,-30.0,18.85508,0.003232,0.032391,297.858948,12.208032,-0.046625,-0.019999,-15.373681,-0.002457,0.053296,2.36E-4,0.0,1.0,1266.36731,, takeoff
0.366395,-26.750944,-25.557499,2.576298,0.152268,2.576298,0.152268,-29.999857,-30.0,18.855345,0.007976,0.126682,297.857483,11.873571,-0.044878,-0.0184,-16.923317,-0.002306,0.051855,3.43E-4,0.0,1.0,1426.099487,, takeoff
0.658253,-26.751225,-25.557781,2.581303,0.136463,2.581303,0.136463,-29.999857,-30.0,18.856371,0.022188,0.282908,297.855042,11.408278,-0.044624,-0.016389,-18.003195,-0.002175,0.051526,4.17E-4,0.0,1.0,1641.159912,, takeoff
0.94372,-26.751175,-25.55773,2.593055,0.125331,2.593055,0.125331,-29.999857,-30.0,18.857523,0.037997,0.403025,297.852509,11.124713,-0.051045,-0.015401,-17.81498,-0.001949,0.051626,5.39E-4,0.0,1.0,1763.435547,, takeoff
1.482844,-26.750652,-25.557209,2.613517,0.10915,2.613517,0.10915,-29.999857,-30.0,18.860062,0.073734,0.608892,297.842804,10.742723,-0.05844,-0.014982,-15.727933,-0.00179,0.051861,6.65E-4,0.0,1.0,1913.456665,, takeoff
1.903894,-26.749952,-25.556507,2.626712,0.099472,2.626712,0.099472,-29.999857,-30.0,18.862364,0.106824,0.764816,297.832703,10.518523,-0.057457,-0.01531,-12.38457,-0.001559,0.05227,0.001151,0.0,1.0,1992.596191,, takeoff
2.609019,-26.748274,-25.554829,2.643465,0.086859,2.643465,0.086859,-29.999857,-30.0,18.866837,0.172059,1.021161,297.810791,10.22981,-0.050724,-0.016739,8.475466,-0.001421,0.052534,0.001656,0.0,1.0,2084.392334,, takeoff
3.118278,-26.746677,-25.553234,2.652817,0.079897,2.652817,0.079897,-29.999857,-30.0,18.870564,0.226684,1.208505,297.792236,10.069707,-0.046982,-0.018158,16.910454,-0.001241,0.052869,0.002751,0.0,1.0,2130.593506,, takeoff
3.926463,-26.743471,-25.550026,2.66379,0.071565,2.66379,0.071565,-29.999857,-30.0,18.87735,0.326187,1.501026,297.760529,9.878466,-0.042489,-0.020574,5.841328,-0.001141,0.053056,0.003679,0.0,1.0,2182.224609,, takeoff
4.487819,-26.740734,-25.547291,2.66971,0.067233,2.66971,0.067233,-29.999857,-30.0,18.882717,0.404542,1.709774,297.737122,9.783372,-0.04011,-0.022317,7.525269,-0.001022,0.053276,0.005264,0.0,1.0,2207.322021,, takeoff
5.354158,-26.735647,-25.542204,2.6766,0.062253,2.6766,0.062253,-29.999857,-30.0,18.892084,0.540365,2.030532,297.701874,9.68832,-0.037331,-0.024581,7.056123,-9.6E-4,0.053394,0.006435,0.0,1.0,2234.453613,, takeoff
5.943568,-26.731556,-25.538113,2.680405,0.059725,2.680405,0.059725,-29.999857,-30.0,18.899233,0.643135,2.250266,297.678833,9.655746,-0.035831,-0.025814,16.054634,-8.89E-4,0.053532,0.008197,0.0,1.0,2247.13916,, takeoff
6.839721,-26.724298,-25.530855,2.68503,0.056806,2.68503,0.056806,-29.999857,-30.0,18.911339,0.815515,2.585127,297.648438,9.650974,-0.033997,-0.026737,13.933957,-8.53E-4,0.053608,0.009349,0.0,1.0,2260.202393,, takeoff
7.442635,-26.718679,-25.525234,2.68775,0.055275,2.68775,0.055275,-29.999857,-30.0,18.920345,0.94245,2.809986,297.631409,9.675706,-0.032875,-0.026759,15.941096,-8.12E-4,0.053701,0.010869,0.0,1.0,2265.884521,, takeoff
8.351926,-26.709028,-25.515585,2.691286,0.053372,2.691286,0.053372,-29.999857,-30.0,18.935272,1.150564,3.151378,297.613098,9.751792,-0.031265,-0.025627,11.924576,-7.9E-4,0.053755,0.01172,0.0,1.0,2271.097168,, takeoff
8.959963,-26.701759,-25.508316,2.69351,0.052317,2.69351,0.052317,-29.999857,-30.0,18.946173,1.300894,3.379888,297.605652,9.826658,-0.030135,-0.024213,8.179101,-7.62E-4,0.053826,0.012636,0.0,1.0,2272.901367,, takeoff
9.87289,-26.689562,-25.496117,2.696596,0.050924,2.696596,0.050924,-29.999857,-30.0,18.963945,1.543353,3.721012,297.60199,9.971784,-0.028345,-0.021158,17.587137,-7.47E-4,0.05387,0.013008,0.0,1.0,2273.78833,, takeoff
10.481218,-26.680553,-25.48711,2.699462,0.05014,2.699462,0.05014,-29.999857,-30.0,18.976789,1.716041,3.99367,297.603851,10.088335,-0.027096,-0.018689,11.714676,-7.27E-4,0.053932,0.013191,0.0,1.0,2273.463867,, takeoff
11.391169,-26.665619,-25.472174,2.710709,0.041544,2.710709,0.041544,-29.999857,-30.0,18.998125,1.99117,4.452533,297.611511,10.289184,-0.025946,-0.014866,19.438375,-7.16E-4,0.053989,0.013098,0.0,1.0,2271.983398,, takeoff
11.996181,-26.654657,-25.461212,2.717117,0.034792,2.717117,0.034792,-29.999857,-30.0,19.013535,2.185039,4.803973,297.61908,10.438332,-0.023856,-0.012251,9.11795,-5.93E-4,0.054214,0.012715,0.0,1.0,2270.498047,, takeoff
12.900584,-26.636623,-25.443178,2.719512,0.033705,2.719512,0.033705,-29.999857,-30.0,19.038448,2.491026,5.15183,297.631317,10.681264,-0.021147,-0.008473,19.441372,-4.97E-4,0.054342,0.012337,0.0,1.0,2267.732178,, takeoff
13.501633,-26.623549,-25.430105,2.720668,0.033785,2.720668,0.033785,-29.999857,-30.0,19.056038,2.70486,5.390858,297.639038,10.853711,-0.020052,-0.006312,18.659163,-4.81E-4,0.05439,0.011725,0.0,1.0,2265.619873,, takeoff
14.399867,-26.602392,-25.408947,2.723055,0.034175,2.723055,0.034175,-29.999857,-30.0,19.083904,3.039899,5.74605,297.647858,11.124104,-0.019007,-0.003901,17.475046,-4.83E-4,0.054413,0.011339,0.0,1.0,2262.637939,, takeoff
14.996476,-26.587269,-25.393824,2.725011,0.034729,2.725011,0.034729,-29.999857,-30.0,19.103468,3.272506,5.980657,297.651398,11.30984,-0.018697,-0.002852,14.169261,-4.88E-4,0.054461,0.010898,0.0,1.0,2261.819336,, takeoff
15.889225,-26.563074,-25.369631,2.728277,0.035862,2.728277,0.035862,-29.999857,-30.0,19.134291,3.634852,6.336653,297.652344,11.59268,-0.018818,-0.002133,15.419432,-4.96E-4,0.0545,0.010721,0.0,1.0,2261.904297,, takeoff
16.483425,-26.545948,-25.352503,2.730718,0.036666,2.730718,0.036666,-29.999857,-30.0,19.155828,3.885137,6.573035,297.650299,11.781788,-0.01923,-0.002132,17.691832,-5.12E-4,0.054566,0.010673,0.0,1.0,2262.526123,, takeoff
17.373768,-26.51877,-25.325325,2.734612,0.037839,2.734612,0.037839,-29.999857,-30.0,19.189613,4.273269,6.929165,297.644043,12.062502,-0.020189,-0.002616,18.39369,-5.24E-4,0.054614,0.010776,0.0,1.0,2263.968262,, takeoff
17.96685,-26.499666,-25.306221,2.737443,0.038535,2.737443,0.038535,-29.999857,-30.0,19.213123,4.540283,7.166686,297.638428,12.245589,-0.020926,-0.003118,18.646158,-5.41E-4,0.054692,0.011089,0.0,1.0,2265.14502,, takeoff
18.8559,-26.469536,-25.276093,2.741853,0.039377,2.741853,0.039377,-29.999857,-30.0,19.249874,4.952852,7.522816,297.629761,12.510798,-0.021974,-0.00381,11.74122,-5.51E-4,0.054749,0.011369,0.0,1.0,2267.098633,, takeoff
19.448252,-26.448471,-25.255026,2.745007,0.039786,2.745007,0.039786,-29.999857,-30.0,19.275362,5.235734,7.761643,297.624573,12.679543,-0.02251,-0.004119,12.530128,-5.63E-4,0.054837,0.011803,0.0,1.0,2268.478516,, takeoff
20.336281,-26.415407,-25.221962,2.749839,0.040107,2.749839,0.040107,-29.999857,-30.0,19.315075,5.671486,8.115362,297.619324,12.917858,-0.022913,-0.004125,13.72086,-5.68E-4,0.0549,0.012062,0.0,1.0,2270.612793,, takeoff
20.927956,-26.392389,-25.198944,2.753248,0.040177,2.753248,0.040177,-29.999857,-30.0,19.342537,5.969425,8.352346,297.617859,13.065495,-0.02287,-0.003806,14.503847,-5.73E-4,0.054997,0.012324,0.0,1.0,2272.060547,, takeoff
21.814922,-26.356401,-25.162958,2.758319,0.040078,2.758319,0.040078,-29.999857,-30.0,19.385166,6.427177,8.428684,297.619141,13.268126,-0.022342,-0.002847,21.672762,-5.74E-4,0.055065,0.012398,0.0,1.0,2274.251221,, takeoff
22.407326,-26.331526,-25.138081,2.73752,0.040095,2.73752,0.040095,-29.999857,-30.0,19.41293,6.739409,7.695557,297.622284,13.389728,-0.0217,-0.001923,21.062414,-5.73E-4,0.055166,0.012334,0.0,1.0,2275.718506,, takeoff
23.298622,-26.293833,-25.100389,2.736363,0.039878,2.736363,0.039878,-29.999857,-30.0,19.452305,7.218112,8.048638,297.629639,13.550597,-0.020457,-3.11E-4,15.293657,-5.73E-4,0.05475,0.012176,0.0,1.0,2277.924805,, takeoff
23.89179,-26.268471,-25.075026,2.742172,0.03982,2.742172,0.03982,-29.999857,-30.0,19.479517,7.543983,8.266564,297.63504,13.642982,-0.019628,7.06E-4,15.507473,-5.7E-4,0.054727,0.011809,0.0,1.0,2279.397461,, takeoff
24.78027,-26.229837,-25.036392,2.751803,0.04005,2.751803,0.04005,-29.999857,-30.0,19.521755,8.042607,8.677159,297.641907,13.758781,-0.018666,0.001851,17.643341,-5.69E-4,0.054843,0.011539,0.0,1.0,2281.607178,, takeoff
25.370787,-26.203489,-25.010044,2.766106,0.035727,2.766106,0.035727,-29.999857,-30.0,19.552088,8.381399,9.362556,297.644867,13.820694,-0.018637,0.002151,13.370681,-5.72E-4,0.055036,0.011195,0.0,1.0,2283.079834,, takeoff
26.254984,-26.162558,-24.969114,2.772688,0.036185,2.772688,0.036185,-19.999857,-20.0,19.599672,8.898859,9.66613,297.646088,13.890843,-0.018307,0.002206,18.977861,-5.1E-4,0.055322,0.011047,0.0,1.0,2285.287598,, takeoff
26.843925,-26.134331,-24.940886,2.77578,0.036942,2.77578,0.036942,-19.999857,-20.0,19.632263,9.249856,9.879835,297.644714,13.922649,-0.018626,0.001902,20.436022,-5.17E-4,0.055454,0.010986,0.0,1.0,2286.759033,, takeoff
27.726799,-26.090622,-24.897179,2.769757,0.038357,2.769757,0.038357,-19.999857,-20.0,19.682083,9.785128,9.964246,297.639771,13.948426,-0.019734,0.001071,18.800772,-5.28E-4,0.055516,0.011055,0.0,1.0,2288.96582,, takeoff
28.317459,-26.060978,-24.867533,2.76036,0.039317,2.76036,0.039317,-19.999857,-20.0,19.712309,10.147699,9.159872,297.635437,13.951385,-0.020612,4.26E-4,14.282398,-5.48E-4,0.055395,0.011302,0.0,1.0,2290.437744,, takeoff
29.201986,-26.016424,-24.822979,2.76698,0.040433,2.76698,0.040433,-19.999857,-20.0,19.758938,10.699912,9.478922,297.628326,13.935386,-0.021996,-5.21E-4,15.235551,-5.62E-4,0.055207,0.011519,0.0,1.0,2292.647705,, takeoff
29.790619,-25.986423,-24.792978,2.772555,0.041076,2.772555,0.041076,-19.999857,-20.0,19.790878,11.073479,9.676281,297.623657,13.911796,-0.022818,-0.001061,14.555753,-5.78E-4,0.05534,0.011874,0.0,1.0,2294.121826,, takeoff
30.672079,-25.940845,-24.7474,2.780823,0.041735,2.780823,0.041735,-19.999857,-20.0,19.84009,11.641719,10.091632,297.618317,13.858447,-0.023662,-0.001508,19.054586,-5.87E-4,0.055451,0.012108,0.0,1.0,2296.334717,, takeoff
31.549788,-25.894053,-24.700609,2.799707,0.034662,2.799707,0.034662,-19.999857,-20.0,19.893785,12.219123,11.013276,297.615662,13.785571,-0.024251,-0.00165,19.732927,-5.96E-4,0.055616,0.012375,0.0,1.0,2298.54834,, takeoff
32.133873,-25.861824,-24.668381,2.803863,0.034466,2.803863,0.034466,-19.999857,-20.0,19.930832,12.608983,11.208257,297.615936,13.727467,-0.023619,-0.001298,20.243208,-5.0E-4,0.055924,0.012485,0.0,1.0,2300.024658,, takeoff
33.008846,-25.811989,-24.618546,2.809363,0.034329,2.809363,0.034329,-19.999857,-20.0,19.987633,13.200933,11.506473,297.619263,13.628,-0.022335,-3.83E-4,20.971754,-4.92E-4,0.056077,0.012494,0.0,1.0,2302.239502,, takeoff
33.593151,-25.777966,-24.584522,2.791463,0.037516,2.791463,0.037516,-19.999857,-20.0,20.023335,13.60022,10.12379,297.623199,13.554665,-0.020696,5.04E-4,21.206404,-4.91E-4,0.05615,0.012399,0.0,1.0,2303.717041,, takeoff
34.470268,-25.72703,-24.533585,2.794098,0.037778,2.794098,0.037778,-19.999857,-20.0,20.074774,14.205956,10.436543,297.630585,13.436076,-0.019316,0.001781,21.122637,-5.36E-4,0.055829,0.012131,0.0,1.0,2305.936035,, takeoff
35.053581,-25.693062,-24.499617,2.80013,0.037889,2.80013,0.037889,-19.999857,-20.0,20.109896,14.614193,10.626498,297.635376,13.352516,-0.018397,0.002498,21.167803,-5.39E-4,0.055827,0.011885,0.0,1.0,2307.416748,, takeoff
35.925251,-25.641621,-24.448175,2.820842,0.03042,2.820842,0.03042,-19.999857,-20.0,20.16626,15.232939,11.764461,297.640564,13.222572,-0.017613,0.002941,21.567009,-5.41E-4,0.056003,0.011522,0.0,1.0,2309.639404,, takeoff
36.50457,-25.606508,-24.413063,2.826558,0.030851,2.826558,0.030851,-19.999857,-20.0,20.205769,15.649564,11.936128,297.64212,13.134186,-0.017036,0.003029,22.018391,-4.35E-4,0.056417,0.011262,0.0,1.0,2311.121094,, takeoff
37.372158,-25.552511,-24.359066,2.831723,0.032164,2.831723,0.032164,-19.999857,-20.0,20.266144,16.280487,12.210427,297.640991,13.000925,-0.017128,0.002613,22.665062,-4.41E-4,0.056531,0.011185,0.0,1.0,2313.344482,, takeoff
37.949478,-25.515652,-24.322206,2.8356,0.033226,2.8356,0.033226,-19.999857,-20.0,20.307167,16.704977,12.397101,297.638062,12.912648,-0.017758,0.002031,23.083387,-4.59E-4,0.056634,0.011241,0.0,1.0,2314.827148,, takeoff
38.815853,-25.459431,-24.265987,2.825657,0.035827,2.825657,0.035827,-19.999857,-20.0,20.36611,17.34734,11.496795,297.6315,12.78266,-0.019441,9.66E-4,23.368769,-4.75E-4,0.056712,0.011388,0.0,1.0,2317.051758,, takeoff
39.392921,-25.421883,-24.228439,2.829078,0.036527,2.829078,0.036527,-19.999857,-20.0,20.404768,17.77924,11.70102,297.626373,12.69843,-0.020682,2.01E-4,23.398226,-5.12E-4,0.056513,0.011716,0.0,1.0,2318.535889,, takeoff
40.256302,-25.365274,-24.171831,2.836394,0.039522,2.836394,0.039522,-19.999857,-20.0,20.464006,18.432383,11.958102,297.618927,12.577064,-0.022879,-7.19E-4,23.565577,-5.22E-4,0.056582,0.011972,0.0,1.0,2320.762939,, takeoff
40.830502,-25.327251,-24.133808,2.842229,0.039315,2.842229,0.039315,-19.999857,-20.0,20.504189,18.871231,12.141795,297.614746,12.500183,-0.023845,-0.001174,23.726976,-5.65E-4,0.056728,0.012344,0.0,1.0,2322.247803,, takeoff
41.689808,-25.269634,-24.076189,2.849723,0.039347,2.849723,0.039347,-19.999857,-20.0,20.565582,19.534451,12.407218,297.611176,12.392095,-0.024605,-0.001336,18.819464,-5.62E-4,0.056845,0.012553,0.0,1.0,2324.475586,, takeoff
42.261608,-25.230766,-24.037321,2.846166,0.036827,2.846166,0.036827,-19.999857,-20.0,20.606525,19.97979,11.636139,297.61087,12.325477,-0.024643,-0.001164,18.415718,-5.62E-4,0.056994,0.012732,0.0,1.0,2325.960938,, takeoff
43.119415,-25.172485,-23.979042,2.848369,0.036532,2.848369,0.036532,-19.999857,-20.0,20.665224,20.652445,11.873259,297.613983,12.234678,-0.023703,-2.98E-4,22.455511,-5.26E-4,0.056923,0.012747,0.0,1.0,2328.189697,, takeoff
43.689507,-25.133665,-23.94022,2.853733,0.036482,2.853733,0.036482,-19.999857,-20.0,20.705103,21.103874,12.045026,297.617737,12.180708,-0.022669,4.69E-4,21.287863,-5.22E-4,0.056967,0.012592,0.0,1.0,2330.099365,, takeoff
44.542618,-25.07522,-23.881777,2.861309,0.036681,2.861309,0.036681,-19.999857,-20.0,20.765959,21.785337,12.289247,297.62439,12.110288,-0.020818,0.001634,15.416573,-5.21E-4,0.057075,0.012404,0.0,1.0,2334.115479,, takeoff
45.110516,-25.036005,-23.842562,2.863452,0.03538,2.863452,0.03538,-19.999857,-20.0,20.807133,22.242441,12.165412,297.628693,12.070664,-0.019955,0.002234,18.035284,-5.24E-4,0.057226,0.012071,0.0,1.0,2337.282227,, takeoff
45.96756,-24.978148,-23.784704,2.83841,0.034368,2.83841,0.034368,-19.999857,-20.0,20.857174,22.932211,9.831943,297.634125,12.022509,-0.017786,0.002929,18.477394,-5.05E-4,0.057269,0.011856,0.0,1.0,2342.476807,, takeoff
46.538467,-24.941015,-23.747572,2.843158,0.034686,2.843158,0.034686,-19.999857,-20.0,20.890242,23.394749,9.998452,297.636108,11.99796,-0.017118,0.003081,17.858231,-4.91E-4,0.056768,0.011584,0.0,1.0,2346.131592,, takeoff
47.393635,-24.886772,-23.693327,2.853239,0.035812,2.853239,0.035812,-19.999857,-20.0,20.940805,24.092472,10.214904,297.635223,11.972401,-0.01696,0.002688,17.212114,-4.96E-4,0.056863,0.011485,0.0,1.0,2351.785889,, takeoff
47.963242,-24.85124,-23.657797,2.858887,0.036835,2.858887,0.036835,-19.999857,-20.0,20.975084,24.560169,10.346543,297.632141,11.96272,-0.017466,0.002069,16.943123,-5.12E-4,0.057065,0.01153,0.0,1.0,2355.629395,, takeoff
48.817074,-24.798485,-23.605042,2.865854,0.038595,2.865854,0.038595,-19.999857,-20.0,21.027306,25.265429,10.537873,297.624664,11.958783,-0.019028,8.29E-4,16.718847,-5.26E-4,0.057178,0.011684,0.0,1.0,2361.463379,, takeoff
49.385929,-24.763494,-23.570049,2.870424,0.039821,2.870424,0.039821,-19.999857,-20.0,21.062653,25.738014,10.665794,297.618591,11.962856,-0.020431,-6.4E-5,16.66316,-5.51E-4,0.057317,0.012057,0.0,1.0,2365.383545,, takeoff
50.238728,-24.711025,-23.51758,2.877048,0.04148,2.877048,0.04148,-19.999857,-20.0,21.116474,26.450411,10.856354,297.609772,11.978289,-0.022652,-0.001176,16.687258,-5.69E-4,0.057408,0.012361,0.0,1.0,2371.293945,, takeoff
50.806953,-24.675947,-23.482502,2.881623,0.042441,2.881623,0.042441,-19.999857,-20.0,21.152891,26.927629,10.987123,297.60498,11.994328,-0.023977,-0.00166,16.760244,-5.93E-4,0.057541,0.012802,0.0,1.0,2375.249023,, takeoff
51.658642,-24.622986,-23.429541,2.890678,0.033346,2.890678,0.033346,-19.999857,-20.0,21.209333,27.64679,11.75003,297.600647,12.026187,-0.02619,-0.00214,17.013445,-6.06E-4,0.057632,0.013042,0.0,1.0,2381.19873,, takeoff
52.225029,-24.587034,-23.393589,2.902426,0.024362,2.902426,0.024362,-19.999857,-20.0,21.2498,28.128384,12.290488,297.600006,12.052285,-0.02594,-0.002049,17.459425,-4.76E-4,0.057814,0.013258,0.0,1.0,2385.173096,, takeoff
53.074501,-24.531704,-23.338259,2.909023,0.024644,2.909023,0.024644,-19.999857,-20.0,21.311716,28.853909,12.472405,297.602509,12.098196,-0.024972,-0.001145,18.157898,-3.48E-4,0.058049,0.01329,0.0,1.0,2391.14502,, takeoff
53.640739,-24.493961,-23.300518,2.912899,0.024835,2.912899,0.024835,-19.999857,-20.0,21.353519,29.339626,12.605486,297.605804,12.132821,-0.023881,-3.68E-4,18.577639,-3.52E-4,0.05818,0.013165,0.0,1.0,2395.133301,, takeoff
54.489838,-24.436182,-23.242737,2.918926,0.025144,2.918926,0.025144,-19.999857,-20.0,21.417057,30.071173,12.806061,297.611603,12.189924,-0.021875,7.84E-4,15.38746,-3.55E-4,0.058258,0.013001,0.0,1.0,2401.125977,, takeoff
55.055672,-24.396931,-23.203487,2.923226,0.025427,2.923226,0.025427,-19.999857,-20.0,21.459982,30.560795,12.942692,297.615234,12.230923,-0.020498,0.001412,18.118593,-3.59E-4,0.058379,0.012711,0.0,1.0,2405.127686,, takeoff
55.904026,-24.337021,-23.143576,2.92947,0.026108,2.92947,0.026108,-19.999857,-20.0,21.525223,31.298031,13.145812,297.618652,12.295897,-0.018744,0.001921,21.720568,-3.63E-4,0.058465,0.012529,0.0,1.0,2411.140381,, takeoff
56.469269,-24.296417,-23.102974,2.933743,0.026715,2.933743,0.026715,-19.999857,-20.0,21.569284,31.79134,13.284519,297.61908,12.340973,-0.017943,0.001932,18.786995,-3.73E-4,0.058589,0.012358,0.0,1.0,2415.155029,, takeoff
57.316566,-24.234625,-23.041182,2.939878,0.027876,2.939878,0.027876,-19.999857,-20.0,21.636234,32.533943,13.488611,297.616638,12.410233,-0.017474,0.001466,22.041082,-3.82E-4,0.058675,0.012337,0.0,1.0,2421.186768,, takeoff
57.883423,-24.193071,-22.999628,2.910976,0.029304,2.910976,0.029304,-19.999857,-20.0,21.673895,33.030743,9.002216,297.613373,12.456894,-0.017706,9.59E-4,24.191648,-3.98E-4,0.058798,0.012459,0.0,1.0,2425.2146,, takeoff
58.7379,-24.134121,-22.940676,2.908197,0.030439,2.908197,0.030439,-19.999857,-20.0,21.719519,33.77853,9.247977,297.607727,12.526447,-0.018439,1.55E-4,18.721357,-4.19E-4,0.05822,0.012622,0.0,1.0,2431.276855,, takeoff
59.305935,-24.09687,-22.903427,2.914816,0.031285,2.914816,0.031285,-19.999857,-20.0,21.750589,34.278725,9.384072,297.603363,12.571931,-0.019172,-4.03E-4,17.84799,-4.35E-4,0.058164,0.012904,0.0,1.0,2435.328125,, takeoff
60.156597,-24.04315,-22.849707,2.923216,0.032507,2.923216,0.032507,-19.999857,-20.0,21.797949,35.031445,9.549744,297.597321,12.637952,-0.020365,-0.001054,16.852768,-4.47E-4,0.058296,0.013123,0.0,1.0,2441.416504,, takeoff
60.722286,-24.008265,-22.814821,2.934438,0.024906,2.934438,0.024906,-19.999857,-20.0,21.831923,35.534817,10.586347,297.593994,12.680047,-0.021061,-0.001525,16.552404,-4.64E-4,0.058464,0.013425,0.0,1.0,2445.493408,, takeoff
61.569107,-23.956093,-22.762648,2.941777,0.025816,2.941777,0.025816,-19.999857,-20.0,21.885212,36.292122,10.724116,297.591583,12.739813,-0.021683,-0.001443,16.547873,-3.56E-4,0.058689,0.013591,0.0,1.0,2451.698242,, takeoff
62.133213,-23.921261,-22.727818,2.945351,0.026572,2.945351,0.026572,-19.999857,-20.0,21.921124,36.798443,10.820518,297.591644,12.777075,-0.021814,-0.001135,16.590649,-3.69E-4,0.058836,0.013712,0.0,1.0,2455.878418,, takeoff
62.978634,-23.868818,-22.675375,2.950751,0.027559,2.950751,0.027559,-19.999857,-20.0,21.975615,37.560028,10.973529,297.593842,12.828606,-0.021543,-4.01E-4,16.709558,-3.8E-4,0.058907,0.013709,0.0,1.0,2462.19043,, takeoff
63.545296,-23.834311,-22.640865,2.918043,0.025085,2.918043,0.025085,-19.999857,-20.0,22.001225,38.069138,6.10213,297.596436,12.859815,-0.020677,1.41E-4,15.863932,-3.94E-4,0.059015,0.013599,0.0,1.0,2466.419922,, takeoff
64.397209,-23.787031,-22.593588,2.919608,0.028061,2.919608,0.028061,-19.999857,-20.0,22.032291,38.834881,6.314362,297.601379,12.901533,-0.019768,0.001136,22.852545,-3.58E-4,0.058361,0.013469,0.0,1.0,2472.797607,, fly_strait
64.963623,-23.757963,-22.56452,2.92629,0.030342,2.92629,0.030342,-19.999857,-20.0,22.053528,39.346714,6.417128,297.601227,12.925793,-0.019482,0.001007,16.107143,-4.01E-4,0.058392,0.0,0.0,1.0,2477.063965,, fly_strait
65.811417,-23.717026,-22.523581,2.933416,0.033687,2.933416,0.033687,-19.999857,-20.0,22.085913,40.116394,6.527431,297.553009,12.956496,-0.021745,-0.00694,21.858213,-4.33E-4,0.058526,8.0E-6,0.0,1.0,2483.478516,, fly_strait
66.374878,-23.691072,-22.497627,2.93721,0.033591,2.93721,0.033591,-19.999857,-20.0,22.107796,40.630753,6.597806,297.490814,12.972681,-0.025852,-0.016277,15.502857,-4.81E-4,0.058668,0.002418,0.0,1.0,2487.761475,, fly_strait
67.216919,-23.653582,-22.460136,2.942727,0.031263,2.942727,0.031263,-19.999857,-20.0,22.141052,41.404018,6.70352,297.377136,12.98932,-0.035598,-0.03159,20.751387,-4.8E-4,0.058744,0.005528,0.0,1.0,2494.189453,, fly_strait
67.776161,-23.629284,-22.435839,2.946962,0.029102,2.946962,0.029102,-19.999857,-20.0,22.163534,41.920616,6.781566,297.302338,12.994597,-0.043334,-0.040275,17.978601,-4.47E-4,0.058855,0.011212,0.0,1.0,2498.473877,, fly_strait
68.612152,-23.593269,-22.399824,2.954414,-0.001447,2.954414,-0.001447,-19.999857,-20.0,22.201366,42.697021,8.516126,297.221283,12.992919,-0.054725,-0.047343,14.867849,-4.16E-4,0.058939,0.014952,0.0,1.0,2504.897461,, fly_strait
69.169334,-23.568596,-22.375153,2.929347,-0.068447,2.929347,-0.068447,-19.999857,-20.0,22.231236,43.215565,9.339258,297.198486,12.985597,-0.060843,-0.047641,12.793593,2.1E-5,0.059088,0.019005,0.0,1.0,2509.18042,, fly_strait
70.008408,-23.529594,-22.336149,2.847739,-0.249339,2.847739,-0.249339,-19.999857,-20.0,22.279676,43.994736,9.862601,297.223206,12.96773,-0.063644,-0.040587,15.311246,9.78E-4,0.058587,0.020145,0.0,1.0,2515.619629,, fly_strait
70.569893,-23.502237,-22.308792,2.787279,-0.387196,2.787279,-0.387196,-19.999857,-20.0,22.312519,44.515099,9.766803,297.275299,12.953876,-0.060365,-0.031293,13.145814,0.003562,0.056955,0.018909,0.0,1.0,2519.927979,, fly_strait
71.41423,-23.459726,-22.266281,2.722271,-0.563723,2.722271,-0.563723,-19.999857,-20.0,22.36062,45.297054,9.525564,297.378723,12.93553,-0.04896,-0.014662,16.225691,0.005531,0.055746,0.016304,0.0,1.0,2526.416992,, fly_strait
71.977928,-23.430733,-22.237288,2.688037,-0.665329,2.688037,-0.665329,-19.999857,-20.0,22.392454,45.819332,9.541141,297.443298,12.927766,-0.038668,-0.005469,20.702528,0.008053,0.054445,0.011133,0.0,1.0,2530.760498,, fly_strait
72.820244,-23.386486,-22.193043,2.644354,-0.806931,2.644354,-0.806931,-19.999857,-20.0,22.440517,46.604153,9.734681,297.492706,12.92677,-0.022601,-8.63E-4,21.091047,0.009505,0.053761,0.007904,0.0,1.0,2537.290527,, fly_strait
73.384445,-23.357155,-22.163712,2.568762,-0.938034,2.568762,-0.938034,-19.999857,-20.0,22.46209,47.128265,4.828815,297.480011,12.934808,-0.015248,-0.006402,18.560392,0.011528,0.052887,0.005434,0.0,1.0,2541.651367,, fly_strait
74.23452,-23.317415,-22.12397,2.485415,-1.140016,2.485415,-1.140016,-19.999857,-20.0,22.485037,47.915794,4.485782,297.389038,12.962273,-0.00394,-0.024852,21.150637,0.0134,0.051375,0.006068,0.0,1.0,2548.217529,, fly_strait
74.800552,-23.29353,-22.100084,2.448607,-1.26003,2.448607,-1.26003,-19.999857,-20.0,22.500345,48.441708,4.754421,297.286621,12.991613,-8.4E-4,-0.041832,14.562284,0.016286,0.049708,0.010617,0.0,1.0,2552.608154,, fly_strait
75.646049,-23.260138,-22.066692,2.454889,-1.476378,2.454889,-1.476378,-19.999857,-20.0,22.529087,49.231899,6.991154,297.101898,13.052252,-0.003199,-0.069798,13.201772,0.018,0.048972,0.015738,0.0,1.0,2559.208252,, fly_strait
76.204124,-23.237768,-22.044325,2.519392,-1.71129,2.519392,-1.71129,-19.999857,-20.0,22.559908,49.759537,12.48635,296.977203,13.104158,-0.006971,-0.088419,14.083329,0.021091,0.049098,0.024974,0.0,1.0,2563.608398,, fly_strait
77.025558,-23.195486,-22.002041,2.644701,-2.11547,2.644701,-2.11547,-19.999857,-20.0,22.667955,50.552006,31.876081,296.832214,13.202641,-0.010829,-0.107121,16.072702,0.024447,0.050388,0.031209,0.0,1.0,2570.192383,, fly_strait
77.556412,-23.151823,-21.95838,2.738892,-2.358071,2.738892,-2.358071,-19.999857,-20.0,22.803316,51.080742,49.080326,296.773224,13.284857,-0.011432,-0.111457,21.720404,0.030221,0.052894,0.038458,0.0,1.0,2574.555908,, fly_strait
78.3218,-23.044107,-21.850662,2.887174,-2.597752,2.887174,-2.597752,-19.999857,-20.0,23.121769,51.873924,77.860146,296.739227,13.437138,-0.008899,-0.10583,27.959433,0.033687,0.054778,0.041408,0.0,1.0,2581.026855,, fly_strait
78.809242,-22.933689,-21.740244,3.004508,-2.665144,3.004508,-2.665144,-19.999857,-20.0,23.416349,52.402409,98.28611,296.735565,13.55911,-0.004612,-0.097603,38.228619,0.037111,0.057743,0.043108,0.0,1.0,2585.269287,, fly_strait
79.503876,-22.694418,-21.500973,3.177108,-2.62567,3.177108,-2.62567,-19.999857,-20.0,23.989046,53.193962,129.875107,296.723145,13.771912,0.004445,-0.084866,56.63649,0.038073,0.06009,0.043291,0.0,1.0,2591.487549,, fly_strait
79.942802,-22.478142,-21.284697,3.294976,-2.528941,3.294976,-2.528941,-19.999857,-20.0,24.457956,53.72044,150.641556,296.691284,13.931359,0.010962,-0.079659,70.500412,0.03751,0.063542,0.043912,0.0,1.0,2595.517822,, fly_strait
80.569839,-22.058861,-20.865416,3.439964,-2.333503,3.439964,-2.333503,-19.999857,-20.0,25.287569,54.507561,179.781357,296.595551,14.190244,0.019377,-0.079147,92.969215,0.036128,0.0659,0.045505,0.0,1.0,2600.989014, set /instrumentation/magnetic-compass/serviceable false, fly_strait
80.969826,-21.712696,-20.519251,3.529246,-2.195835,3.529246,-2.195835,-19.999857,-20.0,25.918913,55.030197,198.32106,296.502777,14.190244,0.022937,-0.083176,92.969215,0.033336,0.068799,0.050291,0.0,1.0,2603.92627, set /instrumentation/magnetic-compass/serviceable false, fly_strait
81.545387,-21.090317,-19.896873,3.646616,-2.026343,3.646616,-2.026343,-19.999857,-20.0,26.980087,55.810394,225.0457,296.3508,14.190244,0.024974,-0.09103,92.969215,0.031369,0.070585,0.05493,0.0,1.0,2607.591309, set /instrumentation/magnetic-compass/serviceable false, fly_strait
81.91301,-20.605795,-19.41235,3.731736,-1.936815,3.731736,-1.936815,-19.999857,-20.0,27.760012,56.327705,242.271942,296.25885,14.190244,0.024821,-0.094515,92.969215,0.028948,0.072932,0.062529,0.0,1.0,2609.685059, set /instrumentation/magnetic-compass/serviceable false, fly_strait
82.441055,-19.774298,-18.580853,3.853977,-1.83448,3.853977,-1.83448,-19.999857,-20.0,29.037277,57.098942,267.728394,296.170837,14.190244,0.024143,-0.091743,92.969215,0.027669,0.074635,0.067126,0.0,1.0,2612.465332, set /instrumentation/magnetic-compass/serviceable false, fly_strait
82.776016,-19.150274,-17.956831,3.940913,-1.763953,3.940913,-1.763953,-19.999857,-20.0,29.95826,57.609642,284.211914,296.151947,14.190244,0.025021,-0.083765,92.969215,0.026207,0.07708,0.071527,0.0,1.0,2614.141357, set /instrumentation/magnetic-compass/serviceable false, fly_strait
83.253174,-18.110508,-16.917065,4.058305,-1.629817,4.058305,-1.629817,-19.999857,-20.0,31.442812,58.369957,309.382324,296.178253,14.190244,0.029499,-0.064108,92.969215,0.025199,0.078818,0.072472,0.0,1.0,2616.457275, set /instrumentation/magnetic-compass/serviceable false, fly_strait
83.554459,-17.348198,-16.154755,4.144758,-1.507777,4.144758,-1.507777,-19.999857,-20.0,32.506184,58.8727,328.225586,296.216431,14.190244,0.03484,-0.048767,92.969215,0.023283,0.081166,0.071156,0.0,1.0,2617.89624, set /instrumentation/magnetic-compass/serviceable false, fly_strait
83.979187,-16.098309,-14.904864,4.283784,-1.28661,4.283784,-1.28661,-19.999857,-20.0,34.226173,59.620056,359.305695,296.267303,14.190244,0.045088,-0.028944,92.969215,0.02154,0.082895,0.069247,0.0,1.0,2619.92749, set /instrumentation/magnetic-compass/serviceable false, fly_strait
84.243721,-15.191435,-13.99799,4.389894,-1.12291,4.389894,-1.12291,-9.999858,-10.0,35.458179,60.113483,378.754761,296.279938,14.190244,0.052099,-0.020437,92.969215,0.01838,0.085676,0.066704,0.0,1.0,2621.208252, set /instrumentation/magnetic-compass/serviceable false, fly_strait
84.620735,-13.718913,-12.525469,4.50714,-0.897079,4.50714,-0.897079,-9.999858,-10.0,37.416409,60.846001,402.583832,296.25415,14.190244,0.060869,-0.016686,92.969215,0.016042,0.087798,0.066072,0.0,1.0,2623.033936, set /instrumentation/magnetic-compass/serviceable false, fly_strait
84.864075,-12.66451,-11.471066,4.558909,-0.771732,4.558909,-0.771732,-9.999858,-10.0,38.780643,61.329124,415.466705,296.212799,14.190244,0.064341,-0.018769,92.969215,0.012815,0.090143,0.067361,0.0,1.0,2624.196777, set /instrumentation/magnetic-compass/serviceable false, fly_strait
85.221924,-10.980595,-9.78715,4.609326,-0.652392,4.609326,-0.652392,-9.999858,-10.0,40.904736,62.045841,433.241852,296.14212,14.190244,0.065945,-0.024185,92.969215,0.011025,0.091178,0.069429,0.0,1.0,2625.874756, set /instrumentation/magnetic-compass/serviceable false, fly_strait
85.454559,-9.793911,-8.600466,4.65339,-0.609496,4.65339,-0.609496,-9.999858,-10.0,42.368042,62.518291,444.344482,296.105713,14.190244,0.065409,-0.026353,92.969215,0.00932,0.092187,0.072963,0.0,1.0,2626.955566, set /instrumentation/magnetic-compass/serviceable false, fly_strait
85.792389,-7.924194,-6.73075,4.732959,-0.583667,4.732959,-0.583667,-9.999858,-10.0,44.634148,63.218822,461.785919,296.09198,14.190244,0.064129,-0.023515,92.969215,0.008707,0.093068,0.074783,0.0,1.0,2628.524414, set /instrumentation/magnetic-compass/serviceable false, fly_strait
86.008652,-6.620492,-5.427048,4.793849,-0.569764,4.793849,-0.569764,-9.999858,-10.0,46.194843,63.680317,474.31778,296.113281,14.190244,0.064373,-0.017127,92.969215,0.008338,0.094659,0.07547,0.0,1.0,2629.536865, set /instrumentation/magnetic-compass/serviceable false, fly_strait
86.318977,-4.581316,-3.387871,4.8777,-0.526355,4.8777,-0.526355,1.42E-4,0.0,48.617012,64.364082,494.03241,296.178436,14.190244,0.067333,-0.003127,92.969215,0.008139,0.095877,0.074405,0.0,1.0,2630.997559, set /instrumentation/magnetic-compass/serviceable false, fly_strait
86.516373,-3.166596,-1.973152,4.937529,-0.473856,4.937529,-0.473856,1.42E-4,0.0,50.28664,64.814186,507.274719,296.229706,14.190244,0.070994,0.006699,92.969215,0.007519,0.097554,0.071147,0.0,1.0,2631.931152, set /instrumentation/magnetic-compass/serviceable false, fly_strait
86.800613,-0.950717,0.242728,5.018341,-0.368098,5.018341,-0.368098,1.42E-4,0.0,52.874081,65.480576,527.072083,296.286987,14.190244,0.077647,0.016974,92.969215,0.006769,0.098751,0.068584,0.0,1.0,2633.278076, set /instrumentation/magnetic-compass/serviceable false, fly_strait
86.98333,0.648614,1.842058,5.07393,-0.292154,5.07393,-0.292154,1.42E-4,0.0,54.653713,65.918953,540.233521,296.301819,14.190244,0.081445,0.019364,92.969215,0.005259,0.100367,0.06572,0.0,1.0,2634.143799, set /instrumentation/magnetic-compass/serviceable false, fly_strait
87.249435,3.133265,4.32671,5.14861,-0.204395,5.14861,-0.204395,1.42E-4,0.0,57.405197,66.567619,559.62915,296.284943,14.190244,0.084723,0.015824,92.969215,0.004174,0.101479,0.064978,0.0,1.0,2635.400879, set /instrumentation/magnetic-compass/serviceable false, fly_strait
87.422012,4.846404,6.039848,5.200815,-0.172941,5.200815,-0.172941,10.000142,10.0,59.292255,66.994148,572.125183,296.256409,14.190244,0.084652,0.010524,92.969215,0.00292,0.102972,0.065822,0.0,1.0,2636.214844, set /instrumentation/magnetic-compass/serviceable false, fly_strait
87.674065,7.500067,8.693511,5.272166,-0.176416,5.272166,-0.176416,10.000142,10.0,62.200935,67.625099,590.742676,296.214752,14.190244,0.081848,0.00279,92.969215,0.002471,0.104016,0.067249,0.0,1.0,2637.403564, set /instrumentation/magnetic-compass/serviceable false, fly_strait
87.83667,9.324525,10.517969,5.324616,-0.202042,5.324616,-0.202042,10.000142,10.0,64.191368,68.039856,603.079773,296.201782,14.190244,0.079213,1.81E-4,92.969215,0.00252,0.105443,0.069331,0.0,1.0,2638.176025, set /instrumentation/magnetic-compass/serviceable false, fly_strait
88.070976,12.143319,13.336763,5.400758,-0.248738,5.400758,-0.248738,10.000142,10.0,67.254677,68.653175,621.687256,296.219696,14.190244,0.075973,0.00249,92.969215,0.002886,0.106492,0.06998,0.0,1.0,2639.304688, set /instrumentation/magnetic-compass/serviceable false, fly_strait
88.219704,14.076881,15.270326,5.45686,-0.269261,5.45686,-0.269261,10.000142,10.0,69.348488,69.05616,634.174255,296.254883,14.190244,0.075358,0.007693,92.969215,0.003553,0.108015,0.069084,0.0,1.0,2640.036377, set /instrumentation/magnetic-compass/serviceable false, fly_strait
88.431389,17.05839,18.251835,5.53455,-0.263197,5.53455,-0.263197,20.000143,20.0,72.567848,69.651733,652.968323,296.322876,14.190244,0.077026,0.017598,92.969215,0.003847,0.109137,0.067325,0.0,1.0,2641.099854, set /instrumentation/magnetic-compass/serviceable false, fly_strait
88.565186,19.100029,20.293474,5.589001,-0.235939,5.589001,-0.235939,20.000143,20.0,74.765854,70.042809,665.380493,296.364716,14.190244,0.079343,0.023246,92.969215,0.00376,0.110691,0.063925,0.0,1.0,2641.785889, set /instrumentation/magnetic-compass/serviceable false, fly_strait
88.757095,22.243059,23.436502,5.66059,-0.176376,5.66059,-0.176376,20.000143,20.0,78.140099,70.620415,683.638855,296.398529,14.190244,0.083078,0.026427,92.969215,0.003371,0.11178,0.061833,0.0,1.0,2642.78125, set /instrumentation/magnetic-compass/serviceable false, fly_strait
88.88028,24.391737,25.585182,5.709314,-0.139102,5.709314,-0.139102,20.000143,20.0,80.439255,70.999489,695.388367,296.397858,14.190244,0.084463,0.024572,92.969215,0.00252,0.113212,0.060142,0.0,1.0,2643.424072, set /instrumentation/magnetic-compass/serviceable false, fly_strait
89.059746,27.693598,28.887043,5.773076,-0.113234,5.773076,-0.113234,30.000143,30.0,83.960289,71.559151,712.345398,296.36969,14.190244,0.084052,0.017294,92.969215,0.001987,0.114186,0.060176,0.0,1.0,2644.360107, set /instrumentation/magnetic-compass/serviceable false, fly_strait
89.176064,29.94648,31.139925,5.817383,-0.120465,5.817383,-0.120465,30.000143,30.0,86.353516,71.926353,723.156372,296.344543,14.190244,0.082044,0.01159,92.969215,0.001618,0.115462,0.061584,0.0,1.0,2644.967285, set /instrumentation/magnetic-compass/serviceable false, fly_strait
89.345276,33.40131,34.594753,5.877728,-0.163393,5.877728,-0.163393,30.000143,30.0,90.009972,72.468369,738.830017,296.322113,14.190244,0.077652,0.005932,92.969215,0.001721,0.116348,0.062842,0.0,1.0,2645.855225, set /instrumentation/magnetic-compass/serviceable false, fly_strait
89.453812,35.753647,36.947094,5.921141,-0.200955,5.921141,-0.200955,40.000141,40.0,92.49028,72.823906,748.972656,296.326355,14.190244,0.074966,0.005496,92.969215,0.002334,0.117555,0.063963,0.0,1.0,2646.431885, set /instrumentation/magnetic-compass/serviceable false, fly_strait
89.609177,39.353752,40.547195,5.981372,-0.243404,5.981372,-0.243404,40.000141,40.0,96.273811,73.348549,763.915894,296.36377,14.190244,0.072689,0.010078,92.969215,0.002871,0.118423,0.063751,0.0,1.0,2647.272949, set /instrumentation/magnetic-compass/serviceable false, fly_strait
89.707253,41.800434,42.993877,6.024355,-0.253178,6.024355,-0.253178,40.000141,40.0,98.837105,73.692551,773.69519,296.402405,14.190244,0.072856,0.015247,92.969215,0.003477,0.119627,0.06188,0.0,1.0,2647.81665, set /instrumentation/magnetic-compass/serviceable false, fly_strait
89.839211,45.328808,46.522251,6.078585,-0.23492,6.078585,-0.23492,50.000141,50.0,102.524002,74.171989,787.303345,296.454987,14.190244,0.074814,0.021932,92.969215,0.003617,0.120487,0.059949,0.0,1.0,2648.5625, set /instrumentation/magnetic-compass/serviceable false, fly_strait
89.935272,48.07439,49.267834,6.120781,-0.204302,6.120781,-0.204302,50.000141,50.0,105.385849,74.532402,797.350098,296.481598,14.190244,0.07699,0.024565,92.969215,0.003356,0.121572,0.05732,0.0,1.0,2649.114014, set /instrumentation/magnetic-compass/serviceable false, fly_strait
90.063599,51.944309,53.137753,6.17121,-0.161,6.17121,-0.161,50.000141,50.0,109.407486,75.022583,810.759766,296.486847,14.190244,0.078968,0.022774,92.969215,0.002919,0.122416,0.055989,0.0,1.0,2649.852295, set /instrumentation/magnetic-compass/serviceable false, fly_strait
90.146935,54.566368,55.759811,6.204391,-0.144211,6.204391,-0.144211,50.000141,50.0,112.124695,75.343712,819.205322,296.472321,14.190244,0.078823,0.018657,92.969215,0.0023,0.123424,0.055727,0.0,1.0,2650.330078, set /instrumentation/magnetic-compass/serviceable false, fly_strait
90.269432,58.560413,59.753857,6.247568,-0.152046,6.247568,-0.152046,60.000141,60.0,116.251953,75.817055,831.187988,296.440155,14.190244,0.076376,0.011011,92.969215,0.00206,0.124088,0.056453,0.0,1.0,2651.02832, set /instrumentation/magnetic-compass/serviceable false, fly_strait
90.349205,61.262337,62.45578,6.278174,-0.176583,6.278174,-0.176583,60.000141,60.0,119.035736,76.127129,838.778809,296.423523,14.190244,0.073755,0.006963,92.969215,0.002172,0.124951,0.058061,0.0,1.0,2651.482666, set /instrumentation/magnetic-compass/serviceable false, fly_strait
90.465111,65.371597,66.565041,6.320652,-0.226391,6.320652,-0.226391,70.000145,70.0,123.258255,76.584137,849.819275,296.423218,14.190244,0.0698,0.005294,92.969215,0.002523,0.125563,0.058893,0.0,1.0,2652.148438, set /instrumentation/magnetic-compass/serviceable false, fly_strait
90.53907,68.147354,69.340797,6.351479,-0.256006,6.351479,-0.256006,70.000145,70.0,126.103409,76.883469,857.007935,296.441711,14.190244,0.068171,0.007338,92.969215,0.003234,0.126413,0.058908,0.0,1.0,2652.581055, set /instrumentation/magnetic-compass/serviceable false, fly_strait
90.644341,72.363304,73.556747,6.393834,-0.274144,6.393834,-0.274144,70.000145,70.0,130.415924,77.324493,867.62323,296.487701,14.190244,0.067869,0.013384,92.969215,0.003657,0.12703,0.057983,0.0,1.0,2653.212158, set /instrumentation/magnetic-compass/serviceable false, fly_strait
90.710678,75.207787,76.40123,6.423546,-0.266995,6.423546,-0.266995,80.000145,80.0,133.319977,77.613243,874.549866,296.52066,14.190244,0.068974,0.017619,92.969215,0.003916,0.127877,0.055684,0.0,1.0,2653.619873, set /instrumentation/magnetic-compass/serviceable false, fly_strait
90.80558,79.523659,80.717102,6.461929,-0.234069,6.461929,-0.234069,80.000145,80.0,137.718948,78.038498,884.64325,296.552979,14.190244,0.071488,0.020872,92.969215,0.003814,0.128471,0.054036,0.0,1.0,2654.212646, set /instrumentation/magnetic-compass/serviceable false, fly_strait
90.866608,82.432762,83.626205,6.487502,-0.208666,6.487502,-0.208666,80.000145,80.0,140.678909,78.316818,891.064941,296.557587,14.190244,0.072685,0.020156,92.969215,0.003344,0.129239,0.05242,0.0,1.0,2654.595703, set /instrumentation/magnetic-compass/serviceable false, fly_strait
90.95623,86.842522,88.035965,6.519682,-0.186928,6.519682,-0.186928,90.000145,90.0,145.158051,78.726624,900.196838,296.540283,14.190244,0.072802,0.015096,92.969215,0.002981,0.12975,0.05219,0.0,1.0,2655.154785, set /instrumentation/magnetic-compass/serviceable false, fly_strait
91.015068,89.812035,91.005478,6.541537,-0.189505,6.541537,-0.189505,90.000145,90.0,148.168655,78.994797,905.918457,296.520264,14.190244,0.071459,0.010498,92.969215,0.00267,0.130394,0.053055,0.0,1.0,2655.518799, set /instrumentation/magnetic-compass/serviceable false, fly_strait
91.101807,94.308861,95.502304,6.570888,-0.219879,6.570888,-0.219879,90.000145,90.0,152.719513,79.389664,914.097778,296.49704,14.190244,0.068056,0.005049,92.969215,0.002707,0.130831,0.054056,0.0,1.0,2656.053467, set /instrumentation/magnetic-compass/serviceable false, fly_strait
91.158066,97.333992,98.527435,6.592195,-0.249692,6.592195,-0.249692,100.000145,100.0,155.775589,79.648064,919.344788,296.494354,14.190244,0.065726,0.003718,92.969215,0.003141,0.131418,0.055217,0.0,1.0,2656.402832, set /instrumentation/magnetic-compass/serviceable false, fly_strait
91.239014,101.910736,103.104179,6.622263,-0.288087,6.622263,-0.288087,100.000145,100.0,160.392303,80.028511,927.069458,296.514984,14.190244,0.063368,0.005975,92.969215,0.003567,0.131844,0.055351,0.0,1.0,2656.915527, set /instrumentation/magnetic-compass/serviceable false, fly_strait
91.290131,104.987015,106.180458,6.644158,-0.301129,6.644158,-0.301129,100.000145,100.0,163.491302,80.27742,932.150757,296.541107,14.190244,0.063124,0.009476,92.969215,0.004116,0.132445,0.05432,0.0,1.0,2657.249023, set /instrumentation/magnetic-compass/serviceable false, fly_strait
91.362511,109.637772,110.831215,6.673586,-0.293045,6.673586,-0.293045,110.000145,110.0,168.171524,80.643761,939.669128,296.582062,14.190244,0.064518,0.014843,92.969215,0.004302,0.132883,0.053014,0.0,1.0,2657.735596, set /instrumentation/magnetic-compass/serviceable false, fly_strait
91.40831,112.761833,113.955276,6.69361,-0.274336,6.69361,-0.274336,110.000145,110.0,171.312195,80.883362,944.540283,296.601501,14.190244,0.065978,0.016974,92.969215,0.004186,0.133472,0.050966,0.0,1.0,2658.050293, set /instrumentation/magnetic-compass/serviceable false, fly_strait
91.474693,117.48214,118.675583,6.718557,-0.242156,6.718557,-0.242156,120.000145,120.0,176.053146,81.235886,951.541748,296.607483,14.190244,0.067753,0.016179,92.969215,0.003919,0.133872,0.049994,0.0,1.0,2658.509521, set /instrumentation/magnetic-compass/serviceable false, fly_strait
91.518097,120.651138,121.844582,6.734966,-0.228004,6.734966,-0.228004,120.000145,120.0,179.232574,81.466393,955.929993,296.596863,14.190244,0.067866,0.013281,92.969215,0.003459,0.134371,0.049695,0.0,1.0,2658.808105, set /instrumentation/magnetic-compass/serviceable false, fly_strait
91.582565,125.436493,126.629936,6.755924,-0.231025,6.755924,-0.231025,130.000137,130.0,184.028397,81.805542,962.130249,296.57077,14.190244,0.066259,0.007423,92.969215,0.003257,0.134699,0.050226,0.0,1.0,2659.246826, set /instrumentation/magnetic-compass/serviceable false, fly_strait
91.625023,128.647125,129.840576,6.770692,-0.248215,6.770692,-0.248215,130.000137,130.0,187.242279,82.027313,966.033875,296.555603,14.190244,0.064316,0.004088,92.969215,0.0033,0.135118,0.05153,0.0,1.0,2659.53418, set /instrumentation/magnetic-compass/serviceable false, fly_strait
91.687172,133.492264,134.685699,6.791478,-0.285825,6.791478,-0.285825,130.000137,130.0,192.087128,82.35363,971.699585,296.550781,14.190244,0.06122,0.002322,92.969215,0.003546,0.135414,0.052289,0.0,1.0,2659.958252, set /instrumentation/magnetic-compass/serviceable false, fly_strait
91.726929,136.741013,137.934464,6.807008,-0.309283,6.807008,-0.309283,140.000137,140.0,195.332535,82.567009,975.409119,296.561981,14.190244,0.059876,0.003598,92.969215,0.004083,0.13583,0.05253,0.0,1.0,2660.23584, set /instrumentation/magnetic-compass/serviceable false, fly_strait
91.783302,141.641022,142.834457,6.828914,-0.3252,6.828914,-0.3252,140.000137,140.0,200.223877,82.880913,980.946228,296.594055,14.190244,0.059521,0.008036,92.969215,0.004418,0.13614,0.05197,0.0,1.0,2660.643066, set /instrumentation/magnetic-compass/serviceable false, fly_strait
91.818573,144.925064,146.1185,6.844482,-0.320987,6.844482,-0.320987,140.000137,140.0,203.500015,83.086121,984.6026,296.618134,14.190244,0.060361,0.011312,92.969215,0.004646,0.136578,0.050366,0.0,1.0,2660.907959, set /instrumentation/magnetic-compass/serviceable false, fly_strait
91.868736,149.876404,151.069855,6.864424,-0.29657,6.864424,-0.29657,150.000137,150.0,208.436935,83.387894,989.961792,296.642059,14.190244,0.062396,0.014016,92.969215,0.004586,0.13689,0.049162,0.0,1.0,2661.294922, set /instrumentation/magnetic-compass/serviceable false, fly_strait
91.900963,153.193741,154.387177,6.877478,-0.276863,6.877478,-0.276863,150.000137,150.0,211.742737,83.585114,993.370483,296.645203,14.190244,0.06344,0.013629,92.969215,0.004237,0.137288,0.047966,0.0,1.0,2661.546143, set /instrumentation/magnetic-compass/serviceable false, fly_strait
91.948593,158.193542,159.386993,6.893403,-0.259037,6.893403,-0.259037,160.000137,160.0,216.722168,83.875099,998.187195,296.63092,14.190244,0.063731,0.009912,92.969215,0.003955,0.13755,0.047809,0.0,1.0,2661.914795, set /instrumentation/magnetic-compass/serviceable false, fly_strait
91.980194,161.542099,162.735535,6.904049,-0.260045,6.904049,-0.260045,160.000137,160.0,220.054657,84.064613,1001.177246,296.614471,14.190244,0.062803,0.006419,92.969215,0.003701,0.137868,0.048523,0.0,1.0,2662.15625, set /instrumentation/magnetic-compass/serviceable false, fly_strait
92.027229,166.586853,167.780304,6.918404,-0.28221,6.918404,-0.28221,170.000137,170.0,225.071609,84.3433,1005.42804,296.594604,14.190244,0.060281,0.002215,92.969215,0.003715,0.138081,0.049345,0.0,1.0,2662.513428, set /instrumentation/magnetic-compass/serviceable false, fly_strait
92.057922,169.96405,171.157501,6.929095,-0.304558,6.929095,-0.304558,170.000137,170.0,228.427765,84.525452,1008.158936,296.591095,14.190244,0.058527,0.001163,92.969215,0.004032,0.138368,0.050339,0.0,1.0,2662.748291, set /instrumentation/magnetic-compass/serviceable false, fly_strait
92.102043,175.049896,176.243332,6.944712,-0.333494,6.944712,-0.333494,170.000137,170.0,233.479019,84.793312,1012.216248,296.60498,14.190244,0.056762,0.002889,92.969215,0.004351,0.138582,0.050514,0.0,1.0,2663.095459, set /instrumentation/magnetic-compass/serviceable false, fly_strait
92.129723,178.453339,179.64679,6.956372,-0.343134,6.956372,-0.343134,180.000137,180.0,236.857742,84.968361,1014.922974,296.623901,14.190244,0.05663,0.005598,92.969215,0.004764,0.138894,0.04982,0.0,1.0,2663.32251, set /instrumentation/magnetic-compass/serviceable false, fly_strait
92.168533,183.577225,184.77066,6.97217,-0.336215,6.97217,-0.336215,180.000137,180.0,241.942825,85.225708,1018.972168,296.653748,14.190244,0.05782,0.009767,92.969215,0.004902,0.139127,0.048874,0.0,1.0,2663.655762, set /instrumentation/magnetic-compass/serviceable false, fly_strait
92.192902,187.005325,188.198761,6.982838,-0.321295,6.982838,-0.321295,190.000137,190.0,245.343964,85.393829,1021.611572,296.667572,14.190244,0.059034,0.011422,92.969215,0.004803,0.139443,0.047382,0.0,1.0,2663.872314, set /instrumentation/magnetic-compass/serviceable false, fly_strait
92.228188,192.165237,193.358673,6.995745,-0.295917,6.995745,-0.295917,190.000137,190.0,250.461899,85.640938,1025.395996,296.670319,14.190244,0.060519,0.010812,92.969215,0.00459,0.139657,0.04669,0.0,1.0,2664.190186, set /instrumentation/magnetic-compass/serviceable false, fly_strait
92.25135,195.616699,196.81015,7.00404,-0.284771,7.00404,-0.284771,200.000137,200.0,253.883987,85.802338,1027.748047,296.66095,14.190244,0.060662,0.008581,92.969215,0.004227,0.139915,0.046553,0.0,1.0,2664.397705, set /instrumentation/magnetic-compass/serviceable false, fly_strait
92.286003,200.810501,202.003952,7.014484,-0.286986,7.014484,-0.286986,200.000137,200.0,259.031342,86.039574,1031.044067,296.639374,14.190244,0.059479,0.004121,92.969215,0.004068,0.140081,0.047021,0.0,1.0,2664.70459, set /instrumentation/magnetic-compass/serviceable false, fly_strait
92.308968,204.283646,205.477097,7.021923,-0.300109,7.021923,-0.300109,200.000137,200.0,262.471741,86.194557,1033.108887,296.627014,14.190244,0.058021,0.001632,92.969215,0.0041,0.14029,0.0481,0.0,1.0,2664.906494, set /instrumentation/magnetic-compass/serviceable false, fly_strait
92.342606,209.508514,210.70195,7.032733,-0.328494,7.032733,-0.328494,210.000137,210.0,267.64505,86.422379,1036.114502,296.622742,14.190244,0.055723,4.61E-4,92.969215,0.004287,0.140438,0.048718,0.0,1.0,2665.206055, set /instrumentation/magnetic-compass/serviceable false, fly_strait
92.363983,213.001419,214.19487,7.041085,-0.345751,7.041085,-0.345751,210.000137,210.0,271.102203,86.571205,1038.104004,296.631104,14.190244,0.054781,0.001577,92.969215,0.004693,0.140655,0.048932,0.0,1.0,2665.403076, set /instrumentation/magnetic-compass/serviceable false, fly_strait
92.393875,218.25473,219.448166,7.053141,-0.356267,7.053141,-0.356267,220.000137,220.0,276.300476,86.789948,1041.111572,296.655151,14.190244,0.054684,0.005133,92.969215,0.004939,0.140822,0.048514,0.0,1.0,2665.693604, set /instrumentation/magnetic-compass/serviceable false, fly_strait
92.41227,221.765961,222.959412,7.061749,-0.351735,7.061749,-0.351735,220.000137,220.0,279.774292,86.932816,1043.119019,296.672791,14.190244,0.055451,0.007671,92.969215,0.00509,0.141063,0.047311,0.0,1.0,2665.883057, set /instrumentation/magnetic-compass/serviceable false, fly_strait
92.438103,227.046036,228.239471,7.072558,-0.331505,7.072558,-0.331505,230.000137,230.0,284.997559,87.142715,1046.066772,296.68924,14.190244,0.057153,0.009658,92.969215,0.005025,0.141235,0.046429,0.0,1.0,2666.161133, set /instrumentation/magnetic-compass/serviceable false, fly_strait
92.454628,230.574692,231.768127,7.079424,-0.315904,7.079424,-0.315904,230.000137,230.0,288.487671,87.27977,1047.929199,296.690033,14.190244,0.058,0.009253,92.969215,0.004736,0.141451,0.045607,0.0,1.0,2666.342529, set /instrumentation/magnetic-compass/serviceable false, fly_strait
92.479202,235.880188,237.073639,7.087447,-0.302509,7.087447,-0.302509,240.000137,240.0,293.734131,87.481117,1050.526855,296.676971,14.190244,0.058224,0.00628,92.969215,0.004513,0.141588,0.045567,0.0,1.0,2666.609619, set /instrumentation/magnetic-compass/serviceable false, fly_strait
92.495674,239.425232,240.618683,7.092706,-0.303841,7.092706,-0.303841,240.000137,240.0,297.238647,87.612587,1052.11438,296.663391,14.190244,0.057498,0.003597,92.969215,0.004322,0.141749,0.04622,0.0,1.0,2666.785645, set /instrumentation/magnetic-compass/serviceable false, fly_strait
92.520378,244.754257,245.947693,7.099895,-0.32153,7.099895,-0.32153,240.000137,240.0,302.505066,87.805756,1054.352051,296.647766,14.190244,0.055569,5.39E-4,92.969215,0.004341,0.141854,0.046899,0.0,1.0,2667.046631, set /instrumentation/magnetic-compass/serviceable false, fly_strait
92.536499,248.314194,249.507645,7.105453,-0.338617,7.105453,-0.338617,250.000137,250.0,306.022064,87.931915,1055.792114,296.645355,14.190244,0.054279,-7.6E-5,92.969215,0.004593,0.141998,0.047681,0.0,1.0,2667.219238, set /instrumentation/magnetic-compass/serviceable false, fly_strait
92.559441,253.664474,254.85791,7.113913,-0.359576,7.113913,-0.359576,250.000137,250.0,311.30658,88.117287,1057.956055,296.656616,14.190244,0.053089,0.001546,92.969215,0.004837,0.142109,0.047801,0.0,1.0,2667.475342, set /instrumentation/magnetic-compass/serviceable false, fly_strait
92.573563,257.237946,258.431396,7.120364,-0.365535,7.120364,-0.365535,260.000153,260.0,314.835632,88.238327,1059.421753,296.671173,14.190244,0.053129,0.003754,92.969215,0.005137,0.142278,0.047238,0.0,1.0,2667.643555, set /instrumentation/magnetic-compass/serviceable false, fly_strait
92.592636,262.307983,263.501434,7.128603,-0.358803,7.128603,-0.358803,260.000153,260.0,319.843567,88.40638,1061.512817,296.692078,14.190244,0.054087,0.006817,92.969215,0.005222,0.142407,0.04651,0.0,1.0,2667.877441, set /instrumentation/magnetic-compass/serviceable false, fly_strait
92.604698,266.192047,267.385498,7.134818,-0.345341,7.134818,-0.345341,270.000153,270.0,323.679718,88.532211,1063.07312,296.702332,14.190244,0.055244,0.008115,92.969215,0.005126,0.142572,0.045465,0.0,1.0,2668.052734, set /instrumentation/magnetic-compass/serviceable false, fly_strait
92.622086,271.581116,272.774567,7.141516,-0.325349,7.141516,-0.325349,270.000153,270.0,329.000458,88.702675,1065.125854,296.702118,14.190244,0.056406,0.007427,92.969215,0.004933,0.142696,0.044952,0.0,1.0,2668.290771, set /instrumentation/magnetic-compass/serviceable false, fly_strait
92.633636,275.179718,276.373169,7.14549,-0.317239,7.14549,-0.317239,270.000153,270.0,332.55304,88.813942,1066.373901,296.693481,14.190244,0.056487,0.005592,92.969215,0.004648,0.14283,0.044963,0.0,1.0,2668.447266, set /instrumentation/magnetic-compass/serviceable false, fly_strait
92.651253,280.58609,281.77951,7.150288,-0.320273,7.150288,-0.320273,280.000153,280.0,337.889374,88.977364,1068.078003,296.67572,14.190244,0.055513,0.00215,92.969215,0.004532,0.14291,0.045395,0.0,1.0,2668.679443, set /instrumentation/magnetic-compass/serviceable false, fly_strait
92.663101,284.195709,285.38916,7.153807,-0.331135,7.153807,-0.331135,280.000153,280.0,341.451477,89.084053,1069.129395,296.666229,14.190244,0.054383,3.51E-4,92.969215,0.004575,0.143006,0.046283,0.0,1.0,2668.833008, set /instrumentation/magnetic-compass/serviceable false, fly_strait
92.680489,289.617706,290.811157,7.159279,-0.353091,7.159279,-0.353091,290.000153,290.0,346.801086,89.240784,1070.668213,296.663757,14.190244,0.052687,-2.49E-4,92.969215,0.00473,0.143076,0.046758,0.0,1.0,2669.062256, set /instrumentation/magnetic-compass/serviceable false, turn_+45
92.691055,293.237213,294.430664,7.163901,-0.374116,7.163901,-0.374116,290.000153,290.0,350.371796,89.343109,1071.717407,296.68335,14.190244,0.044894,0.003374,92.969215,0.001681,0.143186,0.1,0.0,1.0,2669.213623, set /instrumentation/magnetic-compass/serviceable false, turn_+45
92.695137,298.67337,299.866821,7.180908,-0.421965,7.180908,-0.421965,300.000153,300.0,355.734741,89.493324,1073.541626,296.933533,14.190244,0.039493,0.043375,92.969215,0.001782,0.143278,0.1,0.0,1.0,2669.431641, set /instrumentation/magnetic-compass/serviceable false, turn_+45
92.683563,302.302155,303.495605,7.20252,-0.357663,7.20252,-0.357663,300.000153,300.0,359.316406,89.591148,1075.504883,297.208374,14.190244,0.048968,0.085393,92.969215,0.002009,0.143618,0.1,0.0,1.0,2669.561035, set /instrumentation/magnetic-compass/serviceable false, turn_+45
92.643311,307.753479,308.94693,7.233677,-0.053925,7.233677,-0.053925,310.000153,310.0,364.704254,89.734016,1079.688599,297.64566,14.190244,0.077246,0.148466,92.969215,0.001703,0.14405,0.1,0.0,1.0,2669.713379, set /instrumentation/magnetic-compass/serviceable false, turn_+45
92.606316,311.394318,312.587769,7.247935,0.265594,7.247935,0.265594,310.000153,310.0,368.308533,89.826469,1082.781372,297.88681,14.190244,0.100176,0.179669,92.969215,2.57E-4,0.144674,0.1,0.0,1.0,2669.783203, set /instrumentation/magnetic-compass/serviceable false, turn_+45
92.548607,316.867554,318.061005,7.250041,0.820811,7.250041,0.820811,320.000153,320.0,373.733002,89.960732,1086.613525,298.11026,14.190244,0.131545,0.200698,92.969215,-0.001265,0.144959,0.1,0.0,1.0,2669.848633, set /instrumentation/magnetic-compass/serviceable false, turn_+45
92.514671,320.52478,321.718231,7.244902,1.185308,7.244902,1.185308,320.000153,320.0,377.35788,90.047318,1088.107422,298.164825,14.190244,0.146217,0.198116,92.969215,-0.003909,0.145001,0.1,0.0,1.0,2669.876465, set /instrumentation/magnetic-compass/serviceable false, turn_+45
92.474953,326.022369,327.21582,7.235119,1.626763,7.235119,1.626763,330.000153,330.0,382.801025,90.173027,1088.847412,298.148987,14.190244,0.155873,0.177496,92.969215,-0.005644,0.144898,0.1,0.0,1.0,2669.912598, set /instrumentation/magnetic-compass/serviceable false, turn_+45
92.455727,329.694,330.887421,7.228506,1.832674,7.228506,1.832674,330.000153,330.0,386.430054,90.254242,1088.491943,298.113922,14.190244,0.154619,0.159908,92.969215,-0.007746,0.144702,0.1,0.0,1.0,2669.940674, set /instrumentation/magnetic-compass/serviceable false, turn_+45
92.435089,335.208221,336.401672,7.220517,2.003011,7.220517,2.003011,330.000153,330.0,391.869354,90.372559,1087.155884,298.093658,14.190244,0.145325,0.139081,92.969215,-0.008727,0.14457,0.1,0.0,1.0,2669.995605, set /instrumentation/magnetic-compass/serviceable false, turn_+45
92.424683,338.887115,340.080536,7.215095,2.051406,7.215095,2.051406,340.000153,340.0,395.491241,90.44928,1086.005371,298.130524,14.190244,0.137363,0.133531,92.969215,-0.009538,0.14441,0.1,0.0,1.0,2670.041748, set /instrumentation/magnetic-compass/serviceable false, turn_+45
92.41008,344.406708,345.600159,7.208608,2.080297,7.208608,2.080297,340.000153,340.0,400.916779,90.56134,1084.300171,298.280334,14.190244,0.127668,0.140021,92.969215,-0.009769,0.144302,0.1,0.0,1.0,2670.121338, set /instrumentation/magnetic-compass/serviceable false, turn_+45
92.398819,348.086029,349.27948,7.205072,2.10396,7.205072,2.10396,350.000153,350.0,404.52948,90.634102,1083.380005,298.436707,14.190244,0.124564,0.152735,92.969215,-0.009906,0.144172,0.1,0.0,1.0,2670.177979, set /instrumentation/magnetic-compass/serviceable false, turn_+45
92.377258,353.602966,354.796417,7.202119,2.183949,7.202119,2.183949,350.000153,350.0,409.943817,90.740341,1082.488159,298.724335,14.190244,0.12579,0.178552,92.969215,-0.010019,0.144101,0.1,0.0,1.0,2670.261719, set /instrumentation/magnetic-compass/serviceable false, turn_+45
92.359612,357.279266,358.472687,7.20049,2.275522,7.20049,2.275522,360.000153,360.0,413.551575,90.809196,1082.207764,298.928223,14.190244,0.129808,0.196283,92.969215,-0.0104,0.144042,0.1,0.0,1.0,2670.313232, set /instrumentation/magnetic-compass/serviceable false, turn_+45
92.330025,362.791107,363.984558,7.197636,2.459227,7.197636,2.459227,360.000153,360.0,418.962067,90.9095,1082.015869,299.217957,14.190244,0.138208,0.218018,92.969215,-0.010836,0.14401,0.1,0.0,1.0,2670.381592, set /instrumentation/magnetic-compass/serviceable false, turn_+45
92.309853,366.464111,367.657562,7.194754,2.599641,7.194754,2.599641,370.000153,370.0,422.568542,90.974365,1081.87207,299.388275,14.190244,0.143731,0.227505,92.969215,-0.011711,0.143953,0.1,0.0,1.0,2670.421875, set /instrumentation/magnetic-compass/serviceable false, turn_+45
92.281509,371.971405,373.164856,7.189447,2.803222,7.189447,2.803222,370.000153,370.0,427.976837,91.068718,1081.389282,299.605652,14.190244,0.149759,0.233957,92.969215,-0.012379,0.143895,0.1,0.0,1.0,2670.478271, set /instrumentation/magnetic-compass/serviceable false, turn_+45
92.264839,375.641388,376.834839,7.185046,2.922093,7.185046,2.922093,380.000153,380.0,431.580536,91.129723,1080.810059,299.731354,14.190244,0.151592,0.234409,92.969215,-0.013349,0.143789,0.1,0.0,1.0,2670.515625, set /instrumentation/magnetic-compass/serviceable false, turn_+45
92.243591,381.143524,382.336945,7.178424,3.056864,7.178424,3.056864,380.000153,380.0,436.981537,91.218521,1079.566895,299.90979,14.190244,0.151177,0.232613,92.969215,-0.013915,0.143701,0.1,0.0,1.0,2670.575439, set /instrumentation/magnetic-compass/serviceable false, turn_+45
