airspeed_indicator_indicated_speed_kt,altimeter_indicated_altitude_ft,altimeter_pressure_alt_ft,attitude_indicator_indicated_pitch_deg,attitude_indicator_indicated_roll_deg,attitude_indicator_internal_pitch_deg,attitude_indicator_internal_roll_deg,encoder_indicated_altitude_ft,encoder_pressure_alt_ft,gps_indicated_altitude_ft,gps_indicated_ground_speed_kt,gps_indicated_vertical_speed,indicated_heading_deg,magnetic_compass_indicated_heading_deg,slip_skid_ball_indicated_slip_skid,turn_indicator_indicated_turn_rate,vertical_speed_indicator_indicated_speed_fpm,flight_aileron,flight_elevator,flight_rudder,flight_flaps,engine_throttle,engine_rpm,Command_fault,Command
3.180137,-25.030806,-23.83736,2.963033,1.354218,2.586548,0.099265,-19.999857,-20.0,2.285873,0.0,3.3E-5,297.868073,275.978027,0.011383,-0.049539,-15.179888,-0.0,0.0,0.0,0.0,0.0,602.003296,, takeoff
3.178619,-25.031004,-23.837561,2.968343,1.371989,2.586524,0.09926,-19.999857,-20.0,2.285873,0.0,0.0,297.867249,278.272491,0.011383,-0.044815,-16.035425,-0.0,0.0,0.0,0.0,0.0,602.031372,, takeoff
3.180396,-25.031155,-23.837709,2.765576,0.721572,2.5788,0.098985,-19.999857,-20.0,2.285832,3.1E-5,-0.017686,297.865936,281.685211,0.01128,-0.038583,-16.649048,-0.0196,0.05173,4.1E-5,0.0,1.0,675.464111,, takeoff
3.183216,-25.031183,-23.837738,2.630064,0.335982,2.558561,0.097639,-19.999857,-20.0,2.285743,1.34E-4,-0.036678,297.86496,283.916199,0.011141,-0.034969,-16.764339,-0.010308,0.051576,1.07E-4,0.0,1.0,788.90448,, takeoff
3.224188,-25.03117,-23.837727,2.514081,0.092168,2.514081,0.092168,-19.999857,-20.0,2.285581,8.09E-4,-0.012193,297.863251,287.157379,0.011181,-0.0303,-16.713182,-0.0048,0.051171,1.56E-4,0.0,1.0,1013.077942,, takeoff
3.303541,-25.031116,-23.837671,2.505325,0.085895,2.505325,0.085895,-19.999857,-20.0,2.285613,0.002578,0.030079,297.861908,289.227692,0.011868,-0.027644,-16.497116,-0.001317,0.050282,2.41E-4,0.0,1.0,1177.402832,, takeoff
3.529831,-25.03092,-23.837477,2.521973,0.072831,2.521973,0.072831,-19.999857,-20.0,2.28593,0.009846,0.089133,297.859039,292.244568,0.015292,-0.024252,-15.678265,-0.001227,0.050106,3.08E-4,0.0,1.0,1424.856812,, takeoff
3.74053,-25.03071,-23.837267,2.541727,0.06334,2.541727,0.06334,-19.999857,-20.0,2.286276,0.018636,0.125476,297.855927,293.997437,0.018279,-0.022644,-14.75568,-0.00104,0.050439,4.52E-4,0.0,1.0,1564.892456,, takeoff
4.178798,-25.03023,-23.836786,2.576037,0.048075,2.576037,0.048075,-19.999857,-20.0,2.287026,0.041648,0.176625,297.847229,296.528748,0.024647,-0.021048,-12.378347,-9.05E-4,0.050835,6.07E-4,0.0,1.0,1753.510254,, takeoff
4.539729,-25.029799,-23.836355,2.598049,0.038334,2.598049,0.038334,-19.999857,-20.0,2.287665,0.064728,0.209484,297.837402,298.060577,0.028131,-0.020747,-9.764985,-6.87E-4,0.051521,0.001042,0.0,1.0,1857.016479,, takeoff
5.170496,-25.028976,-23.835531,2.625272,0.025732,2.625272,0.025732,-19.999857,-20.0,2.288835,0.113143,0.260398,297.814606,300.108063,0.035334,-0.021588,3.872436,-5.48E-4,0.051961,0.001534,0.0,1.0,1980.683594,, takeoff
5.661559,-25.028276,-23.834831,2.63998,0.018928,2.63998,0.018928,-19.999857,-20.0,2.289809,0.1576,0.299756,297.791931,301.345245,0.033059,-0.023137,10.441252,-3.68E-4,0.052505,0.002673,0.0,1.0,2046.876709,, takeoff
6.4066,-25.027103,-23.833658,2.654304,0.012314,2.654304,0.012314,-19.999857,-20.0,2.291418,0.236034,0.361356,297.751068,302.814056,0.030972,-0.026407,16.319284,-2.7E-4,0.0528,0.003807,0.0,1.0,2117.289795,, takeoff
6.948103,-25.026161,-23.832718,2.661114,0.009702,2.661114,0.009702,-19.999857,-20.0,2.292704,0.301259,0.408116,297.716034,303.640625,0.029616,-0.029456,7.214265,-1.76E-4,0.053086,0.00585,0.0,1.0,2153.374512,, takeoff
7.226288,-25.025646,-23.832203,2.663673,0.008788,2.663673,0.008788,-19.999857,-20.0,2.293406,0.337453,0.431999,297.696808,303.998444,0.028893,-0.031128,11.009567,-1.76E-4,0.053086,0.00585,0.0,1.0,2168.355469,, takeoff
7.366983,-25.025377,-23.831932,2.664799,0.00836,2.664799,0.00836,-19.999857,-20.0,2.293772,0.356456,0.444761,297.686798,304.163483,0.028435,-0.03199,12.543616,-1.39E-4,0.053222,0.007602,0.0,1.0,2175.167969,, takeoff
9.29114,-25.021357,-23.827913,2.673571,0.006354,2.673571,0.006354,-19.999857,-20.0,2.299612,0.663469,0.621285,297.538208,305.483612,0.023623,-0.044105,18.853781,-1.19E-4,0.053296,0.009064,0.0,1.0,2232.9729,, takeoff
9.893508,-25.019676,-23.826233,2.674885,0.006664,2.674885,0.006664,-19.999857,-20.0,2.301781,0.777634,0.677424,297.483459,305.578979,0.02245,-0.048444,15.424281,-9.1E-5,0.053471,0.016493,0.0,1.0,2242.125732,, takeoff
10.778888,-25.01696,-23.823517,2.675944,0.007753,2.675944,0.007753,-19.999857,-20.0,2.305283,0.961323,0.761801,297.41629,305.476349,0.021166,-0.051902,16.203793,-9.5E-5,0.053498,0.019231,0.0,1.0,2251.046875,, takeoff
11.388803,-25.014906,-23.821461,2.676807,0.008709,2.676807,0.008709,-19.999857,-20.0,2.307925,1.098893,0.821056,297.379364,305.248077,0.020612,-0.052573,13.999158,-1.11E-4,0.053519,0.022589,0.0,1.0,2254.854248,, takeoff
12.305325,-25.011513,-23.818068,2.678285,0.010059,2.678285,0.010059,-19.999857,-20.0,2.312254,1.322586,0.90915,297.339935,304.680969,0.020634,-0.050939,17.524632,-1.24E-4,0.053536,0.024435,0.0,1.0,2257.995605,, takeoff
12.941854,-25.00893,-23.815487,2.679469,0.011102,2.679469,0.011102,-19.999857,-20.0,2.315521,1.489902,0.970649,297.322327,304.140137,0.021229,-0.048431,17.671801,-1.44E-4,0.053566,0.026407,0.0,1.0,2258.810791,, takeoff
13.831698,-25.004993,-23.81155,2.681221,0.01266,2.681221,0.01266,-19.999857,-20.0,2.320454,1.74019,1.056198,297.309723,303.200623,0.022445,-0.043456,12.228898,-1.59E-4,0.053589,0.027287,0.0,1.0,2258.589355,, takeoff
14.44033,-25.002071,-23.808626,2.682532,0.013961,2.682532,0.013961,-19.999857,-20.0,2.324078,1.922364,1.115151,297.306946,302.446106,0.023538,-0.039543,14.193046,-1.81E-4,0.053624,0.027918,0.0,1.0,2258.195801,, takeoff
15.351114,-24.997341,-23.803898,2.684614,0.016511,2.684614,0.016511,-19.999857,-20.0,2.32988,2.211235,1.203279,297.307831,301.169189,0.025222,-0.033593,12.159604,-1.99E-4,0.053651,0.028056,0.0,1.0,2258.908203,, takeoff
15.982637,-24.993813,-23.800369,2.686295,0.018644,2.686295,0.018644,-19.999857,-20.0,2.33417,2.422577,1.26508,297.309326,300.195068,0.026253,-0.029844,16.584652,-2.36E-4,0.053692,0.028012,0.0,1.0,2259.982666,, takeoff
16.866074,-24.988529,-23.795084,2.688913,0.022025,2.688913,0.022025,-19.999857,-20.0,2.340535,2.732822,1.351131,297.308716,298.734894,0.026895,-0.025662,17.113714,-2.66E-4,0.053726,0.027937,0.0,1.0,2261.924072,, takeoff
17.471615,-24.984674,-23.791229,2.690938,0.024606,2.690938,0.024606,-19.999857,-20.0,2.345141,2.955013,1.410352,297.304718,297.682739,0.026892,-0.023701,10.683807,-3.15E-4,0.053778,0.027968,0.0,1.0,2263.421631,, takeoff
18.379669,-24.978531,-23.785086,2.694192,0.028848,2.694192,0.028848,-19.999857,-20.0,2.352421,3.302323,1.498815,297.291504,296.050964,0.026009,-0.022233,15.987929,-3.52E-4,0.053819,0.028168,0.0,1.0,2265.790039,, takeoff
18.984938,-24.974197,-23.780754,2.696583,0.031874,2.696583,0.031874,-19.999857,-20.0,2.357521,3.542986,1.558505,297.277405,294.941315,0.024854,-0.022201,12.065993,-4.12E-4,0.053884,0.028828,0.0,1.0,2267.404785,, takeoff
19.89257,-24.967335,-23.773891,2.700354,0.036512,2.700354,0.036512,-19.999857,-20.0,2.365542,3.917287,1.64727,297.249664,293.267059,0.022459,-0.023168,19.235439,-4.55E-4,0.053932,0.029533,0.0,1.0,2269.838379,, takeoff
20.522621,-24.962311,-23.768867,2.70322,0.039753,2.70322,0.039753,-19.999857,-20.0,2.371374,4.186383,1.709271,297.226501,292.111145,0.020235,-0.024356,18.774736,-5.22E-4,0.054007,0.03092,0.0,1.0,2271.522461,, takeoff
21.429335,-24.954706,-23.761263,2.707549,0.044102,2.707549,0.044102,-19.999857,-20.0,2.380157,4.586705,1.84761,297.191528,290.477448,0.017367,-0.026084,18.387096,-5.68E-4,0.054064,0.032079,0.0,1.0,2273.928467,, takeoff
22.0329,-24.949368,-23.755924,2.714054,0.049792,2.714054,0.049792,-19.999857,-20.0,2.386594,4.861784,1.987858,297.168396,289.41983,0.016133,-0.026987,19.005394,-6.3E-4,0.054151,0.033827,0.0,1.0,2275.517822,, takeoff
22.936947,-24.94083,-23.747387,2.721946,0.05689,2.721946,0.05689,-19.999857,-20.0,2.397105,5.286342,2.16944,297.137329,287.898193,0.013616,-0.027631,11.36986,-7.11E-4,0.054281,0.034984,0.0,1.0,2277.880859,, takeoff
23.538458,-24.934769,-23.741325,2.725194,0.059125,2.725194,0.059125,-19.999857,-20.0,2.404448,5.577141,2.233016,297.119812,286.936188,0.012614,-0.027553,16.117203,-8.13E-4,0.054439,0.036537,0.0,1.0,2279.441895,, takeoff
24.388269,-24.925774,-23.732328,2.729698,0.061569,2.729698,0.061569,-19.999857,-20.0,2.415215,5.999433,2.324627,297.101288,285.657837,0.012244,-0.026475,8.495674,-8.45E-4,0.054504,0.037413,0.0,1.0,2281.627441,, takeoff
25.012106,-24.918873,-23.725428,2.73339,0.063258,2.73339,0.063258,-19.999857,-20.0,2.423411,6.317471,2.39316,297.091797,284.788452,0.012501,-0.025135,17.294968,-8.8E-4,0.054594,0.038339,0.0,1.0,2283.218262,, takeoff
25.908875,-24.908503,-23.715059,2.738888,0.065507,2.738888,0.065507,-19.999857,-20.0,2.43563,6.78633,2.491706,297.083344,283.652222,0.013599,-0.022643,17.413197,-9.04E-4,0.054668,0.038814,0.0,1.0,2285.490967,, takeoff
26.50573,-24.901314,-23.707869,2.742738,0.067146,2.742738,0.067146,-19.999857,-20.0,2.44405,7.105852,2.557157,297.079651,282.975677,0.014512,-0.020887,14.88866,-9.36E-4,0.054778,0.039236,0.0,1.0,2286.997314,, takeoff
27.424314,-24.889784,-23.696339,2.748598,0.069942,2.748598,0.069942,-19.999857,-20.0,2.457458,7.609014,2.658181,297.07431,282.066589,0.015897,-0.018463,19.190075,-9.59E-4,0.054855,0.039421,0.0,1.0,2289.309326,, takeoff
27.994467,-24.882355,-23.68891,2.752351,0.071985,2.752351,0.071985,-19.999857,-20.0,2.466054,7.928079,2.721087,297.069641,281.585938,0.0163,-0.017361,18.178865,-9.99E-4,0.054972,0.039688,0.0,1.0,2290.742188,, takeoff
28.910263,-24.869982,-23.676537,2.758439,0.07574,2.758439,0.07574,-19.999857,-20.0,2.480324,8.451164,2.880495,297.057831,280.951324,0.01619,-0.016473,14.947331,-0.001028,0.055047,0.039922,0.0,1.0,2293.041748,, takeoff
29.774017,-24.857691,-23.664248,2.771111,0.079798,2.771111,0.079798,-19.999857,-20.0,2.495476,8.956762,3.262584,297.040039,280.508942,0.014957,-0.016775,11.231953,-0.001082,0.055169,0.040512,0.0,1.0,2295.212891,, takeoff
30.389931,-24.848394,-23.654949,2.775146,0.082902,2.775146,0.082902,-19.999857,-20.0,2.506925,9.324118,3.33028,297.02356,280.285919,0.013228,-0.017548,18.22365,-0.001121,0.055369,0.041086,0.0,1.0,2296.761963,, takeoff
31.250761,-24.834709,-23.641264,2.780387,0.087394,2.780387,0.087394,-19.999857,-20.0,2.523369,9.846845,3.432677,296.995697,280.100647,0.010594,-0.019238,19.892254,-0.001184,0.055503,0.042226,0.0,1.0,2298.928955,, takeoff
31.864588,-24.824497,-23.631052,2.784322,0.090468,2.784322,0.090468,-19.999857,-20.0,2.535424,10.226075,3.508479,296.974243,280.056061,0.008042,-0.020526,18.948757,-0.001229,0.055575,0.043161,0.0,1.0,2300.476074,, takeoff
32.428555,-24.814816,-23.62137,2.788236,0.093214,2.788236,0.093214,-19.999857,-20.0,2.546747,10.579155,3.577983,296.953888,280.076874,0.006207,-0.021693,15.934108,-0.001292,0.055686,0.044691,0.0,1.0,2301.898926,, takeoff
33.309261,-24.799082,-23.605637,2.79446,0.096901,2.79446,0.096901,-19.999857,-20.0,2.564918,11.139636,3.687381,296.924072,280.222046,0.003427,-0.022968,16.525829,-0.001332,0.055765,0.045709,0.0,1.0,2304.125244,, takeoff
33.919559,-24.787785,-23.594339,2.79898,0.099138,2.79898,0.099138,-19.999857,-20.0,2.577859,11.534324,3.763183,296.905609,280.398529,0.001948,-0.023397,18.747568,-0.001384,0.055889,0.0472,0.0,1.0,2305.670898,, takeoff
34.795921,-24.770967,-23.577522,2.814976,0.10362,2.814976,0.10362,-19.999857,-20.0,2.597123,12.110283,4.149895,296.88446,280.751953,0.001428,-0.023045,10.332538,-0.001416,0.05598,0.048123,0.0,1.0,2307.895752,, takeoff
35.353889,-24.759789,-23.566343,2.822217,0.107649,2.822217,0.107649,-19.999857,-20.0,2.610828,12.482815,4.367284,296.873871,281.033447,0.001432,-0.02237,13.629889,-0.00148,0.0563,0.049181,0.0,1.0,2309.316406,, takeoff
36.249405,-24.740877,-23.547432,2.825189,0.109751,2.825189,0.109751,-19.999857,-20.0,2.633571,13.089309,4.483818,296.86203,281.566315,0.002324,-0.020691,17.533854,-0.001538,0.056444,0.04971,0.0,1.0,2311.600342,, takeoff
37.069992,-24.722603,-23.52916,2.82961,0.111486,2.82961,0.111486,-19.999857,-20.0,2.655023,13.654201,4.598608,296.85498,282.130859,0.003796,-0.018797,16.325947,-0.001568,0.056504,0.050302,0.0,1.0,2313.697998,, takeoff
37.671951,-24.708656,-23.515211,2.833817,0.112869,2.833817,0.112869,-19.999857,-20.0,2.671143,14.074032,4.683052,296.850616,282.583923,0.005041,-0.017457,17.946234,-0.001593,0.056592,0.050655,0.0,1.0,2315.239502,, takeoff
38.536743,-24.687889,-23.494444,2.840203,0.115195,2.840203,0.115195,-19.999857,-20.0,2.694868,14.685015,4.803337,296.843079,283.281219,0.00666,-0.015958,16.019821,-0.001612,0.056676,0.050873,0.0,1.0,2317.458252,, takeoff
39.135342,-24.672949,-23.479504,2.850794,0.117374,2.850794,0.117374,-19.999857,-20.0,2.712716,15.113627,5.378665,296.835571,283.789215,0.007382,-0.015402,10.630288,-0.001646,0.056804,0.05125,0.0,1.0,2318.998291,, takeoff
39.971012,-24.651001,-23.457556,2.858637,0.121956,2.858637,0.121956,-19.999857,-20.0,2.739204,15.719408,5.517406,296.820435,284.52179,0.007206,-0.015417,16.698853,-0.001677,0.057016,0.051625,0.0,1.0,2321.152832,, takeoff
40.566635,-24.634598,-23.441154,2.862752,0.124637,2.862752,0.124637,-19.999857,-20.0,2.758517,16.156067,5.603591,296.805847,285.053345,0.006088,-0.016038,19.762897,-0.001742,0.057173,0.052382,0.0,1.0,2322.691162,, takeoff
41.422462,-24.610064,-23.416618,2.868578,0.128603,2.868578,0.128603,-19.999857,-20.0,2.786862,16.790438,5.731915,296.780487,285.819672,0.003618,-0.017479,20.631355,-0.001781,0.057255,0.053111,0.0,1.0,2324.905273,, takeoff
41.991646,-24.593145,-23.3997,2.872696,0.131251,2.872696,0.131251,-19.999857,-20.0,2.806118,17.216892,5.818602,296.761841,286.324951,0.001577,-0.018589,21.165215,-0.001818,0.057332,0.053935,0.0,1.0,2326.380615,, takeoff
42.819633,-24.567759,-23.374313,2.878955,0.134921,2.878955,0.134921,-19.999857,-20.0,2.834722,17.843695,5.945753,296.733276,287.044373,-0.001357,-0.020221,14.707856,-0.001875,0.057454,0.055312,0.0,1.0,2328.53125,, takeoff
43.409035,-24.549086,-23.35564,2.889774,0.144101,2.889774,0.144101,-19.999857,-20.0,2.856396,18.294842,6.536222,296.71344,287.539948,-0.003273,-0.020954,12.667649,-0.001927,0.057579,0.05674,0.0,1.0,2330.077393,, takeoff
44.230343,-24.521669,-23.328224,2.900887,0.150775,2.900887,0.150775,-19.999857,-20.0,2.890127,18.93104,6.997999,296.688599,288.199829,-0.005986,-0.021602,15.324415,-0.002059,0.057795,0.057732,0.0,1.0,2333.217529,, takeoff
44.792168,-24.501923,-23.308479,2.904768,0.152617,2.904768,0.152617,-19.999857,-20.0,2.913604,19.370281,7.086261,296.674286,288.625061,-0.007251,-0.021607,18.901217,-0.002154,0.058018,0.058974,0.0,1.0,2336.039063,, takeoff
45.657154,-24.470255,-23.27681,2.910608,0.154619,2.910608,0.154619,-19.999857,-20.0,2.950398,20.052044,7.2316,296.657867,289.230408,-0.007727,-0.020739,19.468792,-0.00218,0.058095,0.059689,0.0,1.0,2341.021729,, takeoff
46.194103,-24.449862,-23.256416,2.914732,0.155636,2.914732,0.155636,-19.999857,-20.0,2.973655,20.478573,7.325021,296.650543,289.572876,-0.007297,-0.019831,16.741051,-0.002209,0.058212,0.06051,0.0,1.0,2344.364014,, takeoff
47.033844,-24.417007,-23.223564,2.921229,0.156866,2.921229,0.156866,-19.999857,-20.0,3.010657,21.150257,7.472236,296.642426,290.052521,-0.005567,-0.018059,17.440311,-0.002223,0.058295,0.060876,0.0,1.0,2349.818604,, takeoff
47.593243,-24.394516,-23.201071,2.925723,0.157724,2.925723,0.157724,-19.999857,-20.0,3.035736,21.600735,7.570815,296.63797,290.332031,-0.004052,-0.01689,17.872189,-0.002241,0.058425,0.061282,0.0,1.0,2353.551758,, takeoff
48.455154,-24.358995,-23.16555,2.93238,0.159204,2.93238,0.159204,-19.999857,-20.0,3.075039,22.299303,7.722251,296.630188,290.697205,-0.001481,-0.015458,21.724756,-0.002253,0.058514,0.061505,0.0,1.0,2359.397461,, takeoff
49.013973,-24.335421,-23.141977,2.936771,0.160419,2.936771,0.160419,-19.999857,-20.0,3.100951,22.755011,7.820361,296.623169,290.890472,-2.89E-4,-0.014961,22.100929,-0.002274,0.058648,0.061894,0.0,1.0,2363.227295,, takeoff
49.85191,-24.299328,-23.105883,2.943036,0.162582,2.943036,0.162582,-19.999857,-20.0,3.140432,23.442261,7.968279,296.608521,291.115356,6.18E-4,-0.014944,20.731133,-0.002292,0.058735,0.062245,0.0,1.0,2369.007324,, takeoff
50.387089,-24.275837,-23.082392,2.946618,0.164587,2.946618,0.164587,-19.999857,-20.0,3.165978,23.883596,7.998292,296.596405,291.218262,6.89E-4,-0.01535,14.129161,-0.002312,0.058819,0.062705,0.0,1.0,2372.71582,, takeoff
51.224678,-24.238459,-23.045013,2.952076,0.16816,2.952076,0.16816,-19.999857,-20.0,3.206151,24.577818,8.101762,296.57309,291.316376,-4.17E-4,-0.016583,19.270721,-0.002351,0.058932,0.063583,0.0,1.0,2378.538574,, takeoff
51.782818,-24.213154,-23.019711,2.956323,0.170041,2.956323,0.170041,-19.999857,-20.0,3.23333,25.042902,8.201345,296.555359,291.340057,-0.001727,-0.017655,19.528725,-0.002402,0.059042,0.064749,0.0,1.0,2382.429932,, takeoff
52.619385,-24.174616,-22.981173,2.965739,0.171009,2.965739,0.171009,-19.999857,-20.0,3.275232,25.743824,8.808529,296.528381,291.315277,-0.004113,-0.019149,19.216379,-0.002429,0.059126,0.065636,0.0,1.0,2388.278809,, takeoff
53.17601,-24.148325,-22.95488,2.971725,0.172277,2.971725,0.172277,-19.999857,-20.0,3.304775,26.213238,8.908113,296.510956,291.260315,-0.005599,-0.019909,15.199987,-0.002443,0.059315,0.066985,0.0,1.0,2392.184082,, takeoff
54.009666,-24.107689,-22.914246,2.985899,0.173317,2.985899,0.173317,-19.999857,-20.0,3.352094,26.920452,9.949471,296.488434,291.123688,-0.007614,-0.020348,20.318253,-0.002461,0.059434,0.067856,0.0,1.0,2398.049316,, takeoff
54.564392,-24.079447,-22.886003,2.990857,0.174472,2.990857,0.174472,-19.999857,-20.0,3.385424,27.393921,10.044935,296.476074,290.99881,-0.008004,-0.020179,22.456995,-0.002476,0.059718,0.068982,0.0,1.0,2401.962891,, takeoff
55.419067,-24.034235,-22.840792,2.996162,0.175454,2.996162,0.175454,-19.999857,-20.0,3.437456,28.126877,10.204309,296.462067,290.758362,-0.007294,-0.019171,14.412227,-0.002492,0.059817,0.0696,0.0,1.0,2408.002197,, takeoff
55.972965,-24.003939,-22.810495,3.000041,0.175894,3.000041,0.175894,-19.999857,-20.0,3.471662,28.604214,10.315014,296.455566,290.574371,-0.006149,-0.018208,19.035109,-0.002506,0.059923,0.0703,0.0,1.0,2411.923584,, takeoff
56.779919,-23.95859,-22.765144,3.00813,0.17879,3.00813,0.17879,-19.999857,-20.0,3.522599,29.302925,10.812799,296.448669,290.27179,-0.003525,-0.016495,14.40123,-0.002513,0.060001,0.070625,0.0,1.0,2417.647705,, takeoff
57.355034,-23.925198,-22.731754,3.015601,0.181921,3.015601,0.181921,-19.999857,-20.0,3.561148,29.803829,11.168997,296.444214,290.03418,-0.001691,-0.015378,20.18162,-0.002554,0.060163,0.07097,0.0,1.0,2421.739746,, takeoff
58.18317,-23.875534,-22.682089,3.021161,0.182287,3.021161,0.182287,-19.999857,-20.0,3.617412,30.527708,11.333463,296.436249,289.666473,0.001382,-0.014282,20.752937,-0.002599,0.060312,0.071193,0.0,1.0,2427.637451,, takeoff
58.711369,-23.842892,-22.649446,3.024629,0.18254,3.024629,0.18254,-19.999857,-20.0,3.653799,30.991732,11.44343,296.429291,289.419006,0.002932,-0.013967,16.224297,-0.002604,0.060423,0.071591,0.0,1.0,2431.409424,, takeoff
59.561119,-23.789135,-22.59569,3.030185,0.182943,3.030185,0.182943,-19.999857,-20.0,3.713079,31.740646,11.623806,296.414429,289.006317,0.005423,-0.014093,21.93745,-0.002608,0.060493,0.071939,0.0,1.0,2437.484375,, takeoff
60.088043,-23.754848,-22.561405,3.043814,0.183175,3.043814,0.183175,-19.999857,-20.0,3.753136,32.207653,12.987565,296.402954,288.743805,0.005792,-0.014514,17.449541,-0.002613,0.060604,0.072682,0.0,1.0,2441.264893,, takeoff
60.911621,-23.698978,-22.505535,3.050514,0.183261,3.050514,0.183261,-19.999857,-20.0,3.818475,32.940781,13.145399,296.382446,288.32901,0.007033,-0.015485,18.542627,-0.002617,0.060876,0.073256,0.0,1.0,2447.193848,, takeoff
61.460526,-23.660398,-22.466955,3.0535,0.183253,3.0535,0.183253,-19.999857,-20.0,3.862498,33.430954,13.264678,296.367767,288.052765,0.007588,-0.016209,23.836626,-0.002618,0.06101,0.074281,0.0,1.0,2451.197021,, takeoff
62.283401,-23.600828,-22.407383,3.058288,0.182929,3.058288,0.182929,-19.999857,-20.0,3.9293,34.168274,13.453161,296.346832,287.64389,0.008352,-0.016973,15.684429,-0.002618,0.06107,0.075015,0.0,1.0,2457.270508,, takeoff
62.831593,-23.560108,-22.366665,3.061904,0.182576,3.061904,0.182576,-19.999857,-20.0,3.974369,34.661148,13.583058,296.334351,287.377655,0.009006,-0.017189,23.445988,-0.002613,0.061166,0.076062,0.0,1.0,2461.350098,, takeoff
63.65321,-23.49769,-22.304245,3.067237,0.181599,3.067237,0.181599,-19.999857,-20.0,4.042782,35.402393,13.777403,296.319702,286.992279,0.010632,-0.016834,18.182196,-0.002608,0.061238,0.076686,0.0,1.0,2467.5,, takeoff
64.200455,-23.455273,-22.261827,3.07092,0.180779,3.07092,0.180779,-19.999857,-20.0,4.088934,35.897804,13.908037,296.312622,286.746979,0.012257,-0.016205,22.590548,-0.002594,0.061345,0.077419,0.0,1.0,2471.614014,, fly_strait
65.023262,-23.390469,-22.197023,3.07711,0.198133,3.07711,0.198133,-19.999857,-20.0,4.159591,36.642735,14.480553,296.233368,286.400055,0.010544,-0.027923,19.931627,-0.002583,0.061418,0.0,0.0,1.0,2477.803223,, fly_strait
65.577682,-23.346304,-22.152861,3.081775,0.205253,3.081775,0.205253,-19.999857,-20.0,4.208863,37.14056,14.87517,295.997314,286.183868,-9.37E-4,-0.064381,22.754757,-0.00283,0.061542,0.003963,0.0,1.0,2481.952148,, fly_strait
66.418083,-23.278473,-22.085028,3.079789,0.191478,3.079789,0.191478,-19.999857,-20.0,4.283695,37.890022,15.058259,295.428986,285.880554,-0.039001,-0.145463,23.239878,-0.002932,0.061636,0.015765,0.0,1.0,2488.230225,, fly_strait
66.981956,-23.232285,-22.038841,3.078236,0.175833,3.078236,0.175833,-19.999857,-20.0,4.334137,38.392448,15.203799,294.978241,285.689789,-0.077052,-0.203648,23.57106,-0.002735,0.061596,0.044182,0.0,1.0,2492.454346,, fly_strait
67.830765,-23.161701,-21.968256,3.078902,0.144721,3.078902,0.144721,-19.999857,-20.0,4.410781,39.148083,15.45214,294.371429,285.415649,-0.139942,-0.268217,24.035498,-0.002512,0.061565,0.066719,0.0,1.0,2498.842529,, fly_strait
68.394684,-23.114027,-21.920584,3.08341,0.12569,3.08341,0.12569,-19.999857,-20.0,4.462601,39.653168,15.63322,294.087311,285.238373,-0.176584,-0.286453,23.851238,-0.002067,0.061578,0.09706,0.0,1.0,2503.125244,, fly_strait
69.235451,-23.04084,-21.847395,3.087395,0.085158,3.087395,0.085158,-19.999857,-20.0,4.542784,40.412601,16.647816,293.955109,284.978699,-0.211251,-0.264102,24.866653,-0.001796,0.061668,0.111266,0.0,1.0,2509.561279,, fly_strait
69.799797,-22.990831,-21.797388,3.064302,0.018327,3.064302,0.018327,-19.999857,-20.0,4.599601,40.920078,17.347414,294.078522,284.810913,-0.216337,-0.218719,18.836704,-0.001217,0.061748,0.117876,0.0,1.0,2513.864502, set /systems/pitot/serviceable false, fly_strait
70.135963,-22.913416,-21.719973,3.018942,-0.102485,3.018942,-0.102485,-19.999857,-20.0,4.68892,41.683105,18.874231,294.532196,284.729523,-0.193499,-0.117862,21.451038,-2.62E-4,0.061286,0.111705,0.0,1.0,2520.341797, set /systems/pitot/serviceable false, fly_strait
70.144737,-22.859781,-21.666338,3.006809,-0.145126,3.006809,-0.145126,-19.999857,-20.0,4.751827,42.192852,18.770361,294.945923,284.729523,-0.159273,-0.041166,22.185833,0.001464,0.060379,0.089021,0.0,1.0,2524.638672, set /systems/pitot/serviceable false, fly_strait
70.15834,-22.776649,-21.583204,3.007729,-0.157647,3.007729,-0.157647,-19.999857,-20.0,4.845326,42.958714,18.901968,295.542145,284.729523,-0.089865,0.05576,20.375731,0.002073,0.060136,0.068335,0.0,1.0,2530.996582, set /systems/pitot/serviceable false, fly_strait
70.167671,-22.719646,-21.526203,2.989601,-0.133661,2.989601,-0.133661,-19.999857,-20.0,4.911134,43.469913,20.570272,295.83252,284.729523,-0.041189,0.095769,23.047699,0.002252,0.060155,0.038524,0.0,1.0,2535.172852, set /systems/pitot/serviceable false, fly_strait
70.182243,-22.630493,-21.43705,2.87271,-0.021558,2.87271,-0.021558,-19.999857,-20.0,5.017451,44.237423,21.36624,295.971954,284.729523,0.022731,0.103126,20.605467,0.001909,0.059792,0.024005,0.0,1.0,2541.393066, set /systems/pitot/serviceable false, fly_strait
70.192352,-22.568684,-21.37524,2.78971,0.040666,2.78971,0.040666,-19.999857,-20.0,5.087359,44.749546,20.497988,295.848969,284.729523,0.051845,0.073168,19.397539,3.08E-4,0.057454,0.017033,0.0,1.0,2545.551025, set /systems/pitot/serviceable false, fly_strait
70.207848,-22.474056,-21.280611,2.7426,-0.020823,2.7426,-0.020823,-19.999857,-20.0,5.189585,45.51857,20.947706,295.401794,284.729523,0.070802,-0.010288,19.788809,-5.81E-4,0.055794,0.023183,0.0,1.0,2551.844727, set /systems/pitot/serviceable false, fly_strait
70.218369,-22.409716,-21.21627,2.706694,-0.216683,2.706694,-0.216683,-19.999857,-20.0,5.261603,46.031933,22.174667,295.010193,284.729523,0.068318,-0.076568,20.187155,2.97E-4,0.054852,0.045541,0.0,1.0,2556.08667, set /systems/pitot/serviceable false, fly_strait
70.234665,-22.310007,-21.116564,2.639879,-0.742716,2.639879,-0.742716,-19.999857,-20.0,5.378929,46.803211,25.127914,294.492798,284.729523,0.04809,-0.156666,21.13681,0.003095,0.054134,0.065121,0.0,1.0,2562.523193, set /systems/pitot/serviceable false, fly_strait
70.246071,-22.240049,-21.046606,2.646124,-1.184005,2.646124,-1.184005,-19.999857,-20.0,5.470109,47.318283,29.937014,294.282166,284.729523,0.031607,-0.183825,22.285835,0.01061,0.052798,0.090991,0.0,1.0,2566.851318, set /systems/pitot/serviceable false, fly_strait
70.264977,-22.123623,-20.930178,2.763864,-1.792875,2.763864,-1.792875,-19.999857,-20.0,5.655828,48.092041,45.888813,294.259308,284.729523,0.012141,-0.172055,26.070982,0.016914,0.052922,0.101523,0.0,1.0,2573.358887, set /systems/pitot/serviceable false, fly_strait
70.279961,-22.030766,-20.837322,2.894825,-2.070407,2.894825,-2.070407,-19.999857,-20.0,5.837175,48.608345,63.031364,294.422363,284.729523,0.009196,-0.134453,30.944025,0.025612,0.055277,0.102666,0.0,1.0,2577.668945, set /systems/pitot/serviceable false, fly_strait
70.309113,-21.849461,-20.656017,3.106622,-2.148973,3.106622,-2.148973,-19.999857,-20.0,6.232745,49.382694,95.157173,294.812286,284.729523,0.022038,-0.05549,42.766075,0.029577,0.057896,0.094513,0.0,1.0,2584.009766, set /systems/pitot/serviceable false, fly_strait
70.335014,-21.688133,-20.49469,3.2535,-1.979619,3.2535,-1.979619,-19.999857,-20.0,6.590404,49.898315,118.770729,295.073944,284.729523,0.039435,-0.004787,53.568043,0.0307,0.062132,0.075017,0.0,1.0,2588.111328, set /systems/pitot/serviceable false, fly_strait
70.386803,-21.365791,-20.172346,3.428103,-1.484005,3.428103,-1.484005,-19.999857,-20.0,7.276368,50.669903,154.199356,295.295776,284.729523,0.071854,0.039662,73.510796,0.02828,0.06507,0.061934,0.0,1.0,2594.043945, set /systems/pitot/serviceable false, fly_strait
70.431442,-21.088322,-19.894878,3.527673,-1.094469,3.527673,-1.094469,-19.999857,-20.0,7.828464,51.18259,175.98085,295.27887,284.729523,0.089847,0.040787,88.610878,0.0212,0.068562,0.050842,0.0,1.0,2597.862793, set /systems/pitot/serviceable false, fly_strait
70.515114,-20.568918,-19.375473,3.634374,-0.633768,3.634374,-0.633768,-19.999857,-20.0,8.783741,51.948479,204.307907,295.010376,284.729523,0.103944,0.00171,112.735374,0.015635,0.070553,0.051688,0.0,1.0,2603.1604, set /systems/pitot/serviceable false, fly_strait
70.582359,-20.151947,-18.958502,3.697543,-0.475188,3.697543,-0.475188,-19.999857,-20.0,9.493956,52.456772,221.02977,294.727539,284.729523,0.101979,-0.040253,129.112335,0.009054,0.072687,0.065112,0.0,1.0,2606.031982, set /systems/pitot/serviceable false, fly_strait
70.700279,-19.421064,-18.227619,3.787753,-0.522308,3.787753,-0.522308,-19.999857,-20.0,10.659469,53.215538,244.122238,294.320526,284.729523,0.083971,-0.097943,153.493683,0.006788,0.073951,0.079254,0.0,1.0,2609.624023, set /systems/pitot/serviceable false, fly_strait
70.789986,-18.864939,-17.671495,3.860144,-0.687391,3.860144,-0.687391,-19.999857,-20.0,11.498842,53.718792,258.976807,294.14566,284.729523,0.068492,-0.118872,169.435425,0.007462,0.075755,0.099605,0.0,1.0,2611.685791, set /systems/pitot/serviceable false, fly_strait
70.940681,-17.930084,-16.736639,3.977279,-0.983341,3.977279,-0.983341,-19.999857,-20.0,12.851856,54.469425,281.625183,294.131714,284.729523,0.048653,-0.108074,192.867981,0.00982,0.077203,0.108348,0.0,1.0,2614.438965, set /systems/pitot/serviceable false, fly_strait
71.051674,-17.240782,-16.047337,4.070723,-1.113543,4.070723,-1.113543,-19.999857,-20.0,13.817236,54.966698,297.115692,294.282379,284.729523,0.044568,-0.075243,208.253845,0.014048,0.079546,0.109045,0.0,1.0,2616.103516, set /systems/pitot/serviceable false, fly_strait
71.233704,-16.108534,-14.915091,4.207804,-1.071314,4.207804,-1.071314,-19.999857,-20.0,15.365016,55.707153,321.941315,294.643524,284.729523,0.054903,-0.00638,231.173065,0.015908,0.081414,0.101512,0.0,1.0,2618.397217, set /systems/pitot/serviceable false, fly_strait
71.365448,-15.287543,-14.094099,4.305254,-0.879516,4.305254,-0.879516,-9.999858,-10.0,16.470991,56.196709,341.300629,294.88855,284.729523,0.070356,0.037536,246.560944,0.015304,0.084156,0.083455,0.0,1.0,2619.810059, set /systems/pitot/serviceable false, fly_strait
71.579231,-13.952222,-12.758778,4.440915,-0.42852,4.440915,-0.42852,-9.999858,-10.0,18.259079,56.924198,373.423767,295.102081,284.729523,0.099191,0.073907,270.423828,0.012565,0.086105,0.071204,0.0,1.0,2621.785889, set /systems/pitot/serviceable false, fly_strait
71.733055,-12.988993,-11.795548,4.535007,-0.106945,4.535007,-0.106945,-9.999858,-10.0,19.5403,57.404308,393.967926,295.09845,284.729523,0.11448,0.072452,287.069336,0.006122,0.088818,0.060527,0.0,1.0,2623.0271, set /systems/pitot/serviceable false, fly_strait
71.981216,-11.43122,-10.237776,4.635292,0.225988,4.635292,0.225988,-9.999858,-10.0,21.575697,58.116886,417.995514,294.886169,284.729523,0.124894,0.035123,312.73703,0.001528,0.0907,0.060709,0.0,1.0,2624.80542, set /systems/pitot/serviceable false, fly_strait
72.157898,-10.319437,-9.125993,4.676709,0.300834,4.676709,0.300834,-9.999858,-10.0,22.989313,58.586891,429.48468,294.666077,284.729523,0.121124,-0.00179,329.684631,-0.003228,0.092706,0.071323,0.0,1.0,2625.951172, set /systems/pitot/serviceable false, fly_strait
72.438271,-8.550465,-7.35702,4.71031,0.165269,4.71031,0.165269,-9.999858,-10.0,25.176394,59.284481,444.450348,294.377472,284.729523,0.102187,-0.048309,353.89502,-0.004298,0.093534,0.082327,0.0,1.0,2627.626953, set /systems/pitot/serviceable false, fly_strait
72.634453,-7.309146,-6.115702,4.744249,-0.028022,4.744249,-0.028022,-9.999858,-10.0,26.673655,59.744671,453.582825,294.284332,284.729523,0.087468,-0.061695,368.989594,-0.002361,0.094206,0.096758,0.0,1.0,2628.720215, set /systems/pitot/serviceable false, fly_strait
72.941139,-5.362506,-4.169062,4.821765,-0.317819,4.821765,-0.317819,1.42E-4,0.0,28.979542,60.427589,468.756683,294.360504,284.729523,0.070768,-0.045249,390.056091,4.0E-4,0.094885,0.101415,0.0,1.0,2630.318359, set /systems/pitot/serviceable false, fly_strait
73.15329,-4.01139,-2.817946,4.890411,-0.430283,4.890411,-0.430283,1.42E-4,0.0,30.562035,60.877796,480.56015,294.534943,284.729523,0.068765,-0.014646,403.264404,0.00454,0.096435,0.097606,0.0,1.0,2631.343994, set /systems/pitot/serviceable false, fly_strait
73.482605,-1.906406,-0.712961,4.99117,-0.378377,4.99117,-0.378377,1.42E-4,0.0,33.015751,61.545074,500.679504,294.864563,284.729523,0.080557,0.040304,422.382507,0.006147,0.097808,0.088884,0.0,1.0,2632.811523, set /systems/pitot/serviceable false, fly_strait
73.709541,-0.413781,0.779663,5.059619,-0.213667,5.059619,-0.213667,1.42E-4,0.0,34.709248,61.984325,514.976746,295.052643,284.729523,0.094534,0.069761,434.975128,0.005405,0.099823,0.072403,0.0,1.0,2633.740723, set /systems/pitot/serviceable false, fly_strait
74.061195,1.962802,3.156246,5.139165,0.126877,5.139165,0.126877,1.42E-4,0.0,37.339451,62.634502,536.261292,295.165131,284.729523,0.117209,0.083353,453.976929,0.003052,0.101192,0.062999,0.0,1.0,2635.069092, set /systems/pitot/serviceable false, fly_strait
74.303185,3.604771,4.798215,5.185975,0.333344,5.185975,0.333344,1.42E-4,0.0,39.150253,63.062119,549.639038,295.109467,284.729523,0.126319,0.070261,466.771667,-0.001813,0.102783,0.057375,0.0,1.0,2635.922363, set /systems/pitot/serviceable false, fly_strait
74.677345,6.154057,7.347501,5.243691,0.469427,5.243691,0.469427,10.000142,10.0,41.947197,63.694904,568.231506,294.882385,284.729523,0.126385,0.027204,486.044403,-0.004762,0.10372,0.060158,0.0,1.0,2637.17334, set /systems/pitot/serviceable false, fly_strait
74.934036,7.910245,9.103689,5.285481,0.424096,5.285481,0.424096,10.000142,10.0,43.86105,64.111153,579.565063,294.700623,284.729523,0.117479,-0.005225,498.827942,-0.006706,0.104874,0.071512,0.0,1.0,2637.995605, set /systems/pitot/serviceable false, fly_strait
75.329407,10.626823,11.820269,5.347542,0.182793,5.347542,0.182793,10.000142,10.0,46.801159,64.727364,595.975647,294.521301,284.729523,0.095942,-0.036255,517.697327,-0.006059,0.10571,0.0806,0.0,1.0,2639.215576, set /systems/pitot/serviceable false, fly_strait
75.599556,12.49114,13.684585,5.397347,-0.023524,5.397347,-0.023524,10.000142,10.0,48.806969,65.13279,607.172852,294.510956,284.729523,0.083013,-0.03795,530.011169,-0.002611,0.106951,0.089566,0.0,1.0,2640.018311, set /systems/pitot/serviceable false, fly_strait
76.014221,15.365764,16.559208,5.47968,-0.251534,5.47968,-0.251534,20.000143,20.0,51.888153,65.732796,624.992249,294.670929,284.729523,0.072755,-0.010991,548.122498,3.36E-4,0.107947,0.090083,0.0,1.0,2641.197754, set /systems/pitot/serviceable false, fly_strait
76.296852,17.334072,18.527517,5.546001,-0.297961,5.546001,-0.297961,20.000143,20.0,53.993324,66.127243,637.783691,294.853912,284.729523,0.074885,0.018722,560.042725,0.003593,0.109594,0.082085,0.0,1.0,2641.958984, set /systems/pitot/serviceable false, fly_strait
76.730064,20.365437,21.55888,5.638255,-0.171634,5.638255,-0.171634,20.000143,20.0,57.234169,66.710266,658.058044,295.115265,284.729523,0.089749,0.059244,577.897278,0.004257,0.11092,0.072935,0.0,1.0,2643.052002, set /systems/pitot/serviceable false, fly_strait
77.025124,22.440056,23.633501,5.69756,-0.001218,5.69756,-0.001218,20.000143,20.0,59.451286,67.09304,671.716064,295.219421,284.729523,0.102053,0.073386,589.889038,0.002452,0.112765,0.059868,0.0,1.0,2643.746826, set /systems/pitot/serviceable false, fly_strait
77.477196,25.634176,26.827621,5.763992,0.258758,5.763992,0.258758,30.000143,30.0,62.861034,67.658249,691.264832,295.204132,284.729523,0.116883,0.064953,608.086914,1.7E-5,0.113951,0.05466,0.0,1.0,2644.748047, set /systems/pitot/serviceable false, fly_strait
77.784836,27.818596,29.012041,5.804625,0.367867,5.804625,0.367867,30.000143,30.0,65.185921,68.029144,703.094116,295.092743,284.729523,0.119185,0.042874,620.319519,-0.003697,0.11528,0.055425,0.0,1.0,2645.396729, set /systems/pitot/serviceable false, fly_strait
78.255363,31.176252,32.369698,5.856812,0.349039,5.856812,0.349039,30.000143,30.0,68.743698,68.576874,719.215271,294.865906,284.729523,0.110015,0.001126,638.631958,-0.005255,0.116093,0.060994,0.0,1.0,2646.354492, set /systems/pitot/serviceable false, fly_strait
78.574776,33.467068,34.660511,5.894917,0.22882,5.894917,0.22882,30.000143,30.0,71.158363,68.936455,729.1651,294.738892,284.729523,0.098352,-0.021364,650.689941,-0.004986,0.117136,0.072336,0.0,1.0,2646.986328, set /systems/pitot/serviceable false, fly_strait
79.061882,36.978508,38.171951,5.953074,-0.029724,5.953074,-0.029724,40.000141,40.0,74.841766,69.467651,743.735474,294.684509,284.729523,0.079178,-0.030823,668.38385,-0.003269,0.117898,0.078686,0.0,1.0,2647.923584, set /systems/pitot/serviceable false, fly_strait
79.391624,39.367855,40.561302,6.000597,-0.185509,6.000597,-0.185509,40.000141,40.0,77.337883,69.81636,753.636047,294.753113,284.729523,0.071334,-0.019478,679.875061,4.25E-4,0.119061,0.081406,0.0,1.0,2648.537598, set /systems/pitot/serviceable false, fly_strait
79.893326,43.0224,44.215843,6.074491,-0.278187,6.074491,-0.278187,40.000141,40.0,81.145851,70.331184,769.215942,294.965271,284.729523,0.070985,0.015232,696.683716,0.00265,0.120012,0.077975,0.0,1.0,2649.430908, set /systems/pitot/serviceable false, fly_strait
80.232376,45.505249,46.698692,6.128551,-0.232278,6.128551,-0.232278,50.000141,50.0,83.728539,70.668785,780.068115,295.124969,284.729523,0.077934,0.040317,707.664429,0.003974,0.12149,0.067368,0.0,1.0,2650.000977, set /systems/pitot/serviceable false, fly_strait
80.747673,49.299179,50.492622,6.19474,-0.034397,6.19474,-0.034397,50.000141,50.0,87.671181,71.166573,796.384827,295.277893,284.729523,0.094537,0.06191,723.923218,0.003318,0.122571,0.059383,0.0,1.0,2650.814453, set /systems/pitot/serviceable false, fly_strait
81.095627,51.874897,53.068344,6.233845,0.123161,6.233845,0.123161,50.000141,50.0,90.343719,71.492653,806.684448,295.287994,284.729523,0.103702,0.060467,734.667603,4.91E-4,0.123895,0.051736,0.0,1.0,2651.332275, set /systems/pitot/serviceable false, fly_strait
81.62397,55.807224,57.000668,6.275966,0.276448,6.275966,0.276448,60.000141,60.0,94.414017,71.973244,820.643982,295.166229,284.729523,0.109116,0.035436,750.628662,-0.001759,0.124677,0.051231,0.0,1.0,2652.084717, set /systems/pitot/serviceable false, fly_strait
81.980232,58.473335,59.666779,6.302402,0.287044,6.302402,0.287044,60.000141,60.0,97.163773,72.288101,828.795471,295.032837,284.729523,0.105121,0.010928,761.106628,-0.003949,0.125519,0.05732,0.0,1.0,2652.577393, set /systems/pitot/serviceable false, fly_strait
82.520149,62.535969,63.729412,6.338188,0.151003,6.338188,0.151003,60.000141,60.0,101.336937,72.752396,839.956604,294.862,284.729523,0.090132,-0.019383,776.433228,-0.004101,0.126048,0.063989,0.0,1.0,2653.310059, set /systems/pitot/serviceable false, fly_strait
82.88343,65.284515,66.477959,6.366362,0.001822,6.366362,0.001822,70.000145,70.0,104.149048,73.05674,847.041565,294.815002,284.729523,0.079053,-0.027555,786.31958,-0.002157,0.126764,0.072531,0.0,1.0,2653.794922, set /systems/pitot/serviceable false, fly_strait
83.4328,69.464088,70.657532,6.413152,-0.199731,6.413152,-0.199731,70.000145,70.0,108.411934,73.505592,857.862854,294.883636,284.729523,0.067118,-0.015913,800.594971,-2.6E-5,0.127327,0.074881,0.0,1.0,2654.512451, set /systems/pitot/serviceable false, fly_strait
83.801773,72.286842,73.480286,6.45204,-0.269489,6.45204,-0.269489,70.000145,70.0,111.284538,73.79969,865.49762,295.003052,284.729523,0.065976,0.003677,809.75592,0.002853,0.128263,0.071449,0.0,1.0,2654.97876, set /systems/pitot/serviceable false, fly_strait
84.359062,76.574188,77.767632,6.508247,-0.222207,6.508247,-0.222207,80.000145,80.0,115.642944,74.233009,877.577026,295.204376,284.729523,0.074599,0.035649,823.055664,0.00385,0.129041,0.065479,0.0,1.0,2655.649414, set /systems/pitot/serviceable false, fly_strait
84.73307,79.467628,80.661072,6.545105,-0.112334,6.545105,-0.112334,80.000145,80.0,118.582336,74.516594,885.769653,295.301971,284.729523,0.08383,0.049928,831.69812,0.003174,0.130165,0.055412,0.0,1.0,2656.074463, set /systems/pitot/serviceable false, fly_strait
85.297707,83.860428,85.053871,6.58427,0.086248,6.58427,0.086248,80.000145,80.0,123.041847,74.933998,897.453186,295.324402,284.729523,0.097079,0.049703,844.422974,0.001605,0.130902,0.050533,0.0,1.0,2656.68335, set /systems/pitot/serviceable false, fly_strait
85.676453,86.823616,88.017059,6.60579,0.18544,6.60579,0.18544,90.000145,90.0,126.045471,75.207039,904.358276,295.256744,284.729523,0.100692,0.03592,852.763977,-0.001232,0.131685,0.049411,0.0,1.0,2657.075684, set /systems/pitot/serviceable false, fly_strait
86.24778,91.31852,92.511963,6.629628,0.203538,6.629628,0.203538,90.000145,90.0,130.591187,75.609009,913.382446,295.089691,284.729523,0.096157,0.005108,865.010376,-0.002649,0.132116,0.052794,0.0,1.0,2657.655273, set /systems/pitot/serviceable false, fly_strait
86.630562,94.346893,95.540337,6.646331,0.130083,6.646331,0.130083,90.000145,90.0,133.64502,75.872116,918.661377,294.983582,284.729523,0.087927,-0.01357,872.942261,-0.002908,0.132593,0.061147,0.0,1.0,2658.039795, set /systems/pitot/serviceable false, fly_strait
87.207115,98.933853,100.127296,6.673328,-0.057271,6.673328,-0.057271,100.000145,100.0,138.257797,76.259712,926.197266,294.917847,284.729523,0.072713,-0.024734,884.398438,-0.001858,0.132927,0.066452,0.0,1.0,2658.615479, set /systems/pitot/serviceable false, fly_strait
87.592834,102.019707,103.213158,6.697309,-0.180832,6.697309,-0.180832,100.000145,100.0,141.353943,76.513489,931.345093,294.953735,284.729523,0.065708,-0.01863,891.714294,8.18E-4,0.133467,0.069739,0.0,1.0,2658.996338, set /systems/pitot/serviceable false, fly_strait
88.173126,106.688202,107.881645,6.737571,-0.269113,6.737571,-0.269113,110.000145,110.0,146.031784,76.887215,939.666626,295.101074,284.729523,0.063744,0.005899,902.224854,0.002583,0.133946,0.067944,0.0,1.0,2659.554443, set /systems/pitot/serviceable false, fly_strait
88.561035,109.826378,111.019821,6.76833,-0.246828,6.76833,-0.246828,110.000145,110.0,149.174255,77.131683,945.65686,295.221527,284.729523,0.068437,0.025178,908.967834,0.003844,0.134751,0.060577,0.0,1.0,2659.912354, set /systems/pitot/serviceable false, fly_strait
89.144402,114.572205,115.765648,6.805936,-0.106935,6.805936,-0.106935,110.000145,110.0,153.926315,77.49128,954.848572,295.345337,284.729523,0.081192,0.043416,918.791565,0.003526,0.135367,0.054555,0.0,1.0,2660.42334, set /systems/pitot/serviceable false, fly_strait
89.534302,117.761818,118.955261,6.827134,0.012424,6.827134,0.012424,120.000145,120.0,157.119278,77.726265,960.664246,295.360016,284.729523,0.088762,0.043807,925.199036,0.001528,0.136119,0.048364,0.0,1.0,2660.748291, set /systems/pitot/serviceable false, fly_strait
90.12056,122.584373,123.777817,6.847095,0.136045,6.847095,0.136045,120.000145,120.0,161.9431,78.071762,968.376587,295.274017,284.729523,0.094045,0.02625,934.631531,-1.77E-4,0.136543,0.04763,0.0,1.0,2661.220703, set /systems/pitot/serviceable false, fly_strait
90.51223,125.824051,127.017494,6.858195,0.150611,6.858195,0.150611,130.000137,130.0,165.178619,78.2976,972.684753,295.172729,284.729523,0.091537,0.007853,940.783508,-0.001944,0.136942,0.05193,0.0,1.0,2661.53125, set /systems/pitot/serviceable false, fly_strait
91.100708,130.718262,131.911713,6.873177,0.053973,6.873177,0.053973,130.000137,130.0,170.05687,78.62989,978.320007,295.037933,284.729523,0.080345,-0.015732,949.732849,-0.002152,0.137164,0.056995,0.0,1.0,2661.997559, set /systems/pitot/serviceable false, fly_strait
91.493469,134.00267,135.196121,6.886272,-0.05775,6.886272,-0.05775,130.000137,130.0,173.324036,78.847252,981.844727,294.997437,284.729523,0.071736,-0.02254,955.469971,-7.71E-4,0.137464,0.063734,0.0,1.0,2662.309082, set /systems/pitot/serviceable false, fly_strait
92.082993,138.959335,140.152786,6.910884,-0.211969,6.910884,-0.211969,140.000137,140.0,178.247284,79.167191,987.370728,295.043976,284.729523,0.062196,-0.01429,963.693176,8.25E-4,0.137725,0.065759,0.0,1.0,2662.774658, set /systems/pitot/serviceable false, fly_strait
92.476143,142.282867,143.476303,6.932806,-0.26636,6.932806,-0.26636,140.000137,140.0,181.545456,79.376419,991.453308,295.13269,284.729523,0.061179,5.01E-4,968.928528,0.003028,0.138218,0.063432,0.0,1.0,2663.079102, set /systems/pitot/serviceable false, fly_strait
93.065964,147.296066,148.489517,6.965306,-0.231063,6.965306,-0.231063,150.000137,150.0,186.519791,79.684082,998.160767,295.284241,284.729523,0.067861,0.024943,976.47522,0.003805,0.138656,0.058997,0.0,1.0,2663.518799, set /systems/pitot/serviceable false, fly_strait
93.459251,150.656845,151.850296,6.986363,-0.14705,6.986363,-0.14705,150.000137,150.0,189.854996,79.885048,1002.802307,295.357361,284.729523,0.075138,0.035869,981.353394,0.003301,0.139306,0.051419,0.0,1.0,2663.798096, set /systems/pitot/serviceable false, fly_strait
94.049301,155.726212,156.919662,7.007043,0.004571,7.007043,0.004571,160.000137,160.0,194.886337,80.180267,1009.383118,295.371185,284.729523,0.085603,0.035531,988.516785,0.002101,0.139727,0.047763,0.0,1.0,2664.198486, set /systems/pitot/serviceable false, fly_strait
94.442741,159.124481,160.317932,7.016995,0.079363,7.016995,0.079363,160.000137,160.0,198.257599,80.373016,1013.15564,295.316742,284.729523,0.088432,0.024809,993.20813,-6.5E-5,0.140141,0.047072,0.0,1.0,2664.45752, set /systems/pitot/serviceable false, fly_strait
95.032906,164.248886,165.442337,7.026496,0.089759,7.026496,0.089759,160.000137,160.0,203.335968,80.656273,1017.858154,295.186279,284.729523,0.084792,0.001191,1000.093628,-0.001134,0.14034,0.049794,0.0,1.0,2664.842529, set /systems/pitot/serviceable false, fly_strait
95.426224,167.682129,168.875565,7.033323,0.031106,7.033323,0.031106,170.000137,170.0,206.733444,80.841362,1020.494385,295.105164,284.729523,0.078326,-0.012831,1004.548218,-0.001282,0.14053,0.056317,0.0,1.0,2665.099854, set /systems/pitot/serviceable false, fly_strait
96.015785,172.855331,174.048782,7.046411,-0.113359,7.046411,-0.113359,170.000137,170.0,211.845596,81.113571,1024.258545,295.058167,284.729523,0.066569,-0.020462,1010.964844,-4.44E-4,0.140666,0.060373,0.0,1.0,2665.488037, set /systems/pitot/serviceable false, fly_strait
96.408432,176.318634,177.512085,7.059633,-0.205836,7.059633,-0.205836,180.000137,180.0,215.264359,81.291504,1026.938354,295.088837,284.729523,0.061381,-0.015049,1015.046936,0.001619,0.140928,0.062723,0.0,1.0,2665.746338, set /systems/pitot/serviceable false, fly_strait
96.996674,181.534149,182.7276,7.083474,-0.265876,7.083474,-0.265876,180.000137,180.0,220.410522,81.553101,1031.500977,295.204376,284.729523,0.06048,0.004452,1020.889343,0.002941,0.141193,0.061189,0.0,1.0,2666.126221, set /systems/pitot/serviceable false, fly_strait
97.388329,185.024628,186.218079,7.101916,-0.24263,7.101916,-0.24263,180.000137,180.0,223.854691,81.723923,1034.918579,295.29538,284.729523,0.06454,0.019166,1024.62793,0.003798,0.141669,0.055412,0.0,1.0,2666.370605, set /systems/pitot/serviceable false, fly_strait
97.975082,190.280777,191.474213,7.123859,-0.129151,7.123859,-0.129151,190.000137,190.0,229.042892,81.974754,1040.177124,295.382843,284.729523,0.074799,0.032142,1030.073853,0.003466,0.142038,0.050862,0.0,1.0,2666.719727, set /systems/pitot/serviceable false, fly_strait
98.365799,193.798676,194.992111,7.135395,-0.037321,7.135395,-0.037321,190.000137,190.0,232.515884,82.13839,1043.457275,295.38681,284.729523,0.080595,0.031415,1033.631104,0.001845,0.142477,0.046489,0.0,1.0,2666.942383, set /systems/pitot/serviceable false, fly_strait
98.95118,199.0961,200.289536,7.144283,0.050819,7.144283,0.050819,200.000137,200.0,237.744415,82.378571,1047.639404,295.311279,284.729523,0.084127,0.016699,1038.878296,5.33E-4,0.142708,0.046291,0.0,1.0,2667.267334, set /systems/pitot/serviceable false, fly_strait
99.340935,202.640961,203.834412,7.148259,0.054773,7.148259,0.054773,200.000137,200.0,241.240433,82.535316,1049.8302,295.230652,284.729523,0.081724,0.002354,1042.304443,-7.26E-4,0.142886,0.050067,0.0,1.0,2667.482178, set /systems/pitot/serviceable false, fly_strait
99.924675,207.976654,209.170105,7.15367,-0.028767,7.15367,-0.028767,210.000137,210.0,246.496902,82.765602,1052.59729,295.130493,284.729523,0.072577,-0.014802,1047.283203,-7.82E-4,0.142965,0.054099,0.0,1.0,2667.806641, set /systems/pitot/serviceable false, fly_strait
100.313133,211.545059,212.738495,7.15969,-0.11684,7.15969,-0.11684,210.000137,210.0,250.008545,82.916016,1054.327271,295.105682,284.729523,0.065981,-0.018757,1050.46521,4.11E-4,0.143073,0.059106,0.0,1.0,2668.024902, set /systems/pitot/serviceable false, fly_strait
100.89463,216.913071,218.106522,7.173729,-0.229543,7.173729,-0.229543,220.000137,220.0,255.287354,83.137077,1057.202271,295.151733,284.729523,0.059315,-0.010448,1055.005859,0.001669,0.143194,0.060347,0.0,1.0,2668.352295, set /systems/pitot/serviceable false, fly_strait
101.281456,220.501511,221.694962,7.187111,-0.262848,7.187111,-0.262848,220.000137,220.0,258.815216,83.28141,1059.488037,295.223999,284.729523,0.059229,0.00171,1057.884766,0.003279,0.143475,0.058044,0.0,1.0,2668.56665, set /systems/pitot/serviceable false, fly_strait
101.860413,225.898651,227.092102,7.206777,-0.221825,7.206777,-0.221825,230.000137,230.0,264.122559,83.493309,1063.38855,295.338074,284.729523,0.065381,0.020201,1062.028076,0.003755,0.143742,0.054431,0.0,1.0,2668.876465, set /systems/pitot/serviceable false, fly_strait
102.245567,229.506607,230.700043,7.218858,-0.150996,7.218858,-0.150996,230.000137,230.0,267.671875,83.631477,1066.101929,295.387115,284.729523,0.071287,0.027494,1064.710083,0.003169,0.144136,0.048727,0.0,1.0,2669.073486, set /systems/pitot/serviceable false, fly_strait
102.822144,234.933701,236.127151,7.229106,-0.035082,7.229106,-0.035082,230.000137,230.0,273.012299,83.834129,1069.840942,295.383362,284.729523,0.079057,0.025026,1068.663208,0.002157,0.144377,0.046275,0.0,1.0,2669.357422, set /systems/pitot/serviceable false, fly_strait
103.205765,238.56189,239.755341,7.232927,0.015836,7.232927,0.015836,240.000137,240.0,276.582031,83.966225,1071.860229,295.333221,284.729523,0.080659,0.015588,1071.262085,5.01E-4,0.144582,0.046463,0.0,1.0,2669.542236, set /systems/pitot/serviceable false, fly_strait
103.779999,244.018661,245.212112,7.235387,0.009297,7.235387,0.009297,240.000137,240.0,281.947693,84.16008,1074.200073,295.22876,284.729523,0.076798,-0.002907,1075.082153,-2.26E-4,0.144659,0.04897,0.0,1.0,2669.819092, set /systems/pitot/serviceable false, fly_strait
104.161957,247.665451,248.858902,7.237496,-0.044256,7.237496,-0.044256,250.000137,250.0,285.530518,84.286575,1075.429932,295.170105,284.729523,0.071405,-0.012834,1077.549683,-1.33E-4,0.144708,0.054193,0.0,1.0,2670.005615, set /systems/pitot/serviceable false, fly_strait
104.733482,253.147644,254.34108,7.243993,-0.158796,7.243993,-0.158796,250.000137,250.0,290.912231,84.472374,1077.223511,295.146271,284.729523,0.06247,-0.016351,1081.086792,6.32E-4,0.14475,0.057126,0.0,1.0,2670.288818, set /systems/pitot/serviceable false, fly_strait
105.113487,256.809723,258.003174,7.251892,-0.225194,7.251892,-0.225194,260.000153,260.0,294.505341,84.593651,1078.621948,295.178802,284.729523,0.059056,-0.010574,1083.322876,0.002269,0.14488,0.058318,0.0,1.0,2670.478027, set /systems/pitot/serviceable false, fly_strait
105.681938,262.313202,263.506653,7.266894,-0.256395,7.266894,-0.256395,260.000153,260.0,299.904846,84.771698,1081.200073,295.274506,284.729523,0.059653,0.005644,1086.506348,0.003217,0.145038,0.056691,0.0,1.0,2670.756592, set /systems/pitot/serviceable false, fly_strait
106.059875,265.989075,267.182526,7.278223,-0.227572,7.278223,-0.227572,270.000153,270.0,303.512268,84.887779,1083.217041,295.342468,284.729523,0.063484,0.016647,1088.539185,0.003663,0.145338,0.051906,0.0,1.0,2670.936035, set /systems/pitot/serviceable false, fly_strait
106.625298,271.513611,272.707062,7.290301,-0.131097,7.290301,-0.131097,270.000153,270.0,308.936432,85.057961,1086.32373,295.397644,284.729523,0.071783,0.024652,1091.507202,0.003251,0.145564,0.048508,0.0,1.0,2671.193115, set /systems/pitot/serviceable false, fly_strait
107.001297,275.20401,276.397461,7.295558,-0.061329,7.295558,-0.061329,270.000153,270.0,312.560791,85.1688,1088.175903,295.389771,284.729523,0.075943,0.022364,1093.455811,0.001873,0.145806,0.045749,0.0,1.0,2671.358154, set /systems/pitot/serviceable false, fly_strait
107.563881,280.750702,281.944153,7.297922,-0.00531,7.297922,-0.00531,280.000153,280.0,318.007629,85.331284,1090.36731,295.319275,284.729523,0.077559,0.00922,1096.342529,8.76E-4,0.145911,0.046143,0.0,1.0,2671.601563, set /systems/pitot/serviceable false, fly_strait
107.937981,284.455536,285.648987,7.298225,-0.01333,7.298225,-0.01333,280.000153,280.0,321.644073,85.43718,1091.39917,295.254913,284.729523,0.074958,-0.002002,1098.22998,7.6E-5,0.145958,0.049667,0.0,1.0,2671.76416, set /systems/pitot/serviceable false, fly_strait
108.497604,290.022278,291.215698,7.299654,-0.090176,7.299654,-0.090176,290.000153,290.0,327.104279,85.59259,1092.609497,295.184906,284.729523,0.067263,-0.013699,1100.963379,1.9E-4,0.145965,0.052885,0.0,1.0,2672.011719, set /systems/pitot/serviceable false, fly_strait
108.869614,293.739044,294.932495,7.302868,-0.160196,7.302868,-0.160196,290.000153,290.0,330.74765,85.693977,1093.4104,295.175293,284.729523,0.062332,-0.014999,1102.69812,0.001288,0.145993,0.056386,0.0,1.0,2672.178955, set /systems/pitot/serviceable false, turn_+45
109.425949,299.321747,300.515167,7.313001,-0.25657,7.313001,-0.25657,300.000153,300.0,336.218414,85.842789,1094.92981,295.273468,284.729523,0.050241,0.002532,1105.15332,7.63E-4,0.146057,0.1,0.0,1.0,2672.429932, set /systems/pitot/serviceable false, turn_+45
109.7957,303.048309,304.24176,7.328595,-0.276105,7.328595,-0.276105,300.000153,300.0,339.870605,85.939743,1096.431274,295.484161,284.729523,0.049065,0.036839,1106.700806,0.001222,0.14626,0.1,0.0,1.0,2672.589844, set /systems/pitot/serviceable false, turn_+45
110.348694,308.645844,309.839294,7.36175,-0.110482,7.36175,-0.110482,310.000153,310.0,345.361481,86.081497,1100.106812,295.910065,284.729523,0.066243,0.102642,1108.94519,0.001315,0.146572,0.1,0.0,1.0,2672.799072, set /systems/pitot/serviceable false, turn_+45
110.71637,312.383636,313.577087,7.38377,0.138487,7.38377,0.138487,310.000153,310.0,349.034088,86.173332,1103.44104,296.187195,284.729523,0.08629,0.142643,1110.454102,5.26E-4,0.147235,0.1,0.0,1.0,2672.908691, set /systems/pitot/serviceable false, turn_+45
111.266678,318.002045,319.195496,7.398419,0.651026,7.398419,0.651026,320.000153,320.0,354.564667,86.306778,1108.498047,296.493011,284.729523,0.11974,0.180865,1112.862061,-6.59E-4,0.147675,0.1,0.0,1.0,2673.026611, set /systems/pitot/serviceable false, turn_+45
111.632866,321.756714,322.950165,7.399545,1.028948,7.399545,1.028948,320.000153,320.0,358.264435,86.392815,1111.141602,296.599274,284.729523,0.138921,0.188619,1114.606567,-0.0031,0.147968,0.1,0.0,1.0,2673.081787, set /systems/pitot/serviceable false, turn_+45
112.181229,327.402832,328.596252,7.392786,1.535841,7.392786,1.535841,330.000153,330.0,363.827209,86.517601,1113.559204,296.628479,284.729523,0.156779,0.177446,1117.410645,-0.0049,0.147991,0.1,0.0,1.0,2673.147949, set /systems/pitot/serviceable false, turn_+45
112.546127,331.175659,332.36911,7.386676,1.799286,7.386676,1.799286,330.000153,330.0,367.540192,86.598114,1114.07959,296.595032,284.729523,0.160396,0.161212,1119.345337,-0.007314,0.147856,0.1,0.0,1.0,2673.190918, set /systems/pitot/serviceable false, turn_+45
113.092247,336.845642,338.039093,7.378983,2.047034,7.378983,2.047034,340.000153,340.0,373.110046,86.71524,1113.685059,296.538727,284.729523,0.15533,0.136034,1122.198364,-0.008568,0.147734,0.1,0.0,1.0,2673.265137, set /systems/pitot/serviceable false, turn_+45
113.455353,340.630951,341.824402,7.373634,2.130637,7.373634,2.130637,340.000153,340.0,376.821075,86.7911,1112.919922,296.534851,284.729523,0.147891,0.125014,1123.980957,-0.009748,0.14758,0.1,0.0,1.0,2673.32373, set /systems/pitot/serviceable false, turn_+45
113.998245,346.313721,347.507172,7.366743,2.178328,7.366743,2.178328,350.000153,350.0,382.38205,86.90184,1111.50415,296.617798,284.729523,0.136012,0.12277,1126.358154,-0.010146,0.147473,0.1,0.0,1.0,2673.423828, set /systems/pitot/serviceable false, turn_+45
114.358864,350.103851,351.297272,7.362718,2.194938,7.362718,2.194938,350.000153,350.0,386.085571,86.973732,1110.649536,296.735962,284.729523,0.13034,0.130992,1127.703857,-0.010373,0.147335,0.1,0.0,1.0,2673.496338, set /systems/pitot/serviceable false, turn_+45
114.897659,355.789429,356.98288,7.359614,2.246594,7.359614,2.246594,360.000153,360.0,391.636414,87.078735,1109.82605,296.986176,284.729523,0.127578,0.153639,1129.346069,-0.010452,0.147254,0.1,0.0,1.0,2673.606934, set /systems/pitot/serviceable false, turn_+45
115.255379,359.579437,360.772888,7.358582,2.315998,7.358582,2.315998,360.000153,360.0,395.33548,87.146835,1109.662476,297.179718,284.729523,0.129623,0.171727,1130.20813,-0.010698,0.147192,0.1,0.0,1.0,2673.677734, set /systems/pitot/serviceable false, turn_+45
115.789742,365.26358,366.457031,7.357656,2.474833,7.357656,2.474833,360.000153,360.0,400.884094,87.246094,1109.844604,297.470825,284.729523,0.136726,0.196713,1131.216187,-0.011029,0.147172,0.1,0.0,1.0,2673.775146, set /systems/pitot/serviceable false, turn_+45
116.144531,369.052521,370.245972,7.356472,2.608193,7.356472,2.608193,370.000153,370.0,404.583984,87.310318,1110.088501,297.648041,284.729523,0.142536,0.209215,1131.742188,-0.011785,0.147153,0.1,0.0,1.0,2673.83374, set /systems/pitot/serviceable false, turn_+45
116.674591,374.735565,375.929016,7.3535,2.817131,7.3535,2.817131,370.000153,370.0,410.135101,87.403755,1110.295166,297.875122,284.729523,0.150148,0.219843,1132.377075,-0.01242,0.147129,0.1,0.0,1.0,2673.914307, set /systems/pitot/serviceable false, turn_+45
117.202148,380.418213,381.611664,7.34896,3.005967,7.34896,3.005967,380.000153,380.0,415.686218,87.493843,1110.074707,298.061188,284.729523,0.154348,0.222266,1132.871826,-0.013415,0.14707,0.1,0.0,1.0,2673.991455, set /systems/pitot/serviceable false, turn_+45
117.55246,384.206238,385.399689,7.345437,3.10531,7.345437,3.10531,380.000153,380.0,419.385773,87.552116,1109.646973,298.173248,284.729523,0.154868,0.221295,1133.131226,-0.014037,0.147012,0.1,0.0,1.0,2674.043945, set /systems/pitot/serviceable false, turn_+45
118.075798,389.886963,391.080414,7.339036,3.212744,7.339036,3.212744,390.000153,390.0,424.93158,87.637024,1108.636597,298.343842,284.729523,0.152962,0.219639,1133.404053,-0.014787,0.146909,0.1,0.0,1.0,2674.127197, set /systems/pitot/serviceable false, turn_+45
118.423248,393.672729,394.86618,7.334664,3.25877,7.334664,3.25877,390.000153,390.0,428.625641,87.692047,1107.818726,298.469543,284.729523,0.150681,0.22005,1133.497192,-0.015156,0.146824,0.1,0.0,1.0,2674.186279, set /systems/pitot/serviceable false, turn_+45
118.942184,399.348389,400.54184,7.327576,3.306425,7.327576,3.306425,400.000153,400.0,434.161407,87.772346,1106.516357,298.685638,284.729523,0.147307,0.224475,1133.487915,-0.015518,0.146693,0.1,0.0,1.0,2674.279785, set /systems/pitot/serviceable false, turn_+45
119.286629,403.1297,404.323151,7.323034,3.33342,7.323034,3.33342,400.000153,400.0,437.848328,87.82444,1105.685303,298.84845,284.729523,0.145779,0.229908,1133.379028,-0.015745,0.146552,0.1,0.0,1.0,2674.344971, set /systems/pitot/serviceable false, turn_+45
119.800995,408.797455,409.990906,7.31778,3.379819,7.31778,3.379819,410.000153,410.0,443.373962,87.90049,1104.648804,299.113983,284.729523,0.145164,0.240493,1133.068481,-0.015873,0.146461,0.1,0.0,1.0,2674.443848, set /systems/pitot/serviceable true, turn_+45
92.866409,412.572998,413.766449,7.314338,3.419675,7.314338,3.419675,410.000153,410.0,447.055176,87.949814,1104.111572,299.298767,284.557861,0.145848,0.248072,1132.776123,-0.016094,0.146356,0.1,0.0,1.0,2674.509766, set /systems/pitot/serviceable true, turn_+45
92.849411,418.231964,419.425385,7.309966,3.492321,7.309966,3.492321,420.000153,420.0,452.573975,88.021782,1103.45813,299.576599,284.267059,0.147948,0.258407,1132.240479,-0.016284,0.146287,0.1,0.0,1.0,2674.607422, set /systems/pitot/serviceable true, turn_+45
92.838669,422.00177,423.195221,7.306958,3.546983,7.306958,3.546983,420.000153,420.0,456.251526,88.068428,1103.077881,299.757507,284.05603,0.149607,0.263901,1131.837158,-0.01663,0.146199,0.1,0.0,1.0,2674.671631, set /systems/pitot/serviceable true, turn_+45
92.822929,427.652527,428.845947,7.302874,3.628634,7.302874,3.628634,430.000153,430.0,461.765442,88.136467,1102.498169,300.019043,283.722168,0.151719,0.269614,1131.189575,-0.01689,0.146139,0.1,0.0,1.0,2674.767334, set /systems/pitot/serviceable true, turn_+45
92.813034,431.417114,432.610565,7.299846,3.679202,7.299846,3.679202,430.000153,430.0,465.439697,88.180557,1102.068359,300.187561,283.492767,0.152598,0.271975,1130.740234,-0.017279,0.146057,0.1,0.0,1.0,2674.831055, set /systems/pitot/serviceable true, turn_+45
