airspeed_indicator_indicated_speed_kt,altimeter_indicated_altitude_ft,altimeter_pressure_alt_ft,attitude_indicator_indicated_pitch_deg,attitude_indicator_indicated_roll_deg,attitude_indicator_internal_pitch_deg,attitude_indicator_internal_roll_deg,encoder_indicated_altitude_ft,encoder_pressure_alt_ft,gps_indicated_altitude_ft,gps_indicated_ground_speed_kt,gps_indicated_vertical_speed,indicated_heading_deg,magnetic_compass_indicated_heading_deg,slip_skid_ball_indicated_slip_skid,turn_indicator_indicated_turn_rate,vertical_speed_indicator_indicated_speed_fpm,flight_aileron,flight_elevator,flight_rudder,flight_flaps,engine_throttle,engine_rpm,
Command: takeoff
24.877558,-199.853378,-198.659927,3.054566,1.307119,2.716089,0.178862,-199.999863,-200.0,18.855347,4.2E-5,-3.68E-4,297.868317,15.154576,-0.046386,-0.053233,-1666.80896,-0.0,0.0,0.0,0.0,0.0,605.620667,
24.889721,-205.037476,-203.84404,3.052319,1.299855,2.71601,0.178823,-199.999863,-200.0,18.855345,4.1E-5,-1.67E-4,297.867523,14.768172,-0.046376,-0.04836,-1668.23291,-0.0,0.0,0.0,0.0,0.0,605.613403,
24.882034,-213.372696,-212.17926,2.867828,0.688815,2.714744,0.178533,-209.999863,-210.0,18.855343,4.0E-5,-0.00201,297.866211,14.146386,-0.046472,-0.041455,-1669.969849,-0.018569,0.05432,4.0E-5,0.0,1.0,683.059326,
24.893415,-218.558472,-217.365021,2.760122,0.35487,2.706827,0.177219,-209.999863,-210.0,18.85532,6.1E-5,-0.012461,297.865295,13.764108,-0.046617,-0.037718,-1671.022949,-0.00984,0.054295,1.05E-4,0.0,1.0,792.887512,
24.884766,-226.895782,-225.702332,2.678792,0.171413,2.678792,0.171413,-219.999863,-220.0,18.855272,5.21E-4,0.006063,297.863617,13.163578,-0.044855,-0.032529,-1672.232178,-0.00507,0.054137,1.51E-4,0.0,1.0,1024.487549,
24.87517,-232.306732,-231.113281,2.645843,0.164894,2.645843,0.164894,-229.999863,-230.0,18.855259,0.002008,-0.003283,297.862274,12.787492,-0.047071,-0.029665,-1672.969971,-0.002449,0.053576,2.35E-4,0.0,1.0,1189.459839,
24.884069,-240.420807,-239.227371,2.594602,0.151526,2.594602,0.151526,-239.999863,-240.0,18.855499,0.008418,0.11593,297.860046,12.249152,-0.049014,-0.025988,-1673.777222,-0.002356,0.052917,3.02E-4,0.0,1.0,1430.706177,
24.915226,-245.608276,-244.414825,2.586121,0.141483,2.586121,0.141483,-239.999863,-240.0,18.856033,0.016626,0.218528,297.858429,11.924294,-0.048763,-0.023982,-1674.326538,-0.002165,0.051892,4.14E-4,0.0,1.0,1571.049683,
24.901934,-253.947098,-252.753662,2.59619,0.1243,2.59619,0.1243,-249.999863,-250.0,18.857653,0.039418,0.412806,297.854645,11.437863,-0.051611,-0.021373,-1674.794067,-0.002021,0.051722,4.94E-4,0.0,1.0,1764.565918,
24.944853,-259.134552,-257.941101,2.608136,0.113776,2.608136,0.113776,-259.999847,-260.0,18.85918,0.06098,0.54066,297.848694,11.160329,-0.057422,-0.020523,-1675.161377,-0.001776,0.051924,6.84E-4,0.0,1.0,1863.384766,
24.952765,-267.474854,-266.281403,2.628032,0.098384,2.628032,0.098384,-259.999847,-260.0,18.862583,0.109873,0.780358,297.834198,10.757524,-0.057681,-0.020065,-1675.440796,-0.001625,0.052163,9.81E-4,0.0,1.0,1989.745605,
25.055197,-272.661621,-271.46817,2.639317,0.090034,2.639317,0.090034,-269.999847,-270.0,18.865345,0.150085,0.942914,297.820465,10.53582,-0.052905,-0.020525,-1675.647827,-0.001405,0.052561,0.001706,0.0,1.0,2050.381592,
24.751173,-280.970276,-279.776825,2.654034,0.07887,2.654034,0.07887,-279.999847,-280.0,18.870932,0.231958,1.22676,297.792877,10.227411,-0.046963,-0.021973,-1674.49353,-0.001286,0.052786,0.002393,0.0,1.0,2124.362061,
22.530779,-285.638763,-284.445313,2.661809,0.073082,2.661809,0.073082,-279.999847,-280.0,18.875364,0.296945,1.424689,297.771545,10.059903,-0.043802,-0.023299,-1646.106079,-0.001127,0.053081,0.003772,0.0,1.0,2159.829102,
19.653412,-291.095917,-289.902466,2.670796,0.066315,2.670796,0.066315,-289.999847,-290.0,18.883278,0.412537,1.7358,297.737244,9.85714,-0.040071,-0.025349,-1549.125122,-0.001044,0.053236,0.004839,0.0,1.0,2198.975098,
17.321939,-295.130493,-293.937042,2.677778,0.06138,2.677778,0.06138,-289.999847,-290.0,18.89278,0.550189,2.058501,297.701447,9.712228,-0.037279,-0.027276,-1406.151855,-9.47E-4,0.053416,0.006554,0.0,1.0,2225.372314,
16.054577,-297.216675,-296.023254,2.681566,0.058866,2.681566,0.058866,-299.999847,-300.0,18.900026,0.654253,2.280212,297.678253,9.647146,-0.035774,-0.028271,-1292.593262,-8.77E-4,0.053556,0.008344,0.0,1.0,2237.713135,
14.562652,-299.653076,-298.459625,2.686205,0.055946,2.686205,0.055946,-299.999847,-300.0,18.912289,0.828678,2.61678,297.648102,9.595286,-0.033925,-0.02881,-1102.724854,-8.41E-4,0.053631,0.009503,0.0,1.0,2250.412109,
13.827456,-300.911652,-299.718201,2.688929,0.05438,2.688929,0.05438,-299.999847,-300.0,18.921406,0.957045,2.843716,297.631592,9.590053,-0.032811,-0.02855,-966.796387,-7.99E-4,0.053724,0.011011,0.0,1.0,2255.925537,
13.08533,-302.379608,-301.186157,2.692545,0.052472,2.692545,0.052472,-299.999847,-300.0,18.936512,1.167405,3.188826,297.614227,9.62381,-0.03113,-0.027022,-754.578369,-7.77E-4,0.053779,0.011836,0.0,1.0,2260.962402,
12.809548,-303.136536,-301.943085,2.694823,0.05139,2.694823,0.05139,-299.999847,-300.0,18.947536,1.319298,3.417269,297.60733,9.672454,-0.029973,-0.025387,-611.098938,-7.5E-4,0.053851,0.012704,0.0,1.0,2262.686768,
12.680012,-304.017212,-302.823761,2.697993,0.049979,2.697993,0.049979,-299.999847,-300.0,18.965511,1.564198,3.762413,297.604309,9.781604,-0.028148,-0.022073,-401.21875,-7.34E-4,0.053896,0.013049,0.0,1.0,2263.491455,
12.749158,-304.452728,-303.259277,2.701246,0.049204,2.701246,0.049204,-299.999847,-300.0,18.977953,1.731137,4.027836,297.606293,9.872297,-0.026898,-0.019592,-278.378265,-7.14E-4,0.05396,0.0132,0.0,1.0,2263.157227,
13.057425,-304.993713,-303.800262,2.712911,0.0396,2.712911,0.0396,-299.999847,-300.0,19.000124,2.016337,4.501671,297.614227,10.04895,-0.025778,-0.015551,-129.872223,-7.03E-4,0.054025,0.013101,0.0,1.0,2261.613281,
13.347478,-305.251068,-304.057617,2.718782,0.033692,2.718782,0.033692,-299.999847,-300.0,19.015068,2.203705,4.842996,297.621368,10.176,-0.023652,-0.012977,-85.849167,-5.66E-4,0.054258,0.012704,0.0,1.0,2260.181396,
13.931918,-305.567657,-304.374237,2.721123,0.032761,2.721123,0.032761,-299.999847,-300.0,19.040913,2.520832,5.206831,297.633575,10.404404,-0.021032,-0.009052,-56.585316,-4.81E-4,0.054376,0.012347,0.0,1.0,2257.331543,
14.351965,-305.716278,-304.522827,2.722329,0.032844,2.722329,0.032844,-299.999847,-300.0,19.057926,2.727465,5.435709,297.640747,10.559145,-0.019952,-0.006968,-44.937481,-4.68E-4,0.054422,0.011737,0.0,1.0,2255.304932,
15.092625,-305.895752,-304.702301,2.724948,0.033298,2.724948,0.033298,-299.999847,-300.0,19.08683,3.07466,5.803195,297.649292,10.824419,-0.018924,-0.004478,-30.697618,-4.69E-4,0.054447,0.011378,0.0,1.0,2252.654297,
15.58402,-305.977783,-304.784332,2.726937,0.03385,2.726937,0.03385,-299.999847,-300.0,19.105753,3.299417,6.032442,297.652405,10.997229,-0.018634,-0.003459,-23.959299,-4.76E-4,0.054499,0.010951,0.0,1.0,2252.168945,
16.409678,-306.073059,-304.879608,2.730484,0.03499,2.730484,0.03499,-299.999847,-300.0,19.137728,3.674903,6.401368,297.653046,11.283695,-0.018768,-0.00269,-18.339079,-4.84E-4,0.054539,0.010796,0.0,1.0,2252.597168,
16.940887,-306.114014,-304.920563,2.73295,0.035731,2.73295,0.035731,-299.999847,-300.0,19.15856,3.916749,6.62961,297.650909,11.464791,-0.019175,-0.002663,-23.392298,-5.0E-4,0.05461,0.010764,0.0,1.0,2253.347412,
17.813528,-306.157104,-304.963654,2.737148,0.036888,2.737148,0.036888,-299.999847,-300.0,19.193607,4.318989,6.997598,297.644318,11.756858,-0.020118,-0.003106,-12.755291,-5.1E-4,0.054659,0.01087,0.0,1.0,2255.014648,
18.389959,-306.172974,-304.979523,2.740107,0.037552,2.740107,0.037552,-299.999847,-300.0,19.217358,4.588384,7.238368,297.638702,11.944528,-0.020838,-0.003566,-9.853374,-5.27E-4,0.054743,0.0112,0.0,1.0,2256.286865,
19.265327,-306.18277,-304.989319,2.744703,0.038337,2.744703,0.038337,-299.999847,-300.0,19.254478,5.004646,7.60046,297.630127,12.219764,-0.021851,-0.004178,-18.261322,-5.36E-4,0.054802,0.011481,0.0,1.0,2258.355469,
19.829632,-306.181854,-304.988434,2.747838,0.038704,2.747838,0.038704,-299.999847,-300.0,19.279139,5.278058,7.829205,297.625305,12.389854,-0.022361,-0.004419,11.412275,-5.48E-4,0.054894,0.011909,0.0,1.0,2259.738525,
20.743296,-306.171051,-304.977631,2.753001,0.039,2.753001,0.039,-299.999847,-300.0,19.320345,5.729775,8.198533,297.620148,12.65095,-0.022724,-0.004342,12.282244,-5.53E-4,0.054957,0.012151,0.0,1.0,2262.018066,
21.31418,-306.159576,-304.966125,2.756393,0.039049,2.756393,0.039049,-299.999847,-300.0,19.346916,6.017785,8.427747,297.618927,12.803981,-0.022658,-0.003994,16.056644,-5.57E-4,0.05506,0.012408,0.0,1.0,2263.454346,
22.235409,-306.134796,-304.941345,2.759537,0.038969,2.759537,0.038969,-299.999847,-300.0,19.391045,6.492387,8.600118,297.620392,13.032838,-0.022124,-0.002957,16.538309,-5.58E-4,0.055128,0.01247,0.0,1.0,2265.779541,
22.811693,-306.116302,-304.922852,2.738363,0.038969,2.738363,0.038969,-299.999847,-300.0,19.417282,6.794271,7.771492,297.623535,13.163238,-0.021454,-0.002038,13.743903,-5.57E-4,0.055191,0.012396,0.0,1.0,2267.229736,
23.742165,-306.083282,-304.889832,2.740593,0.038732,2.740593,0.038732,-299.999847,-300.0,19.458216,7.290691,8.140719,297.631012,13.352195,-0.020222,-3.84E-4,17.357889,-5.57E-4,0.054767,0.012239,0.0,1.0,2269.566895,
24.346001,-306.060089,-304.866638,2.746581,0.038702,2.746581,0.038702,-299.999847,-300.0,19.485729,7.619632,8.355999,297.63623,13.460313,-0.019412,6.09E-4,18.589355,-5.53E-4,0.054812,0.011865,0.0,1.0,2271.083984,
25.227133,-306.024048,-304.830597,2.757917,0.03886,2.757917,0.03886,-299.999847,-300.0,19.527328,8.108852,9.117264,297.642517,13.596788,-0.018782,0.001664,17.419313,-5.53E-4,0.054932,0.011604,0.0,1.0,2273.296631,
25.85408,-305.996674,-304.803223,2.770847,0.03411,2.770847,0.03411,-299.999847,-300.0,19.559502,8.465025,9.455373,297.645264,13.678565,-0.018599,0.001946,15.233323,-5.55E-4,0.055158,0.01129,0.0,1.0,2274.876709,
26.732244,-305.955902,-304.762451,2.776689,0.034921,2.776689,0.034921,-299.999847,-300.0,19.60622,8.972814,9.760154,297.646027,13.77094,-0.018275,0.001973,20.455656,-4.87E-4,0.055417,0.011153,0.0,1.0,2277.087891,
27.359627,-305.925232,-304.731781,2.780154,0.035796,2.780154,0.035796,-299.999847,-300.0,19.640518,9.341887,9.986688,297.644348,13.821107,-0.018607,0.001645,19.936079,-4.99E-4,0.055534,0.011115,0.0,1.0,2278.666992,
28.238781,-305.880341,-304.68689,2.769887,0.038042,2.769887,0.038042,-299.999847,-300.0,19.688704,9.867259,9.117867,297.639404,13.869391,-0.019111,8.78E-4,19.244156,-5.11E-4,0.055603,0.011198,0.0,1.0,2280.87793,
29.170319,-305.831635,-304.638184,2.767215,0.039101,2.767215,0.039101,-299.999847,-300.0,19.736025,10.433378,9.374615,297.632599,13.893091,-0.020727,-9.7E-5,14.429431,-5.43E-4,0.055398,0.011446,0.0,1.0,2283.217773,
29.774004,-305.799652,-304.606201,2.772582,0.03957,2.772582,0.03957,-299.999847,-300.0,19.767643,10.806321,9.584569,297.627777,13.89391,-0.021693,-7.08E-4,14.674931,-5.59E-4,0.055344,0.011786,0.0,1.0,2284.737061,
30.678419,-305.750854,-304.557404,2.780598,0.040231,2.780598,0.040231,-299.999847,-300.0,19.816339,11.373941,9.884157,297.621552,13.874727,-0.02285,-0.001355,15.090685,-5.65E-4,0.055452,0.012027,0.0,1.0,2287.017822,
31.280432,-305.717743,-304.524323,2.789732,0.039877,2.789732,0.039877,-299.999847,-300.0,19.849947,11.757681,10.563391,297.6185,13.84908,-0.023677,-0.001591,15.436145,-5.75E-4,0.055612,0.012338,0.0,1.0,2288.539551,
32.180271,-305.666626,-304.473175,2.805635,0.033267,2.805635,0.033267,-299.999847,-300.0,19.904652,12.341018,11.136509,297.616425,13.79293,-0.023485,-0.001599,16.296192,-5.7E-4,0.055795,0.012491,0.0,1.0,2290.823242,
32.77948,-305.631348,-304.437927,2.809885,0.033135,2.809885,0.033135,-299.999847,-300.0,19.942116,12.734921,11.333599,297.616974,13.744802,-0.022914,-0.001209,16.892588,-4.75E-4,0.056113,0.012595,0.0,1.0,2292.346436,
33.677608,-305.576813,-304.383392,2.812311,0.033095,2.812311,0.033095,-299.999847,-300.0,19.999363,13.333062,11.378417,297.620514,13.658426,-0.021741,-2.73E-4,17.692249,-4.73E-4,0.056198,0.012567,0.0,1.0,2294.632324,
34.278263,-305.539764,-304.346313,2.796501,0.036457,2.796501,0.036457,-299.999847,-300.0,20.034191,13.736571,10.255898,297.624573,13.592512,-0.020906,6.21E-4,17.827991,-4.73E-4,0.056246,0.01239,0.0,1.0,2296.157715,
35.178734,-305.484253,-304.290802,2.801504,0.036615,2.801504,0.036615,-299.999847,-300.0,20.086281,14.348769,10.56433,297.6315,13.483056,-0.019443,0.001804,17.811346,-5.21E-4,0.05593,0.012187,0.0,1.0,2298.449219,
35.77776,-305.447144,-304.253723,2.807582,0.036781,2.807582,0.036781,-299.999847,-300.0,20.121861,14.761397,10.793745,297.635742,13.404252,-0.01854,0.002432,17.919132,-5.23E-4,0.05603,0.011841,0.0,1.0,2299.978516,
36.67289,-305.390717,-304.197266,2.828172,0.029825,2.828172,0.029825,-299.999847,-300.0,20.179739,15.386851,11.894324,297.639648,13.279469,-0.017835,0.002699,18.46286,-5.25E-4,0.056152,0.011629,0.0,1.0,2302.273926,
37.268291,-305.352173,-304.158722,2.833265,0.030186,2.833265,0.030186,-299.999847,-300.0,20.219698,15.808031,12.074064,297.640411,13.193208,-0.01738,0.002682,18.964025,-4.26E-4,0.056563,0.011433,0.0,1.0,2303.804932,
38.160347,-305.292938,-304.099487,2.838767,0.03137,2.838767,0.03137,-299.999847,-300.0,20.280788,16.445911,12.354929,297.638458,13.06118,-0.017569,0.002188,18.233816,-4.31E-4,0.056665,0.011395,0.0,1.0,2306.102051,
38.729462,-305.254272,-304.060822,2.842437,0.032324,2.842437,0.032324,-299.999847,-300.0,20.320518,16.857176,12.486335,297.635437,12.976166,-0.018213,0.00164,18.479473,-4.48E-4,0.056775,0.011493,0.0,1.0,2307.570557,
39.645931,-305.191223,-303.997772,2.832901,0.034032,2.832901,0.034032,-299.999847,-300.0,20.380716,17.5247,11.641263,297.629059,12.840047,-0.01963,6.45E-4,19.296738,-4.62E-4,0.056849,0.011644,0.0,1.0,2309.934082,
40.215034,-305.151978,-303.958527,2.836692,0.034966,2.836692,0.034966,-299.999847,-300.0,20.418205,17.943233,12.107629,297.624634,12.756692,-0.020711,2.7E-5,21.943369,-4.86E-4,0.056658,0.011963,0.0,1.0,2311.404785,
41.128128,-305.08844,-303.894989,2.845717,0.036224,2.845717,0.036224,-299.999847,-300.0,20.47978,18.622091,12.123908,297.618073,12.626195,-0.022215,-7.54E-4,23.523224,-5.0E-4,0.056734,0.012184,0.0,1.0,2313.771729,
41.694908,-305.048645,-303.855194,2.850902,0.036861,2.850902,0.036861,-299.999847,-300.0,20.518791,19.047443,12.293432,297.614868,12.548099,-0.022991,-0.001043,18.870403,-5.17E-4,0.056914,0.012512,0.0,1.0,2315.243652,
42.604088,-304.983887,-303.790436,2.858942,0.037155,2.858942,0.037155,-299.999847,-300.0,20.582783,19.73691,12.695352,297.612305,12.428708,-0.023681,-0.001068,19.290628,-5.27E-4,0.057018,0.012672,0.0,1.0,2317.612061,
43.16943,-304.943237,-303.749817,2.852657,0.03523,2.852657,0.03523,-299.999847,-300.0,20.621311,20.168642,11.74738,297.612518,12.359055,-0.023566,-8.28E-4,18.142036,-5.31E-4,0.057179,0.012801,0.0,1.0,2319.084961,
44.07719,-304.87796,-303.684509,2.857689,0.035234,2.857689,0.035234,-299.999847,-300.0,20.68244,20.868063,12.03223,297.615875,12.25551,-0.022686,3.6E-5,19.351198,-5.03E-4,0.057053,0.01279,0.0,1.0,2321.980957,
44.640915,-304.837372,-303.643921,2.862817,0.035378,2.862817,0.035378,-299.999847,-300.0,20.721151,21.30578,12.195457,297.619171,12.19698,-0.02177,6.97E-4,18.069733,-5.03E-4,0.057154,0.012622,0.0,1.0,2324.558838,
45.52071,-304.773499,-303.580048,2.870286,0.035768,2.870286,0.035768,-299.999847,-300.0,20.78277,21.995283,12.443161,297.624878,12.115181,-0.020204,0.001679,24.004255,-5.05E-4,0.057256,0.012457,0.0,1.0,2329.356445,
46.108158,-304.730652,-303.537201,2.856919,0.032676,2.856919,0.032676,-299.999847,-300.0,20.822449,22.457846,9.764046,297.628265,12.067684,-0.019231,0.002109,18.298409,-5.11E-4,0.057406,0.012172,0.0,1.0,2332.88501,
46.994087,-304.668121,-303.47467,2.848831,0.033072,2.848831,0.033072,-299.999847,-300.0,20.871761,23.155979,9.987867,297.632477,12.007442,-0.017889,0.002646,19.283052,-4.67E-4,0.057138,0.012003,0.0,1.0,2338.479736,
47.534847,-304.631042,-303.437592,2.853993,0.03366,2.853993,0.03366,-299.999847,-300.0,20.902517,23.585093,10.132068,297.633484,11.977244,-0.017453,0.002689,24.092489,-4.72E-4,0.056977,0.011792,0.0,1.0,2342.014404,
48.468349,-304.568512,-303.375061,2.8636,0.035053,2.8636,0.035053,-299.999847,-300.0,20.956615,24.330597,10.357363,297.631561,11.936996,-0.017463,0.002188,23.156672,-4.81E-4,0.05708,0.011742,0.0,1.0,2348.244141,
49.008404,-304.532745,-303.339294,2.868549,0.03602,2.868549,0.03602,-299.999847,-300.0,20.988459,24.764639,10.479657,297.628448,11.920532,-0.017918,0.001622,18.878107,-5.01E-4,0.057272,0.011838,0.0,1.0,2351.898193,
49.941132,-304.471558,-303.278137,2.875931,0.037816,2.875931,0.037816,-299.999847,-300.0,21.044321,25.518442,10.685055,297.620697,11.903572,-0.019572,4.09E-4,23.836739,-5.15E-4,0.057371,0.011993,0.0,1.0,2358.261719,
50.480907,-304.436218,-303.242767,2.880256,0.038881,2.880256,0.038881,-299.999847,-300.0,21.077164,25.957167,10.805038,297.615448,11.900157,-0.020644,-3.21E-4,23.84869,-5.4E-4,0.057519,0.012381,0.0,1.0,2361.966797,
51.413212,-304.375153,-303.181702,2.887437,0.04049,2.887437,0.04049,-299.999847,-300.0,21.134752,26.718851,11.012111,297.607117,11.904693,-0.022818,-0.00131,23.862467,-5.55E-4,0.057605,0.012643,0.0,1.0,2368.392334,
52.026485,-304.334778,-303.141327,2.892337,0.041407,2.892337,0.041407,-299.999847,-300.0,21.173239,27.22258,11.149847,297.602875,11.914455,-0.023929,-0.001677,22.96476,-5.78E-4,0.057749,0.01306,0.0,1.0,2372.633545,
52.883915,-304.277771,-303.08432,2.90621,0.024012,2.90621,0.024012,-299.999847,-300.0,21.230116,27.931187,12.303988,297.599548,11.936489,-0.025505,-0.002168,18.98628,-5.92E-4,0.057847,0.013272,0.0,1.0,2378.585938,
53.470924,-304.237762,-303.044312,2.913603,0.023203,2.913603,0.023203,-299.999847,-300.0,21.271416,28.41931,12.450901,297.59964,11.957041,-0.025226,-0.001807,23.758549,-3.43E-4,0.058124,0.013438,0.0,1.0,2382.675293,
54.352154,-304.176453,-302.983002,2.919551,0.023604,2.919551,0.023604,-299.999847,-300.0,21.334169,29.154785,12.646452,297.602509,11.995563,-0.024156,-8.82E-4,19.433964,-3.31E-4,0.058272,0.013434,0.0,1.0,2388.820801,
54.939316,-304.134644,-302.941193,2.923666,0.023846,2.923666,0.023846,-299.999847,-300.0,21.376564,29.647243,12.784087,297.605713,12.025906,-0.02308,-1.45E-4,23.680946,-3.37E-4,0.058391,0.01329,0.0,1.0,2392.925537,
55.845062,-304.069031,-302.87558,2.93018,0.024299,2.93018,0.024299,-299.999847,-300.0,21.442829,30.409714,12.999768,297.611053,12.079109,-0.021213,9.02E-4,16.412413,-3.41E-4,0.058473,0.01313,0.0,1.0,2399.265869,
56.407734,-304.027496,-302.834045,2.93442,0.024674,2.93442,0.024674,-299.999847,-300.0,21.484581,30.885628,13.134289,297.613831,12.11562,-0.019994,0.001387,24.415554,-3.47E-4,0.058604,0.012863,0.0,1.0,2403.214844,
57.312859,-303.959534,-302.766113,2.940978,0.025506,2.940978,0.025506,-299.999847,-300.0,21.552643,31.654264,13.349167,297.616028,12.178915,-0.018523,0.001711,24.574455,-3.52E-4,0.058688,0.012724,0.0,1.0,2409.579102,
57.875603,-303.916656,-302.723236,2.945163,0.026145,2.945163,0.026145,-299.999847,-300.0,21.595512,32.133907,13.484793,297.615662,12.220553,-0.017914,0.001615,20.284134,-3.64E-4,0.05882,0.012614,0.0,1.0,2413.54248,
58.75584,-303.848541,-302.65509,2.942296,0.02747,2.942296,0.02747,-299.999847,-300.0,21.66288,32.887398,12.925074,297.612305,12.28824,-0.017829,0.001063,19.27656,-3.73E-4,0.058903,0.012633,0.0,1.0,2419.756592,
59.34811,-303.803772,-302.610321,2.914554,0.028666,2.914554,0.028666,-299.999847,-300.0,21.693918,33.391582,9.165443,297.609039,12.334414,-0.01794,5.99E-4,24.197802,-3.92E-4,0.058846,0.012801,0.0,1.0,2423.9104,
60.234783,-303.740387,-302.546936,2.921008,0.029775,2.921008,0.029775,-299.999847,-300.0,21.740433,34.150597,9.421253,297.603394,12.404053,-0.018671,-1.56E-4,17.830751,-4.1E-4,0.058291,0.012964,0.0,1.0,2430.161865,
60.825306,-303.699951,-302.5065,2.928002,0.030589,2.928002,0.030589,-299.999847,-300.0,21.772076,34.658379,9.55306,297.599243,12.450148,-0.019332,-6.53E-4,23.451141,-4.25E-4,0.05842,0.013246,0.0,1.0,2434.339111,
61.709187,-303.641205,-302.447754,2.938756,0.027424,2.938756,0.027424,-299.999847,-300.0,21.820877,35.422619,10.258756,297.593719,12.517873,-0.020669,-0.001334,18.071928,-4.37E-4,0.05856,0.013454,0.0,1.0,2440.666016,
62.296886,-303.602539,-302.409088,2.948081,0.023839,2.948081,0.023839,-299.999847,-300.0,21.856508,35.933762,10.758349,297.591003,12.561653,-0.020837,-0.001537,18.823542,-3.92E-4,0.058775,0.01373,0.0,1.0,2444.943848,
Command_Fault: set /instrumentation/airspeed-indicator/serviceable false
63.178276,-303.544617,-302.351166,2.95383,0.025047,2.95383,0.025047,-299.999847,-300.0,21.91066,36.702873,10.899636,297.589417,12.624651,-0.021252,-0.001324,18.772724,-3.41E-4,0.058962,0.013866,0.0,1.0,2451.417236,
63.178276,-303.505829,-302.312408,2.957499,0.025797,2.957499,0.025797,-299.999847,-300.0,21.947168,37.217163,11.001565,297.589905,12.664477,-0.021259,-9.6E-4,23.858669,-3.58E-4,0.059077,0.013945,0.0,1.0,2455.759277,
63.178276,-303.447571,-302.25415,2.939527,0.02622,2.939527,0.02622,-299.999847,-300.0,21.998116,37.99086,6.348594,297.592438,12.720388,-0.020613,-2.17E-4,23.6495,-3.69E-4,0.05915,0.013921,0.0,1.0,2462.300049,
63.178276,-303.410614,-302.217194,2.926576,0.027092,2.926576,0.027092,-299.999847,-300.0,22.018915,38.508167,6.294264,297.595428,12.754786,-0.020095,4.38E-4,22.302158,-3.75E-4,0.058791,0.013794,0.0,1.0,2466.68042,
63.178276,-303.359589,-302.166138,2.934512,0.028542,2.934512,0.028542,-299.999847,-300.0,22.050875,39.28635,6.474272,297.599579,12.80159,-0.019251,0.001228,20.249508,-3.87E-4,0.058532,0.013644,0.0,1.0,2473.276611,
63.178276,-303.330322,-302.136871,2.940036,0.029297,2.940036,0.029297,-299.999847,-300.0,22.070793,39.763172,6.555467,297.601105,12.827216,-0.018767,0.001486,19.455469,-4.08E-4,0.05869,0.013437,0.0,1.0,2477.318359,
63.178276,-303.282318,-302.088898,2.946864,0.030454,2.946864,0.030454,-299.999847,-300.0,22.10569,40.58897,6.663391,297.600983,12.865931,-0.017965,0.001442,18.61941,-4.19E-4,0.058801,0.013361,0.0,1.0,2484.314697,
63.178276,-303.238953,-302.045532,2.951165,0.02756,2.951165,0.02756,-299.999847,-300.0,22.139599,41.373772,7.096696,297.597565,12.895905,-0.017984,7.69E-4,13.325333,-4.35E-4,0.058937,0.013367,0.0,1.0,2490.958008,
63.178276,-303.210602,-302.017181,2.936961,-0.012001,2.936961,-0.012001,-299.999847,-300.0,22.164721,41.898247,7.94944,297.593323,12.912243,-0.018957,-9.02E-4,15.776343,-3.94E-4,0.059023,0.013538,0.0,1.0,2495.395264,
63.178276,-303.167664,-301.974213,2.876892,-0.169602,2.876892,-0.169602,-299.999847,-300.0,22.208023,42.686806,9.636904,297.586609,12.93248,-0.019161,-0.005405,20.626371,1.71E-4,0.058739,0.01375,0.0,1.0,2502.071045,
63.178276,-303.140381,-301.94693,2.82277,-0.299965,2.82277,-0.299965,-299.999847,-300.0,22.238119,43.169762,9.93244,297.584045,12.943815,-0.018519,-0.008352,19.061491,0.002423,0.057538,0.014085,0.0,1.0,2506.16333,
63.178276,-303.091187,-301.897736,2.727147,-0.538077,2.727147,-0.538077,-299.999847,-300.0,22.290382,44.005825,9.839589,297.581879,12.965626,-0.01499,-0.012769,14.309587,0.004285,0.056455,0.014214,0.0,1.0,2513.25708,
63.178276,-303.05896,-301.865509,2.674225,-0.680605,2.674225,-0.680605,-299.999847,-300.0,22.323126,44.53508,9.755347,297.578583,12.983184,-0.011887,-0.015373,14.872319,0.007687,0.054543,0.014322,0.0,1.0,2517.752441,
63.178276,-303.009644,-301.816193,2.616131,-0.867851,2.616131,-0.867851,-299.999847,-300.0,22.371704,45.330673,9.740643,297.56189,13.01838,-0.007083,-0.02014,15.194276,0.009723,0.053484,0.014487,0.0,1.0,2524.511475,
63.178276,-302.978943,-301.785522,2.581036,-0.97898,2.581036,-0.97898,-299.999847,-300.0,22.401743,45.817852,9.881025,297.540619,13.046357,-0.004782,-0.024441,15.630255,0.012398,0.052323,0.015321,0.0,1.0,2528.648438,
63.178276,-302.92807,-301.734619,2.523314,-1.161257,2.523314,-1.161257,-299.999847,-300.0,22.45154,46.6166,10.047936,297.485046,13.104443,-0.00168,-0.033954,15.93036,0.013985,0.051621,0.016385,0.0,1.0,2535.427246,
63.178276,-302.891235,-301.697815,2.485147,-1.314957,2.485147,-1.314957,-299.999847,-300.0,22.485558,47.19463,7.528129,297.428436,13.156733,-0.002258,-0.043225,15.761998,0.016589,0.050466,0.019164,0.0,1.0,2540.322266,
63.178276,-302.842773,-301.649353,2.51709,-1.663893,2.51709,-1.663893,-299.999847,-300.0,22.523771,47.996563,9.99997,297.333252,13.245433,-0.002429,-0.060105,14.145388,0.018785,0.049703,0.021994,0.0,1.0,2547.091797,
63.178276,-302.810242,-301.616791,2.577271,-1.914965,2.577271,-1.914965,-299.999847,-300.0,22.571173,48.532093,18.940805,297.264709,13.317521,-0.001274,-0.071125,15.67228,0.02377,0.050342,0.026753,0.0,1.0,2551.595215,
63.178276,-302.752594,-301.559143,2.688585,-2.213218,2.688585,-2.213218,-299.999847,-300.0,22.706331,49.291679,38.857529,297.169098,13.441236,7.4E-4,-0.083225,20.436457,0.027357,0.051545,0.03018,0.0,1.0,2557.942871,
63.178276,-302.687866,-301.494446,2.796782,-2.383328,2.796782,-2.383328,-299.999847,-300.0,22.881624,49.872967,58.036636,297.096344,13.554754,0.002909,-0.09,21.648872,0.031617,0.053772,0.034961,0.0,1.0,2562.753662,
63.178276,-302.55835,-301.364899,2.947592,-2.514853,2.947592,-2.514853,-299.999847,-300.0,23.223793,50.633144,86.423309,297.002716,13.728874,0.005611,-0.095396,33.871601,0.034048,0.055936,0.038599,0.0,1.0,2568.959473,
63.178276,-302.412994,-301.219574,3.074797,-2.553174,3.074797,-2.553174,-299.999847,-300.0,23.578304,51.214096,109.277367,296.930023,13.880946,0.00822,-0.097808,45.999859,0.035926,0.058952,0.04328,0.0,1.0,2573.622803,
63.178276,-302.12915,-300.935699,3.242425,-2.530933,3.242425,-2.530933,-299.999847,-300.0,24.207474,52.017246,141.289352,296.830353,14.115451,0.011613,-0.098769,65.735107,0.036474,0.061496,0.046915,0.0,1.0,2579.929688,
63.178276,-301.867065,-300.673615,3.36099,-2.474316,3.36099,-2.474316,-299.999847,-300.0,24.736645,52.573669,162.639816,296.761932,14.291698,0.013925,-0.098285,80.98304,0.036156,0.064848,0.051898,0.0,1.0,2584.189697,
63.178276,-301.402008,-300.208557,3.501923,-2.357625,3.501923,-2.357625,-299.999847,-300.0,25.598715,53.350147,190.974304,296.675323,14.551228,0.017406,-0.095286,103.883385,0.035347,0.06722,0.055319,0.0,1.0,2589.971924,
63.178276,-300.997101,-299.80365,3.601875,-2.251556,3.601875,-2.251556,-299.999847,-300.0,26.297516,53.902576,210.817261,296.620972,14.741704,0.01992,-0.091702,120.750061,0.03368,0.070038,0.05965,0.0,1.0,2593.708008,
63.178276,-300.324219,-299.130798,3.730288,-2.088553,3.730288,-2.088553,-299.999847,-300.0,27.390844,54.672291,237.985291,296.560852,15.00888,0.024112,-0.084374,145.149078,0.032165,0.072038,0.062367,0.0,1.0,2597.895508,
63.178276,-299.767181,-298.57373,3.828953,-1.958827,3.828953,-1.958827,-299.999847,-300.0,28.251446,55.219074,257.052551,296.527924,15.195912,0.027371,-0.077909,162.675858,0.029836,0.074606,0.065373,0.0,1.0,2600.365967,
63.178276,-298.878082,-297.684662,3.953767,-1.772024,3.953767,-1.772024,-299.999847,-300.0,29.567009,55.979805,283.151428,296.49527,15.446097,0.032884,-0.067704,187.64418,0.027983,0.076579,0.06702,0.0,1.0,2603.333496,
63.178276,-298.165924,-296.972504,4.044875,-1.63043,4.044875,-1.63043,-299.999847,-300.0,30.582211,56.519428,300.909607,296.477905,15.612673,0.036938,-0.060206,205.357681,0.025315,0.079075,0.068652,0.0,1.0,2605.201416,
63.178276,-297.093872,-295.900452,4.155761,-1.442074,4.155761,-1.442074,-299.999847,-300.0,32.065731,57.247803,327.132538,296.458679,15.817701,0.043059,-0.050633,229.46492,0.023292,0.080898,0.069521,0.0,1.0,2607.503174,
63.178276,-296.193573,-295.000122,4.253726,-1.300789,4.253726,-1.300789,-299.999847,-300.0,33.287533,57.800194,349.097778,296.444183,15.954412,0.046991,-0.044249,247.993027,0.020601,0.083115,0.070482,0.0,1.0,2609.124512,
63.178276,-294.865387,-293.671967,4.396513,-1.131125,4.396513,-1.131125,-289.999847,-290.0,35.06258,58.537006,379.693359,296.42395,16.106627,0.052394,-0.03727,273.795471,0.018583,0.085075,0.071207,0.0,1.0,2611.162354,
63.178276,-293.834869,-292.641418,4.503309,-1.019165,4.503309,-1.019165,-289.999847,-290.0,36.415268,59.058258,398.385071,296.40976,16.190886,0.055659,-0.033028,292.432281,0.016159,0.08793,0.072218,0.0,1.0,2612.533936,
63.178276,-292.230988,-291.037537,4.603433,-0.879115,4.603433,-0.879115,-289.999847,-290.0,38.465744,59.801121,420.329407,296.395813,16.273878,0.060018,-0.027057,319.295013,0.014559,0.090066,0.072928,0.0,1.0,2614.405762,
63.178276,-291.087006,-289.893555,4.650763,-0.79378,4.650763,-0.79378,-289.999847,-290.0,39.889862,60.291149,433.544037,296.39325,16.30308,0.062639,-0.022664,336.644592,0.012559,0.092069,0.073625,0.0,1.0,2615.596924,
63.178276,-289.264923,-288.071472,4.71699,-0.681677,4.71699,-0.681677,-289.999847,-290.0,42.105843,61.018169,452.140198,296.400574,16.306849,0.066447,-0.015469,361.658325,0.01134,0.093015,0.073753,0.0,1.0,2617.3125,
63.178276,-287.380157,-286.186707,4.801239,-0.580302,4.801239,-0.580302,-289.999847,-290.0,44.34911,61.715572,470.483582,296.416595,16.264708,0.070291,-0.008289,384.529877,0.009738,0.09434,0.073387,0.0,1.0,2618.907471,
63.178276,-285.968353,-284.774902,4.867616,-0.511859,4.867616,-0.511859,-289.999847,-290.0,46.007542,62.207893,484.427368,296.42984,16.207685,0.072772,-0.003612,400.223206,0.00829,0.096025,0.072586,0.0,1.0,2620.006592,
63.178276,-283.840851,-282.64743,4.951356,-0.425353,4.951356,-0.425353,-279.999847,-280.0,48.483131,62.908119,505.172943,296.446564,16.087946,0.076257,0.001621,422.244263,0.007312,0.097352,0.071924,0.0,1.0,2621.535889,
63.178276,-282.362732,-281.169281,5.009956,-0.374228,5.009956,-0.374228,-279.999847,-280.0,50.190681,63.369144,518.836548,296.454895,15.984809,0.078209,0.004091,436.470642,0.006076,0.099027,0.071088,0.0,1.0,2622.523438,
63.178276,-280.120178,-278.926727,5.089597,-0.31506,5.089597,-0.31506,-279.999847,-280.0,52.762108,64.033096,538.478271,296.462646,15.803634,0.080405,0.006237,457.140594,0.005346,0.100199,0.070671,0.0,1.0,2623.921875,
63.178276,-278.457733,-277.264282,5.150126,-0.282404,5.150126,-0.282404,-279.999847,-280.0,54.657051,64.501236,552.539185,296.466705,15.653911,0.081298,0.007156,471.618439,0.004501,0.101792,0.070284,0.0,1.0,2624.893066,
63.178276,-276.043549,-274.850098,5.227503,-0.252124,5.227503,-0.252124,-279.999847,-280.0,57.39222,65.148003,572.059387,296.473846,15.41958,0.082004,0.008198,491.847595,0.004034,0.103003,0.070081,0.0,1.0,2626.216553,
63.178276,-274.259888,-273.066437,5.287545,-0.237206,5.287545,-0.237206,-269.999847,-270.0,59.403049,65.603798,585.707947,296.482178,15.237219,0.08221,0.00923,506.004181,0.003602,0.10455,0.069724,0.0,1.0,2627.137451,
63.178276,-271.677612,-270.484192,5.364005,-0.222335,5.364005,-0.222335,-269.999847,-270.0,62.298519,66.233223,604.94574,296.499359,14.965478,0.082439,0.011231,525.827271,0.003389,0.105751,0.069307,0.0,1.0,2628.393066,
63.178276,-269.775146,-268.581696,5.423585,-0.212405,5.423585,-0.212405,-269.999847,-270.0,64.423637,66.676582,618.664917,296.515167,14.762654,0.082666,0.013019,539.720337,0.003176,0.10728,0.068448,0.0,1.0,2629.266602,
63.178276,-267.027679,-265.834229,5.500658,-0.19746,5.500658,-0.19746,-269.999847,-270.0,67.479355,67.288521,637.890625,296.538361,14.471234,0.083196,0.015378,559.229492,0.003034,0.108472,0.067658,0.0,1.0,2630.457764,
63.178276,-265.007935,-263.814484,5.560128,-0.185776,5.560128,-0.185776,-259.999847,-260.0,69.718697,67.719337,651.503967,296.553833,14.260677,0.083555,0.016696,572.936951,0.002821,0.110013,0.066498,0.0,1.0,2631.286133,
63.178276,-262.097168,-260.903717,5.634841,-0.170796,5.634841,-0.170796,-259.999847,-260.0,72.933266,68.313675,670.36853,296.570618,13.966906,0.083945,0.017496,592.217712,0.002654,0.111203,0.065724,0.0,1.0,2632.415283,
63.178276,-259.961639,-258.768188,5.69157,-0.162701,5.69157,-0.162701,-259.999847,-260.0,75.284622,68.731903,683.542542,296.579163,13.760395,0.083914,0.01741,605.753906,0.00244,0.112697,0.064885,0.0,1.0,2633.200684,
63.178276,-256.889984,-255.696533,5.762381,-0.157991,5.762381,-0.157991,-259.999847,-260.0,78.653023,69.308609,701.617432,296.587677,13.47978,0.083417,0.016624,624.788818,0.002324,0.113831,0.064458,0.0,1.0,2634.271729,
63.178276,-254.640854,-253.447418,5.816169,-0.159246,5.816169,-0.159246,-249.999863,-250.0,81.111755,69.714256,714.159302,296.593506,13.287731,0.082791,0.016007,638.123108,0.002257,0.115248,0.064032,0.0,1.0,2635.01709,
63.178276,-251.41243,-250.218979,5.88332,-0.165726,5.88332,-0.165726,-249.999863,-250.0,84.626678,70.273392,731.312256,296.604126,13.034054,0.08167,0.015547,656.781982,0.002275,0.116323,0.063741,0.0,1.0,2636.033691,
63.178276,-249.053299,-247.859848,5.934337,-0.171641,5.934337,-0.171641,-249.999863,-250.0,87.18734,70.666527,743.193604,296.614746,12.865756,0.080952,0.015716,669.788574,0.002368,0.117666,0.06321,0.0,1.0,2636.741455,
63.178276,-245.673584,-244.480148,5.997815,-0.177743,5.997815,-0.177743,-249.999863,-250.0,90.84108,71.208206,759.420837,296.632996,12.651117,0.080139,0.016492,687.945923,0.002452,0.118687,0.062679,0.0,1.0,2637.706299,
63.178276,-243.208633,-242.015198,6.045835,-0.179671,6.045835,-0.179671,-239.999863,-240.0,93.498146,71.588921,770.63916,296.6474,12.514379,0.079791,0.017234,700.564697,0.002539,0.119956,0.061766,0.0,1.0,2638.377441,
63.178276,-239.583496,-238.39006,6.106747,-0.178368,6.106747,-0.178368,-239.999863,-240.0,97.392136,72.128105,786.335266,296.666229,12.343857,0.079497,0.017931,718.480652,0.002567,0.120917,0.061046,0.0,1.0,2639.318359,
63.178276,-237.119064,-235.925613,6.149514,-0.176447,6.149514,-0.176447,-239.999863,-240.0,100.030739,72.481667,796.43396,296.676453,12.248363,0.079282,0.01799,730.191223,0.002548,0.122135,0.060104,0.0,1.0,2639.929199,
63.178276,-233.351318,-232.157867,6.206289,-0.17492,6.206289,-0.17492,-229.999863,-230.0,104.051003,73.003227,811.10199,296.687012,12.133385,0.078782,0.017286,747.495544,0.002521,0.12299,0.059593,0.0,1.0,2640.822266,
63.178276,-230.795135,-229.601685,6.245636,-0.176385,6.245636,-0.176385,-229.999863,-230.0,106.771019,73.345116,820.533691,296.691895,12.075868,0.078212,0.016489,758.689636,0.002499,0.124126,0.059065,0.0,1.0,2641.402832,
63.178276,-226.894608,-225.701157,6.297588,-0.183109,6.297588,-0.183109,-229.999863,-230.0,110.909088,73.849312,834.155029,296.698364,12.018448,0.077085,0.015223,775.116455,0.00252,0.124913,0.058821,0.0,1.0,2642.252197,
63.178276,-224.251923,-223.058472,6.33397,-0.190005,6.33397,-0.190005,-219.999863,-220.0,113.704758,74.179733,842.900696,296.703888,11.999311,0.076232,0.014631,785.778442,0.002616,0.125952,0.058498,0.0,1.0,2642.804932,
63.178276,-220.22467,-219.031235,6.382518,-0.200835,6.382518,-0.200835,-219.999863,-220.0,117.952164,74.666878,855.56958,296.715424,11.998905,0.075039,0.014356,801.479004,0.002714,0.126679,0.058221,0.0,1.0,2643.614502,
63.178276,-217.61673,-216.423294,6.414958,-0.206842,6.414958,-0.206842,-219.999863,-220.0,120.698242,74.972832,863.382874,296.724915,12.016035,0.074401,0.014552,811.019531,0.002869,0.12765,0.057645,0.0,1.0,2644.119629,
63.178276,-213.358414,-212.164963,6.461088,-0.212167,6.461088,-0.212167,-209.999863,-210.0,125.167274,75.456459,875.470581,296.741333,12.070971,0.073751,0.015083,826.308716,0.002955,0.128299,0.05717,0.0,1.0,2644.91333,
63.178276,-210.558823,-209.365372,6.493349,-0.213493,6.493349,-0.213493,-209.999863,-210.0,128.09874,75.76458,883.116516,296.751587,12.123814,0.073458,0.015359,835.858582,0.003031,0.129222,0.056349,0.0,1.0,2645.415771,
Command_Fault: set /instrumentation/airspeed-indicator/serviceable true
Command: fly_strait
91.062248,-206.304138,-205.110703,6.535491,-0.21337,6.535491,-0.21337,-209.999863,-210.0,132.543152,76.218597,894.216431,296.76358,12.226682,0.073096,0.015223,849.864075,0.00305,0.129867,0.055836,0.0,1.0,2646.151855,
91.258514,-203.434006,-202.24057,6.564047,-0.208187,6.564047,-0.208187,-199.999863,-200.0,135.536194,76.5159,901.318115,296.753754,12.309812,0.079402,0.011541,858.831543,0.003048,0.13071,0.0,0.0,1.0,2646.631348,
91.375175,-199.077011,-197.883575,6.592218,-0.218708,6.592218,-0.218708,-199.999863,-200.0,140.068985,76.953979,911.271545,296.518768,12.453325,0.083938,-0.029127,871.994385,0.002974,0.131281,4.91E-4,0.0,1.0,2647.341553,
91.45784,-196.141251,-194.9478,6.602676,-0.326654,6.602676,-0.326654,-199.999863,-200.0,143.116577,77.241005,916.933289,296.261047,12.558061,0.073615,-0.070346,880.400574,0.003124,0.131844,0.012241,0.0,1.0,2647.816162,
91.591591,-191.690796,-190.497345,6.612731,-0.676302,6.612731,-0.676302,-189.999863,-190.0,147.720184,77.664505,924.10022,295.909698,12.724508,0.04352,-0.121889,892.640015,0.004666,0.132054,0.025127,0.0,1.0,2648.538086,
91.675247,-188.697021,-187.503571,6.630954,-0.980668,6.630954,-0.980668,-189.999863,-190.0,150.808487,77.942253,928.780273,295.782867,12.842223,0.021559,-0.136061,900.326233,0.009661,0.132255,0.042694,0.0,1.0,2649.022705,
91.799919,-184.165588,-182.972137,6.677375,-1.368103,6.677375,-1.368103,-179.999863,-180.0,155.473495,78.351974,937.300476,295.832153,13.034462,-0.002086,-0.115382,911.413696,0.01401,0.132619,0.049036,0.0,1.0,2649.745117,
91.879265,-181.120193,-179.926758,6.714232,-1.501301,6.714232,-1.501301,-179.999863,-180.0,158.609039,78.620598,943.848694,295.993652,13.17724,-0.005123,-0.08064,918.414612,0.019544,0.133547,0.046571,0.0,1.0,2650.224365,
91.978279,-176.511795,-175.318344,6.770377,-1.423496,6.770377,-1.423496,-179.999863,-180.0,163.354507,79.016586,954.126892,296.283844,13.417879,0.008515,-0.022315,928.732117,0.021447,0.134285,0.038496,0.0,1.0,2650.924072,
92.029549,-173.414337,-172.220901,6.808462,-1.22742,6.808462,-1.22742,-169.999863,-170.0,166.547348,79.275764,961.361694,296.419434,13.594981,0.024636,0.00519,935.410156,0.020336,0.135408,0.023987,0.0,1.0,2651.367432,
92.103111,-168.725861,-167.53241,6.842282,-0.863027,6.842282,-0.863027,-169.999863,-170.0,171.381592,79.65715,971.788086,296.41748,13.877308,0.047551,0.010251,945.496765,0.017535,0.136169,0.017207,0.0,1.0,2651.997559,
92.153824,-165.574051,-164.380615,6.854178,-0.66923,6.854178,-0.66923,-169.999863,-170.0,174.631302,79.906548,977.665833,296.278076,14.068948,0.054123,-0.009459,952.119019,0.012329,0.136846,0.017305,0.0,1.0,2652.4021,
92.237328,-160.937241,-159.743805,6.861401,-0.590516,6.861401,-0.590516,-159.999863,-160.0,179.401672,80.263618,984.475098,295.970642,14.340364,0.047527,-0.054741,961.869019,0.00956,0.137084,0.024275,0.0,1.0,2652.985107,
92.341248,-156.128647,-154.935211,6.872512,-0.747248,6.872512,-0.747248,-159.999863,-160.0,184.338821,80.623215,990.147156,295.692749,14.59885,0.026579,-0.092577,971.327637,0.008436,0.137228,0.039647,0.0,1.0,2653.589355,
92.392929,-153.163849,-151.970398,6.885412,-0.912541,6.885412,-0.912541,-149.999863,-150.0,187.369781,80.839333,993.632935,295.614868,14.744692,0.014045,-0.09954,977.318542,0.010675,0.13745,0.053542,0.0,1.0,2653.962891,
92.488632,-148.015945,-146.822495,6.922241,-1.154168,6.922241,-1.154168,-149.999863,-150.0,192.631912,81.206245,1000.476379,295.701324,14.977973,-0.001416,-0.074355,986.798706,0.013036,0.137708,0.057436,0.0,1.0,2654.611084,
92.545448,-144.608002,-143.414566,6.958639,-1.200987,6.958639,-1.200987,-139.999863,-140.0,196.115326,81.443138,1005.919373,295.87323,15.121994,0.001225,-0.039837,992.685181,0.016488,0.138445,0.053113,0.0,1.0,2655.030029,
92.597092,-139.804123,-138.610687,7.006437,-1.048531,7.006437,-1.048531,-139.999863,-140.0,201.026413,81.768524,1014.460815,296.127777,15.314548,0.019795,0.008546,1000.872498,0.017157,0.139173,0.044517,0.0,1.0,2655.588623,
92.630234,-136.3526,-135.159149,7.036177,-0.830227,7.036177,-0.830227,-139.999863,-140.0,204.560028,81.996307,1020.686523,296.238739,15.444588,0.036429,0.029569,1006.507813,0.014979,0.140129,0.03179,0.0,1.0,2655.962402,
92.666397,-131.485565,-130.292114,7.056844,-0.508491,7.056844,-0.508491,-129.999863,-130.0,209.542114,82.308647,1028.54834,296.211212,15.609613,0.057347,0.026707,1014.558228,0.01186,0.140724,0.026242,0.0,1.0,2656.455811,
92.702789,-127.988289,-126.794846,7.06329,-0.349319,7.06329,-0.349319,-129.999863,-130.0,213.121597,82.527176,1032.919189,296.070953,15.709333,0.062197,0.004618,1020.154297,0.007264,0.141137,0.027618,0.0,1.0,2656.795898,
92.754005,-123.058899,-121.865456,7.066789,-0.327996,7.066789,-0.327996,-119.999855,-120.0,218.154861,82.827057,1037.507324,295.808167,15.815007,0.054487,-0.036523,1028.058472,0.00499,0.141266,0.034631,0.0,1.0,2657.269043,
92.80201,-119.519974,-118.32653,7.071367,-0.43585,7.071367,-0.43585,-119.999855,-120.0,221.7621,83.037201,1040.126831,295.650818,15.863731,0.042487,-0.059642,1033.413086,0.004686,0.141336,0.047771,0.0,1.0,2657.61084,
92.868469,-114.396538,-113.203094,7.086231,-0.674939,7.086231,-0.674939,-109.999855,-110.0,226.972336,83.334167,1043.937744,295.583252,15.896495,0.023521,-0.065105,1040.863159,0.006226,0.141427,0.055638,0.0,1.0,2658.110352,
92.908951,-110.965645,-109.772202,7.104666,-0.808588,7.104666,-0.808588,-109.999855,-110.0,230.457214,83.528511,1046.953735,295.655426,15.897723,0.017266,-0.049309,1045.547363,0.009642,0.141725,0.059016,0.0,1.0,2658.44458,
92.956665,-105.795296,-104.601852,7.140362,-0.848054,7.140362,-0.848054,-109.999855,-110.0,235.705673,83.814468,1052.458496,295.875702,15.876837,0.021485,-0.008014,1052.325073,0.011551,0.142093,0.055408,0.0,1.0,2658.935303,
92.97744,-102.334778,-101.141335,7.166867,-0.758259,7.166867,-0.758259,-99.999855,-100.0,239.221146,84.001266,1056.737427,296.031189,15.851286,0.032569,0.019488,1056.583984,0.012115,0.142807,0.044394,0.0,1.0,2659.24707,
93.000275,-97.120163,-95.92672,7.192593,-0.504848,7.192593,-0.504848,-99.999855,-100.0,244.521698,84.275543,1063.177368,296.151093,15.797307,0.053938,0.039816,1062.872314,0.010832,0.143337,0.03662,0.0,1.0,2659.686035,
Command_Fault: set /instrumentation/airspeed-indicator/serviceable false
93.027512,-93.628326,-92.434883,7.20204,-0.327248,7.20204,-0.327248,-89.999855,-90.0,248.072144,84.454437,1066.866699,296.124878,15.749228,0.064556,0.035046,1066.984985,0.007212,0.143852,0.030624,0.0,1.0,2659.963623,
93.027512,-88.365601,-87.17215,7.204267,-0.181195,7.204267,-0.181195,-89.999855,-90.0,253.417862,84.717049,1070.980225,295.948761,15.653924,0.069002,0.005033,1073.156494,0.004675,0.144041,0.031935,0.0,1.0,2660.370117,
93.027512,-84.843872,-83.650429,7.203694,-0.190944,7.203694,-0.190944,-89.999855,-90.0,256.991089,84.888512,1072.803833,295.792542,15.572675,0.063011,-0.020495,1077.081787,0.002589,0.144085,0.040741,0.0,1.0,2660.641846,
93.027512,-79.541077,-78.347633,7.205911,-0.355813,7.205911,-0.355813,-79.999855,-80.0,262.360718,85.140671,1074.942627,295.624023,15.424197,0.045961,-0.046306,1082.788208,0.002728,0.144074,0.048552,0.0,1.0,2661.057617,
93.027512,-75.99498,-74.801537,7.212318,-0.507036,7.212318,-0.507036,-79.999855,-80.0,265.946411,85.305573,1076.436279,295.599884,15.310409,0.035256,-0.048141,1086.344604,0.005083,0.144118,0.056978,0.0,1.0,2661.34082,
93.027512,-70.660675,-69.467232,7.231713,-0.668685,7.231713,-0.668685,-69.999855,-70.0,271.335663,85.548203,1079.35376,295.712585,15.125986,0.02748,-0.025872,1091.371948,0.007243,0.144246,0.058185,0.0,1.0,2661.767822,
93.027512,-67.094437,-65.900993,7.251003,-0.689458,7.251003,-0.689458,-69.999855,-70.0,274.937866,85.706757,1081.960327,295.850525,14.999177,0.030831,-0.001432,1094.539795,0.009553,0.144634,0.05255,0.0,1.0,2662.046875,
93.027512,-62.175205,-60.981762,7.275433,-0.580088,7.275433,-0.580088,-59.999859,-60.0,279.906616,85.920418,1086.157227,296.027618,14.825526,0.043844,0.02866,1098.85437,0.009849,0.14502,0.045653,0.0,1.0,2662.414063,
93.027512,-58.290775,-57.097332,7.290321,-0.423113,7.290321,-0.423113,-59.999859,-60.0,283.835144,86.085144,1089.510986,296.101105,14.690802,0.057402,0.040312,1102.023682,0.008287,0.145509,0.036798,0.0,1.0,2662.6875,
93.027512,-53.195103,-52.001656,7.296983,-0.223659,7.296983,-0.223659,-49.999859,-50.0,288.989624,86.295761,1093.248291,296.063873,14.516068,0.069193,0.032419,1106.144043,0.006044,0.145806,0.033124,0.0,1.0,2663.029297,
93.027512,-49.287762,-48.094318,7.295944,-0.136965,7.295944,-0.136965,-49.999859,-50.0,292.941254,86.453285,1095.148315,295.947937,14.381269,0.07106,0.012151,1109.203491,0.003195,0.14594,0.034985,0.0,1.0,2663.285889,
93.027512,-43.861301,-42.667858,7.291982,-0.175681,7.291982,-0.175681,-39.999859,-40.0,298.421387,86.666672,1096.700195,295.752289,14.190102,0.061536,-0.020636,1113.380981,0.001957,0.145919,0.040782,0.0,1.0,2663.645752,
93.027512,-40.085709,-38.892262,7.290968,-0.290385,7.290968,-0.290385,-39.999859,-40.0,302.230682,86.811852,1097.408203,295.653717,14.054714,0.051025,-0.036196,1116.044434,0.00251,0.14584,0.050565,0.0,1.0,2663.902344,
93.027512,-35.091141,-33.897697,7.296441,-0.476916,7.296441,-0.476916,-39.999859,-40.0,307.262909,86.999916,1098.516479,295.636871,13.87674,0.037721,-0.036886,1119.410767,0.004148,0.145819,0.055493,0.0,1.0,2664.249023,
93.027512,-29.331659,-28.138214,7.314578,-0.614673,7.314578,-0.614673,-29.999857,-30.0,313.066132,87.211487,1100.741943,295.773712,13.68223,0.032937,-0.011977,1122.766602,0.006813,0.145929,0.056335,0.0,1.0,2664.651123,
93.027512,-25.53301,-24.339567,7.331181,-0.610239,7.331181,-0.610239,-29.999857,-30.0,316.891876,87.347694,1102.894287,295.908508,13.565724,0.03807,0.011026,1125.00769,0.008781,0.146292,0.049493,0.0,1.0,2664.90918,
93.027512,-20.204504,-19.011061,7.349113,-0.472816,7.349113,-0.472816,-19.999857,-20.0,322.261749,87.534248,1106.333862,296.05365,13.422128,0.053003,0.034656,1128.059082,0.008718,0.146624,0.042754,0.0,1.0,2665.253418,
93.027512,-16.393192,-15.199747,7.356938,-0.331373,7.356938,-0.331373,-19.999857,-20.0,326.107391,87.664505,1108.629395,296.083405,13.333304,0.062767,0.038537,1130.080688,0.006755,0.146982,0.035496,0.0,1.0,2665.484375,
93.027512,-11.043875,-9.85043,7.3573,-0.177165,7.3573,-0.177165,-9.999858,-10.0,331.503113,87.842735,1111.044189,296.002167,13.224675,0.070813,0.023066,1133.037109,0.004734,0.147139,0.034009,0.0,1.0,2665.769531,
93.027512,-7.217673,-6.024229,7.353676,-0.140916,7.353676,-0.140916,-9.999858,-10.0,335.362762,87.967255,1111.9823,295.884216,13.155437,0.06896,0.002628,1134.999634,0.002531,0.147146,0.038071,0.0,1.0,2665.956787,
93.027512,-1.849041,-0.655597,7.348892,-0.223259,7.348892,-0.223259,1.42E-4,0.0,340.769958,88.137962,1112.595459,295.724335,13.067208,0.05734,-0.023945,1137.809448,0.002013,0.147074,0.043968,0.0,1.0,2666.21167,
93.027512,2.145474,3.338918,7.348105,-0.343775,7.348105,-0.343775,1.42E-4,0.0,344.633698,88.257484,1112.904541,295.662689,13.010635,0.047624,-0.033361,1139.585815,0.003189,0.146978,0.051962,0.0,1.0,2666.394287,
93.027512,7.792374,8.985819,7.354781,-0.510031,7.354781,-0.510031,10.000142,10.0,350.04541,88.421577,1113.722168,295.694183,12.943901,0.036718,-0.026209,1142.037476,0.004911,0.146962,0.055045,0.0,1.0,2666.651123,
93.027512,11.827713,13.021158,7.365467,-0.577021,7.365467,-0.577021,10.000142,10.0,353.914398,88.536476,1114.858643,295.788635,12.908298,0.035702,-0.009461,1143.533691,0.007286,0.147096,0.05347,0.0,1.0,2666.832031,
93.027512,17.486019,18.679464,7.382799,-0.544604,7.382799,-0.544604,20.000143,20.0,359.339386,88.693962,1117.184937,295.950104,12.879416,0.043572,0.017917,1145.647583,0.008243,0.147309,0.048747,0.0,1.0,2667.073486,
93.027512,21.530142,22.723587,7.39381,-0.448291,7.39381,-0.448291,20.000143,20.0,363.221954,88.803978,1119.128784,296.036224,12.874415,0.052455,0.03171,1146.989624,0.00778,0.147656,0.040674,0.0,1.0,2667.234375,
93.027512,27.202431,28.395876,7.399509,-0.280423,7.399509,-0.280423,30.000143,30.0,368.66861,88.954468,1121.572998,296.053497,12.886834,0.064986,0.03286,1149.015015,0.006404,0.147876,0.036368,0.0,1.0,2667.44458,
93.027512,31.257563,32.451008,7.398436,-0.188875,7.398436,-0.188875,30.000143,30.0,372.565186,89.059509,1122.732666,295.98999,12.906327,0.068485,0.02111,1150.3573,0.004006,0.14799,0.035504,0.0,1.0,2667.589111,
93.027512,36.945419,38.138863,7.392908,-0.170378,7.392908,-0.170378,40.000141,40.0,378.025238,89.203339,1123.513916,295.844543,12.942963,0.064644,-0.004177,1152.391968,0.002698,0.147969,0.038679,0.0,1.0,2667.792236,
93.027512,41.010544,42.203987,7.388863,-0.234068,7.388863,-0.234068,40.000141,40.0,381.926605,89.30394,1123.640015,295.746307,12.973487,0.057244,-0.020462,1153.677612,0.002434,0.147858,0.045952,0.0,1.0,2667.942139,
93.027512,46.708878,47.902325,7.388264,-0.386154,7.388264,-0.386154,50.000141,50.0,387.388977,89.442009,1123.772217,295.689514,13.021635,0.044268,-0.028751,1155.484253,0.003344,0.147777,0.050864,0.0,1.0,2668.160889,
93.027512,50.780773,51.974216,7.392682,-0.489877,7.392682,-0.489877,50.000141,50.0,391.291595,89.538712,1124.179688,295.722443,13.061242,0.038815,-0.022238,1156.610107,0.005516,0.147765,0.053703,0.0,1.0,2668.321533,
93.027512,56.487877,57.68132,7.404975,-0.549699,7.404975,-0.549699,60.000141,60.0,396.759155,89.671387,1125.427734,295.845306,13.12717,0.038718,-6.11E-4,1158.19519,0.006998,0.147854,0.052057,0.0,1.0,2668.545166,
93.027512,60.564816,61.758263,7.415938,-0.518483,7.415938,-0.518483,60.000141,60.0,400.66925,89.764153,1126.799927,295.948303,13.183064,0.044118,0.016623,1159.140015,0.007853,0.148099,0.045914,0.0,1.0,2668.69873,
93.027512,66.280037,67.47348,7.425719,-0.391947,7.425719,-0.391947,70.000145,70.0,406.15213,89.891098,1128.924194,296.036499,13.273131,0.056205,0.030333,1160.573608,0.007407,0.148319,0.040764,0.0,1.0,2668.900879,
93.027512,70.359146,71.552589,7.428389,-0.286173,7.428389,-0.286173,70.000145,70.0,410.074371,89.979675,1130.198242,296.034668,13.343634,0.062763,0.028952,1161.259033,0.005599,0.148514,0.036354,0.0,1.0,2669.037109,
93.027512,76.24968,77.443123,7.425126,-0.19443,7.425126,-0.19443,80.000145,80.0,415.728668,90.104263,1131.319214,295.941925,13.448553,0.066144,0.01192,1162.847046,0.004088,0.148568,0.036446,0.0,1.0,2669.22876,
93.027512,80.178848,81.372292,7.420805,-0.195589,7.420805,-0.195589,80.000145,80.0,419.500214,90.185509,1131.540649,295.850037,13.517588,0.062852,-0.003865,1163.813232,0.002778,0.148503,0.041083,0.0,1.0,2669.358154,
93.027512,86.078773,87.272217,7.416249,-0.292635,7.416249,-0.292635,90.000145,90.0,425.157837,90.304871,1131.485718,295.742554,13.616513,0.052425,-0.021492,1165.290771,0.002794,0.148416,0.045677,0.0,1.0,2669.55957,
93.027512,90.00808,91.201523,7.415935,-0.387767,7.415935,-0.387767,90.000145,90.0,428.929443,90.382889,1131.47937,295.720551,13.67926,0.045348,-0.024463,1165.905884,0.00418,0.148325,0.051051,0.0,1.0,2669.699463,
93.027512,95.914482,97.107925,7.422127,-0.499971,7.422127,-0.499971,100.000145,100.0,434.587677,90.497643,1131.924316,295.778839,13.770657,0.03925,-0.013399,1167.24353,0.00554,0.148319,0.052151,0.0,1.0,2669.913574,
93.027512,99.851898,101.045341,7.429907,-0.525167,7.429907,-0.525167,100.000145,100.0,438.361938,90.572594,1132.66687,295.859558,13.831388,0.040342,5.41E-4,1167.962036,0.007142,0.148443,0.049237,0.0,1.0,2670.054932,
93.027512,105.762291,106.955734,7.441205,-0.465502,7.441205,-0.465502,110.000145,110.0,444.029236,90.682602,1134.261353,295.977448,13.923802,0.04835,0.020067,1169.056152,0.007502,0.148598,0.045201,0.0,1.0,2670.258301,
93.027512,109.700821,110.894264,7.44646,-0.383885,7.44646,-0.383885,110.000145,110.0,447.812103,90.754272,1135.40918,296.020447,13.98576,0.055208,0.026547,1169.574219,0.00665,0.148824,0.039307,0.0,1.0,2670.38623,
93.027512,115.616379,116.809822,7.446944,-0.264375,7.446944,-0.264375,120.000145,120.0,453.492828,90.859283,1136.721313,295.997925,14.075979,0.062962,0.02129,1170.594604,0.005484,0.148929,0.037157,0.0,1.0,2670.570068,
93.027512,119.563225,120.756668,7.444151,-0.220556,7.444151,-0.220556,120.000145,120.0,457.282715,90.927689,1137.147705,295.934967,14.131731,0.063747,0.010014,1171.305664,0.003777,0.148939,0.038283,0.0,1.0,2670.690674,
93.027512,125.487549,126.680992,7.438611,-0.24503,7.438611,-0.24503,120.000145,120.0,462.968903,91.028099,1137.232056,295.821167,14.205015,0.058321,-0.009444,1172.374878,0.003151,0.148883,0.041431,0.0,1.0,2670.875488,
93.027512,129.437317,130.630768,7.43568,-0.30895,7.43568,-0.30895,130.000137,130.0,466.75946,91.093681,1137.095581,295.764984,14.246076,0.052101,-0.018523,1172.977051,0.0035,0.148772,0.047121,0.0,1.0,2671.003174,
93.027512,135.367645,136.561081,7.436335,-0.427263,7.436335,-0.427263,130.000137,130.0,472.444611,91.190155,1137.033936,295.755035,14.296912,0.043316,-0.0191,1173.993774,0.004414,0.148714,0.04993,0.0,1.0,2671.20166,
93.027512,139.320404,140.513855,7.440376,-0.486657,7.440376,-0.486657,140.000137,140.0,476.235107,91.25322,1137.299683,295.798706,14.325272,0.040843,-0.011146,1174.512451,0.006104,0.148727,0.050427,0.0,1.0,2671.336182,
93.027512,145.252563,146.446014,7.449773,-0.497219,7.449773,-0.497219,140.000137,140.0,481.923767,91.345879,1138.235107,295.903564,14.362593,0.043455,0.006915,1175.310425,0.006952,0.148808,0.048244,0.0,1.0,2671.534424,
93.027512,149.205643,150.399094,7.456322,-0.453504,7.456322,-0.453504,150.000137,150.0,485.719391,91.406311,1139.137695,295.969147,14.385009,0.048558,0.017655,1175.669922,0.007103,0.148995,0.043001,0.0,1.0,2671.661377,
93.027512,155.141663,156.335114,7.460843,-0.344722,7.460843,-0.344722,150.000137,150.0,491.41864,91.494881,1140.472412,296.008514,14.414589,0.057456,0.023213,1176.435425,0.006479,0.149126,0.039722,0.0,1.0,2671.842529,
93.027512,159.099396,160.292831,7.460507,-0.276449,7.460507,-0.276449,160.000137,160.0,495.221375,91.552551,1141.09668,295.986328,14.430263,0.06115,0.018717,1176.878052,0.004925,0.149217,0.037753,0.0,1.0,2671.958984,
93.027512,165.040924,166.23436,7.455925,-0.236031,7.455925,-0.236031,160.000137,160.0,500.928101,91.637108,1141.467896,295.899536,14.444716,0.061098,0.003267,1177.679565,0.003949,0.14921,0.038863,0.0,1.0,2672.132813,
93.027512,168.8349,170.028351,7.452144,-0.256373,7.452144,-0.256373,170.000137,170.0,504.574371,91.690002,1141.385498,295.834808,14.447116,0.057273,-0.00767,1178.000854,0.003372,0.149118,0.043202,0.0,1.0,2672.246338,
93.027512,174.946564,176.140015,7.448867,-0.349209,7.448867,-0.349209,170.000137,170.0,510.439056,91.773407,1141.129517,295.77179,14.439617,0.048856,-0.017668,1178.842407,0.003662,0.149043,0.046439,0.0,1.0,2672.438232,
93.027512,178.743423,179.936859,7.449317,-0.416901,7.449317,-0.416901,180.000137,180.0,514.084351,91.824265,1141.151001,295.773102,14.429032,0.044339,-0.016871,1179.157715,0.004989,0.148977,0.049589,0.0,1.0,2672.567383,
93.027512,184.856293,186.049728,7.455501,-0.482522,7.455501,-0.482522,180.000137,180.0,519.949768,91.90448,1141.714966,295.838287,14.405963,0.042047,-0.005029,1179.831787,0.005956,0.148986,0.049524,0.0,1.0,2672.785156,
93.027512,188.652542,189.845978,7.461744,-0.48224,7.461744,-0.48224,190.000137,190.0,523.598022,91.953308,1142.449219,295.899323,14.389672,0.044399,0.005384,1179.99646,0.006893,0.14911,0.046265,0.0,1.0,2672.921875,
93.027512,194.767944,195.961395,7.470166,-0.412481,7.470166,-0.412481,190.000137,190.0,529.472961,92.030106,1143.985596,295.97644,14.362345,0.051699,0.017959,1180.649292,0.006889,0.149235,0.043213,0.0,1.0,2673.137695,
93.027512,198.567978,199.761429,7.473517,-0.347492,7.473517,-0.347492,200.000137,200.0,533.128967,92.076721,1144.950317,295.99176,14.344596,0.056648,0.020027,1180.910767,0.005893,0.149403,0.039357,0.0,1.0,2673.268066,
93.027512,204.688873,205.882309,7.473361,-0.263812,7.473361,-0.263812,200.000137,200.0,539.016174,92.149933,1146.149902,295.950714,14.313078,0.060927,0.012183,1181.666138,0.004964,0.14947,0.038591,0.0,1.0,2673.474365,
93.027512,208.166031,209.359482,7.471543,-0.244728,7.471543,-0.244728,210.000137,210.0,542.359741,92.190559,1146.538696,295.901367,14.29254,0.060486,0.003638,1182.201416,0.003769,0.149467,0.040643,0.0,1.0,2673.592041,
93.027512,214.452881,215.646332,7.468255,-0.28291,7.468255,-0.28291,210.000137,210.0,548.411987,92.262512,1146.881226,295.811554,14.249133,0.054484,-0.011314,1182.762573,0.003496,0.149431,0.043111,0.0,1.0,2673.809082,
93.027512,218.101089,219.294525,7.467453,-0.334781,7.467453,-0.334781,220.000137,220.0,551.916565,92.303322,1147.010742,295.779755,14.220586,0.05041,-0.016233,1183.459595,0.004042,0.149365,0.047601,0.0,1.0,2673.938721,
93.027512,224.392654,225.58609,7.470752,-0.428558,7.470752,-0.428558,220.000137,220.0,557.971191,92.372421,1147.454346,295.789307,14.167788,0.043762,-0.013545,1183.998535,0.004783,0.149349,0.049191,0.0,1.0,2674.166992,
93.027512,228.041901,229.235336,7.47541,-0.462993,7.47541,-0.462993,230.000137,230.0,561.478088,92.411613,1147.978638,295.828796,14.136923,0.042991,-0.006459,1184.602417,0.006122,0.149415,0.048714,0.0,1.0,2674.299805,
93.027512,234.33754,235.530991,7.485064,-0.4519,7.485064,-0.4519,230.000137,230.0,567.540344,92.477829,1149.322388,295.918152,14.086391,0.046865,0.008857,1185.107178,0.006614,0.149508,0.046739,0.0,1.0,2674.524658,
93.027512,238.322968,239.516418,7.490958,-0.405511,7.490958,-0.405511,240.000137,240.0,571.373169,92.518639,1150.354248,295.963654,14.057234,0.051494,0.016256,1185.838257,0.006456,0.149701,0.042271,0.0,1.0,2674.661377,
93.027512,244.292557,245.486008,7.49467,-0.313071,7.49467,-0.313071,240.000137,240.0,577.128784,92.578331,1151.788574,295.97818,14.017237,0.058327,0.017876,1186.342163,0.005793,0.149819,0.039996,0.0,1.0,2674.859131,
93.027512,248.280243,249.473694,7.494456,-0.262698,7.494456,-0.262698,250.000137,250.0,580.969299,92.617134,1152.463989,295.948975,13.992024,0.060433,0.012477,1187.031982,0.004472,0.149893,0.03927,0.0,1.0,2674.988037,
93.027512,254.257645,255.451096,7.491482,-0.245336,7.491482,-0.245336,250.000137,250.0,586.733276,92.67395,1153.010254,295.871033,13.954275,0.058796,-0.00105,1187.678955,0.003753,0.149889,0.04073,0.0,1.0,2675.181152,
93.027512,258.249908,259.443359,7.489245,-0.274447,7.489245,-0.274447,260.000153,260.0,590.576904,92.710976,1153.133545,295.819031,13.928483,0.054985,-0.00966,1188.399536,0.003505,0.14983,0.044627,0.0,1.0,2675.3125,
93.027512,263.905945,265.099396,7.488721,-0.350207,7.488721,-0.350207,260.000153,260.0,596.022461,92.762375,1153.254883,295.783295,13.891479,0.048704,-0.015005,1189.305298,0.003921,0.149785,0.047227,0.0,1.0,2675.503174,
93.027512,268.3974,269.590851,7.491155,-0.411997,7.491155,-0.411997,270.000153,270.0,600.347656,92.802345,1153.525635,295.797668,13.863111,0.04494,-0.011998,1189.895996,0.005003,0.149774,0.049014,0.0,1.0,2675.657471,
93.027512,274.223724,275.417145,7.497678,-0.448421,7.497678,-0.448421,270.000153,270.0,605.956726,92.85302,1154.255005,295.861115,13.830478,0.044567,-7.55E-4,1190.721924,0.005886,0.149823,0.048296,0.0,1.0,2675.856934,
93.027512,278.384277,279.577728,7.503609,-0.434519,7.503609,-0.434519,280.000153,280.0,609.965881,92.888382,1155.039795,295.916809,13.811447,0.047335,0.008624,1191.166504,0.006406,0.149954,0.045123,0.0,1.0,2675.996338,
93.027512,284.214386,285.407837,7.509364,-0.367815,7.509364,-0.367815,280.000153,280.0,615.583801,92.936653,1156.274414,295.967804,13.791552,0.053872,0.016677,1191.941162,0.006207,0.150072,0.042339,0.0,1.0,2676.184326,
Command_Fault: set /instrumentation/airspeed-indicator/serviceable true
93.027512,288.378296,289.571747,7.511188,-0.309443,7.511188,-0.309443,290.000153,290.0,619.600037,92.97023,1157.04187,295.96991,13.781549,0.057583,0.016479,1192.38562,0.005255,0.150187,0.039789,0.0,1.0,2676.314453,
93.905968,294.213837,295.407257,7.509761,-0.256963,7.509761,-0.256963,290.000153,290.0,625.226563,93.016022,1157.749146,295.924377,13.771386,0.059786,0.008055,1193.19458,0.004421,0.150224,0.039683,0.0,1.0,2676.493408,
93.91375,298.381683,299.575134,7.507377,-0.253918,7.507377,-0.253918,300.000153,300.0,629.246887,93.04792,1157.945435,295.872833,13.76554,0.058202,-8.25E-4,1193.661011,0.003671,0.150195,0.04196,0.0,1.0,2676.621582,
93.918297,304.222198,305.415649,7.504919,-0.301709,7.504919,-0.301709,300.000153,300.0,634.875977,93.091568,1157.994995,295.81369,13.758183,0.052651,-0.010557,1194.472534,0.003627,0.150148,0.044537,0.0,1.0,2676.80542,
93.935616,310.222961,311.416412,7.505233,-0.377887,7.505233,-0.377887,310.000153,310.0,640.666077,93.135323,1158.081421,295.801392,13.752228,0.047082,-0.012011,1194.818481,0.00431,0.150098,0.047495,0.0,1.0,2676.999268,
