airspeed_indicator_indicated_speed_kt,altimeter_indicated_altitude_ft,altimeter_pressure_alt_ft,attitude_indicator_indicated_pitch_deg,attitude_indicator_indicated_roll_deg,attitude_indicator_internal_pitch_deg,attitude_indicator_internal_roll_deg,encoder_indicated_altitude_ft,encoder_pressure_alt_ft,gps_indicated_altitude_ft,gps_indicated_ground_speed_kt,gps_indicated_vertical_speed,indicated_heading_deg,magnetic_compass_indicated_heading_deg,slip_skid_ball_indicated_slip_skid,turn_indicator_indicated_turn_rate,vertical_speed_indicator_indicated_speed_fpm,flight_aileron,flight_elevator,flight_rudder,flight_flaps,engine_throttle,engine_rpm,
Command: takeoff
14.011301,-54.607258,-53.413815,3.072681,1.355898,2.720353,0.181473,-49.999859,-50.0,18.855408,6.9E-5,-0.001072,297.888489,15.754532,-0.046653,-0.573721,-978.0177,-0.0,0.0,0.0,0.0,0.0,605.93457,
12.049588,-56.778355,-55.584908,3.031284,1.218807,2.72001,0.181227,-49.999859,-50.0,18.855402,6.7E-5,-0.001072,297.887238,16.546583,-0.046691,-0.493659,-815.613586,-0.01937,0.054407,0.0,0.0,1.0,614.471985,
11.458544,-57.368187,-56.174744,2.956039,0.968761,2.719742,0.181102,-59.999859,-60.0,18.8554,6.6E-5,-0.00134,297.88681,16.785542,-0.046732,-0.46954,-757.752014,-0.01937,0.054407,0.0,0.0,1.0,639.77417,
9.369521,-59.21431,-58.020866,2.725217,0.257113,2.701472,0.177963,-59.999859,-60.0,18.855343,1.34E-4,-0.0205,297.884888,17.610346,-0.047004,-0.384399,-518.525208,-0.013839,0.054395,8.4E-5,0.0,1.0,862.711914,
8.471778,-59.893326,-58.699883,2.684247,0.173673,2.684247,0.173673,-59.999859,-60.0,18.855324,4.95E-4,0.018791,297.883759,17.942114,-0.045521,-0.347896,-400.979065,-0.003673,0.054029,1.8E-4,0.0,1.0,1017.852295,
7.282325,-60.686642,-59.493198,2.711595,0.163183,2.711595,0.163183,-59.999859,-60.0,18.855713,0.003234,0.138674,297.88208,18.337248,-0.044563,-0.299654,-243.19899,-0.002481,0.053685,2.36E-4,0.0,1.0,1265.488647,
6.582273,-61.096664,-59.903221,2.760808,0.153934,2.760808,0.153934,-59.999859,-60.0,18.856333,0.007962,0.22995,297.88092,18.532431,-0.044984,-0.271352,-163.411224,-0.002331,0.054232,3.2E-4,0.0,1.0,1425.436035,
5.653688,-61.575169,-60.381725,2.854209,0.137995,2.854209,0.137995,-59.999859,-60.0,18.857849,0.02215,0.233367,297.878815,18.724545,-0.043888,-0.233996,-96.589096,-0.002199,0.055216,3.78E-4,0.0,1.0,1641.14624,
5.106805,-61.822109,-60.628666,2.849593,0.126879,2.849593,0.126879,-59.999859,-60.0,18.859022,0.037956,0.364002,297.876923,18.787254,-0.045141,-0.212126,-74.948624,-0.001971,0.057084,4.84E-4,0.0,1.0,1763.884766,
4.486895,-62.109756,-60.916313,2.799869,0.110514,2.799869,0.110514,-59.999859,-60.0,18.861254,0.073724,0.546823,297.867859,18.787046,-0.052431,-0.184181,-53.612259,-0.001813,0.056992,5.78E-4,0.0,1.0,1914.376953,
4.200663,-62.257771,-61.064327,2.773807,0.100902,2.773807,0.100902,-59.999859,-60.0,18.863337,0.106865,0.703418,297.857819,18.72673,-0.052354,-0.16837,-43.114136,-0.001579,0.055997,0.001032,0.0,1.0,1993.698242,
4.024628,-62.429382,-61.235935,2.746455,0.088835,2.746455,0.088835,-59.999859,-60.0,18.867535,0.172232,0.971721,297.835175,18.551481,-0.046966,-0.148546,-31.167738,-0.001441,0.055476,0.001534,0.0,1.0,2085.606445,
4.077865,-62.51701,-61.323566,2.733541,0.082571,2.733541,0.082571,-59.999859,-60.0,18.871115,0.226986,1.169951,297.815247,18.381815,-0.043914,-0.13761,-24.959429,-0.001269,0.054929,0.002666,0.0,1.0,2131.805664,
4.409348,-62.61747,-61.424026,2.721279,0.07515,2.721279,0.07515,-59.999859,-60.0,18.877745,0.326747,1.478081,297.78006,18.055046,-0.040426,-0.12389,-25.95229,-0.00118,0.054671,0.003662,0.0,1.0,2183.352539,
4.763317,-62.667927,-61.47448,2.715872,0.07126,2.715872,0.07126,-59.999859,-60.0,18.883038,0.405317,1.691083,297.753479,17.79343,-0.038561,-0.116282,-16.971405,-0.001074,0.054426,0.005421,0.0,1.0,2208.356445,
5.435856,-62.724342,-61.530899,2.710722,0.066798,2.710722,0.066798,-59.999859,-60.0,18.892336,0.541522,2.020081,297.712677,17.343369,-0.036516,-0.10629,-20.054407,-0.001018,0.054317,0.00675,0.0,1.0,2235.314209,
5.950421,-62.751606,-61.558159,2.708416,0.064514,2.708416,0.064514,-59.999859,-60.0,18.899456,0.644586,2.243567,297.685547,17.009792,-0.035395,-0.100378,-18.940475,-9.54E-4,0.054214,0.008791,0.0,1.0,2247.87085,
6.786523,-62.780312,-61.586864,2.706209,0.061789,2.706209,0.061789,-59.999859,-60.0,18.911549,0.817464,2.583284,297.649231,16.467773,-0.034111,-0.091806,-14.687013,-9.22E-4,0.054168,0.010147,0.0,1.0,2260.730713,
7.372933,-62.792809,-61.599365,2.705282,0.060267,2.705282,0.060267,-59.999859,-60.0,18.920561,0.944767,2.813,297.628601,16.083811,-0.033249,-0.086188,-9.860754,-8.83E-4,0.054124,0.011963,0.0,1.0,2266.275146,
8.280054,-62.803616,-61.610172,2.70458,0.05817,2.70458,0.05817,-59.999859,-60.0,18.935511,1.153486,3.15734,297.606293,15.482867,-0.031959,-0.07737,-12.531507,-8.61E-4,0.054106,0.012994,0.0,1.0,2271.28125,
8.896977,-62.806435,-61.612991,2.704454,0.056835,2.704454,0.056835,-59.999859,-60.0,18.946438,1.304255,3.38786,297.59729,15.070781,-0.030926,-0.071258,-13.835687,-8.31E-4,0.054092,0.01411,0.0,1.0,2272.949219,
9.833494,-62.805302,-61.611858,2.704713,0.054772,2.704713,0.054772,-59.999859,-60.0,18.964268,1.547424,3.734109,297.593628,14.444303,-0.029137,-0.061625,-6.26211,-8.12E-4,0.054089,0.01456,0.0,1.0,2273.634766,
10.462375,-62.801517,-61.608074,2.705975,0.053377,2.705975,0.053377,-59.999859,-60.0,18.977158,1.720621,4.007337,297.597198,14.026127,-0.027766,-0.055031,11.21831,-7.82E-4,0.054094,0.014743,0.0,1.0,2273.178223,
11.40811,-62.791935,-61.598492,2.71519,0.043398,2.71519,0.043398,-59.999859,-60.0,18.998589,1.996567,4.470185,297.609894,13.406434,-0.026243,-0.045357,19.119301,-7.63E-4,0.05412,0.014565,0.0,1.0,2271.50293,
12.039415,-62.783234,-61.58979,2.720378,0.036004,2.720378,0.036004,-59.999859,-60.0,19.014071,2.191018,4.820788,297.622467,13.003107,-0.023818,-0.039031,11.739776,-6.2E-4,0.054304,0.01393,0.0,1.0,2269.889648,
12.969182,-62.767078,-61.573635,2.721355,0.033446,2.721355,0.033446,-59.999859,-60.0,19.03908,2.497938,5.173234,297.644287,12.420446,-0.020394,-0.030048,12.641104,-5.14E-4,0.054408,0.013301,0.0,1.0,2266.943848,
13.571911,-62.754463,-61.561016,2.721994,0.032772,2.721994,0.032772,-59.999859,-60.0,19.056732,2.712433,5.408745,297.659241,12.050844,-0.018709,-0.024698,10.629063,-4.78E-4,0.054427,0.01221,0.0,1.0,2264.750977,
14.473971,-62.73307,-61.539627,2.724135,0.032676,2.724135,0.032676,-59.999859,-60.0,19.08469,3.048522,5.765244,297.677826,11.530731,-0.016919,-0.018237,10.461879,-4.68E-4,0.05444,0.011462,0.0,1.0,2261.792725,
15.073874,-62.717308,-61.523861,2.726045,0.033178,2.726045,0.033178,-59.999859,-60.0,19.104317,3.28187,6.001458,297.686401,11.209902,-0.016347,-0.015039,11.341425,-4.67E-4,0.054483,0.010533,0.0,1.0,2261.037598,
15.97247,-62.691589,-61.498146,2.729278,0.034551,2.729278,0.034551,-59.999859,-60.0,19.135237,3.645391,6.357488,297.691315,10.771891,-0.016485,-0.012051,16.298328,-4.74E-4,0.054521,0.010104,0.0,1.0,2261.205322,
16.571062,-62.673149,-61.479702,2.731697,0.035634,2.731697,0.035634,-59.999859,-60.0,19.156839,3.896504,6.594841,297.68927,10.510735,-0.017192,-0.011117,15.481431,-4.94E-4,0.054586,0.009859,0.0,1.0,2261.876221,
17.468599,-62.64365,-61.450207,2.735561,0.037351,2.735561,0.037351,-59.999859,-60.0,19.190731,4.285948,6.953316,297.679413,10.167882,-0.018962,-0.010933,13.939754,-5.09E-4,0.054634,0.009961,0.0,1.0,2263.385254,
18.066824,-62.62281,-61.429367,2.738381,0.03843,2.738381,0.03843,-59.999859,-60.0,19.214319,4.553886,7.19154,297.669434,9.972929,-0.020395,-0.011342,12.330319,-5.34E-4,0.054711,0.010454,0.0,1.0,2264.603271,
18.964035,-62.589859,-61.396416,2.742812,0.039741,2.742812,0.039741,-59.999859,-60.0,19.251198,4.967915,7.549178,297.652802,9.731906,-0.022571,-0.012117,13.676527,-5.49E-4,0.054768,0.010953,0.0,1.0,2266.615479,
19.562099,-62.566792,-61.373344,2.746008,0.040366,2.746008,0.040366,-59.999859,-60.0,19.276781,5.251822,7.788909,297.642151,9.605644,-0.023775,-0.012493,14.551826,-5.68E-4,0.054856,0.011784,0.0,1.0,2268.032715,
20.459066,-62.530575,-61.337128,2.750952,0.040731,2.750952,0.040731,-59.999859,-60.0,19.316652,5.689192,8.148758,297.630249,9.4675,-0.024894,-0.012336,12.481269,-5.77E-4,0.05492,0.012317,0.0,1.0,2270.22168,
21.056932,-62.505371,-61.311928,2.754469,0.040687,2.754469,0.040687,-59.999859,-60.0,19.344231,5.988263,8.388556,297.625977,9.409008,-0.025044,-0.011668,13.150129,-5.82E-4,0.055019,0.012912,0.0,1.0,2271.705322,
21.953527,-62.466007,-61.27256,2.759514,0.040154,2.759514,0.040154,-59.999859,-60.0,19.387039,6.447799,8.687475,297.626282,9.370199,-0.024323,-0.009736,18.19088,-5.81E-4,0.055089,0.013126,0.0,1.0,2273.949219,
22.552835,-62.438839,-61.245392,2.738955,0.039782,2.738955,0.039782,-59.999859,-60.0,19.414639,6.761278,7.738565,297.630951,9.375793,-0.023252,-0.007898,13.951941,-5.74E-4,0.05519,0.01311,0.0,1.0,2275.45166,
23.454357,-62.397678,-61.204235,2.738855,0.038892,2.738855,0.038892,-59.999859,-60.0,19.454245,7.24194,8.090978,297.64328,9.428894,-0.02098,-0.004668,18.825914,-5.68E-4,0.054779,0.012877,0.0,1.0,2277.711426,
24.054571,-62.369953,-61.17651,2.74446,0.038411,2.74446,0.038411,-59.999859,-60.0,19.481594,7.569178,8.30676,297.65329,9.492455,-0.019339,-0.002506,16.058558,-5.56E-4,0.054777,0.01226,0.0,1.0,2279.219727,
24.953922,-62.327717,-61.13427,2.754398,0.038175,2.754398,0.038175,-59.999859,-60.0,19.524048,8.069945,8.71866,297.66745,9.626864,-0.01717,2.01E-4,19.127295,-5.49E-4,0.054889,0.01176,0.0,1.0,2281.48291,
25.551809,-62.298912,-61.105469,2.767961,0.033611,2.767961,0.033611,-59.999859,-60.0,19.55464,8.410227,9.399669,297.674774,9.74045,-0.016489,0.001342,22.770731,-5.45E-4,0.055088,0.011052,0.0,1.0,2282.991455,
26.447514,-62.254246,-61.060802,2.774548,0.034189,2.774548,0.034189,-59.999859,-60.0,19.602427,8.930017,9.709977,297.68042,9.943018,-0.015618,0.002165,14.145905,-4.8E-4,0.055359,0.010686,0.0,1.0,2285.253906,
27.04431,-62.223507,-61.03006,2.777798,0.03515,2.777798,0.03515,-59.999859,-60.0,19.63516,9.282633,9.923514,297.680084,10.097048,-0.015927,0.00202,14.075375,-4.88E-4,0.055491,0.010403,0.0,1.0,2286.761719,
27.939335,-62.175995,-60.982552,2.769489,0.037146,2.769489,0.037146,-59.999859,-60.0,19.684883,9.820434,9.737779,297.673615,10.352043,-0.017511,9.11E-4,14.769023,-5.02E-4,0.055556,0.01042,0.0,1.0,2289.023926,
28.538383,-62.143852,-60.950405,2.762333,0.038532,2.762333,0.038532,-59.999859,-60.0,19.715227,10.184761,9.205728,297.666321,10.53523,-0.01909,-1.92E-4,14.813604,-5.31E-4,0.05539,0.010744,0.0,1.0,2290.533203,
29.43549,-62.095451,-60.902008,2.769431,0.040339,2.769431,0.040339,-59.999859,-60.0,19.762093,10.739707,9.526118,297.652863,10.824966,-0.021829,-0.00204,14.961137,-5.5E-4,0.055247,0.011108,0.0,1.0,2292.799561,
30.032673,-62.062904,-60.869457,2.775024,0.041384,2.775024,0.041384,-59.999859,-60.0,19.794195,11.115164,9.726927,297.643311,11.025334,-0.02361,-0.003203,15.137669,-5.76E-4,0.055389,0.011781,0.0,1.0,2294.311768,
30.927195,-62.013458,-60.820015,2.784275,0.042379,2.784275,0.042379,-59.999859,-60.0,19.843702,11.686343,10.151858,297.631348,11.33209,-0.0257,-0.004357,15.49174,-5.91E-4,0.0555,0.012259,0.0,1.0,2296.582031,
31.521475,-61.979832,-60.786388,2.79923,0.035512,2.79923,0.035512,-59.999859,-60.0,19.879494,12.07231,10.984637,297.625824,11.538173,-0.026771,-0.004819,15.957164,-6.05E-4,0.055686,0.012857,0.0,1.0,2298.096436,
32.411446,-61.927784,-60.734341,2.806606,0.034829,2.806606,0.034829,-59.999859,-60.0,19.935144,12.658781,11.272503,297.623444,11.845718,-0.02624,-0.004268,16.782141,-5.07E-4,0.055985,0.013133,0.0,1.0,2300.368896,
33.004219,-61.892052,-60.698605,2.810381,0.034383,2.810381,0.034383,-59.999859,-60.0,19.973068,13.054643,11.473413,297.625916,12.047464,-0.025223,-0.003311,17.302422,-4.98E-4,0.056132,0.013252,0.0,1.0,2301.884766,
33.894608,-61.837189,-60.643745,2.794718,0.036902,2.794718,0.036902,-59.999859,-60.0,20.027603,13.655549,10.200027,297.635071,12.341619,-0.022946,-0.001118,17.749762,-4.91E-4,0.056208,0.013129,0.0,1.0,2304.160156,
34.489273,-61.800564,-60.607121,2.795517,0.036501,2.795517,0.036501,-59.999859,-60.0,20.061966,14.060796,10.407032,297.643951,12.530139,-0.020988,5.4E-4,17.688646,-5.27E-4,0.055894,0.012671,0.0,1.0,2305.679443,
35.37936,-61.745594,-60.552151,2.803943,0.035977,2.803943,0.035977,-59.999859,-60.0,20.114744,14.675421,10.692553,297.657928,12.798657,-0.017908,0.002801,17.749937,-5.21E-4,0.05591,0.012227,0.0,1.0,2307.960938,
35.969559,-61.708946,-60.515503,2.819088,0.028682,2.819088,0.028682,-59.999859,-60.0,20.152136,15.089543,11.730797,297.665985,12.966705,-0.016516,0.003739,17.737089,-5.14E-4,0.056079,0.011528,0.0,1.0,2309.47876,
36.851391,-61.653389,-60.459946,2.829388,0.028472,2.829388,0.028472,-59.999859,-60.0,20.211519,15.717053,12.003991,297.673584,13.200309,-0.01433,0.004529,18.123867,-4.1E-4,0.056382,0.011125,0.0,1.0,2311.744873,
37.438213,-61.615807,-60.422359,2.833345,0.029383,2.833345,0.029383,-59.999859,-60.0,20.25185,16.139488,12.187449,297.674896,13.342621,-0.013893,0.004417,18.411913,-4.07E-4,0.056588,0.010745,0.0,1.0,2314.003174,
38.316666,-61.55854,-60.365093,2.83915,0.031416,2.83915,0.031416,-59.999859,-60.0,20.313509,16.779076,12.46952,297.670685,13.534222,-0.014801,0.003319,18.877075,-4.2E-4,0.056667,0.01068,0.0,1.0,2315.506348,
39.195271,-61.500546,-60.307102,2.829451,0.033925,2.829451,0.033925,-59.999859,-60.0,20.372259,17.42557,11.573702,297.660492,13.697842,-0.01725,0.001479,18.904226,-4.49E-4,0.056783,0.01089,0.0,1.0,2317.759033,
39.780144,-61.461975,-60.268528,2.833427,0.035461,2.833427,0.035461,-59.999859,-60.0,20.411173,17.860285,11.768849,297.651794,13.790596,-0.019356,1.09E-4,17.674749,-4.73E-4,0.056593,0.011206,0.0,1.0,2319.260742,
40.655136,-61.404015,-60.210571,2.841731,0.037568,2.841731,0.037568,-59.999859,-60.0,20.470726,18.51774,12.047906,297.637848,13.904505,-0.022679,-0.001821,18.257664,-5.07E-4,0.056669,0.011835,0.0,1.0,2321.513184,
41.237015,-61.365158,-60.171715,2.846715,0.038594,2.846715,0.038594,-59.999859,-60.0,20.511198,18.95952,12.225937,297.629883,13.963431,-0.024639,-0.002734,16.991573,-5.28E-4,0.056781,0.012305,0.0,1.0,2323.014404,
42.107731,-61.306362,-60.112919,2.854005,0.039566,2.854005,0.039566,-59.999859,-60.0,20.573027,19.62722,12.533834,297.621918,14.026368,-0.026656,-0.003324,23.4161,-5.51E-4,0.056934,0.01293,0.0,1.0,2325.266357,
42.687351,-61.266777,-60.073334,2.849648,0.037053,2.849648,0.037053,-59.999859,-60.0,20.613701,20.075602,11.686986,297.620331,14.051638,-0.027202,-0.003139,17.253124,-5.62E-4,0.057031,0.013231,0.0,1.0,2326.767578,
43.556332,-61.207584,-60.014141,2.853303,0.03664,2.853303,0.03664,-59.999859,-60.0,20.672838,20.752893,11.960047,297.624207,14.0654,-0.026284,-0.001856,17.157303,-5.29E-4,0.056993,0.013408,0.0,1.0,2329.111084,
44.133869,-61.168133,-59.974689,2.858432,0.036309,2.858432,0.036309,-59.999859,-60.0,20.713003,21.207462,12.130609,297.630096,14.059198,-0.024814,-5.94E-4,18.978662,-5.26E-4,0.057019,0.013316,0.0,1.0,2331.366455,
44.99844,-61.108746,-59.915302,2.865906,0.035873,2.865906,0.035873,-59.999859,-60.0,20.77429,21.893711,12.374327,297.641937,14.028377,-0.021775,0.001525,19.108631,-5.19E-4,0.057169,0.01292,0.0,1.0,2335.734131,
45.574181,-61.068909,-59.875465,2.860215,0.03284,2.860215,0.03284,-59.999859,-60.0,20.815056,22.354055,8.172314,297.650024,13.99451,-0.019853,0.002704,23.674961,-5.14E-4,0.057271,0.012535,0.0,1.0,2339.063232,
46.443653,-61.010574,-59.817131,2.844729,0.032104,2.844729,0.032104,-59.999859,-60.0,20.864418,23.048782,9.926737,297.661072,13.925631,-0.016553,0.004196,18.503181,-4.69E-4,0.057204,0.011923,0.0,1.0,2344.436035,
47.022358,-60.97308,-59.779636,2.849904,0.032564,2.849904,0.032564,-59.999859,-60.0,20.897781,23.514677,10.081656,297.665558,13.868798,-0.015036,0.00461,18.073431,-4.57E-4,0.056881,0.011536,0.0,1.0,2348.180908,
47.889378,-60.918224,-59.724781,2.858598,0.033883,2.858598,0.033883,-59.999859,-60.0,20.94873,24.217518,10.286853,297.666351,13.769223,-0.014117,0.004242,17.454254,-4.65E-4,0.056998,0.011147,0.0,1.0,2353.944336,
48.4669,-60.882267,-59.688824,2.863547,0.035168,2.863547,0.035168,-59.999859,-60.0,20.983252,24.688677,10.418828,297.662689,13.694473,-0.014554,0.003373,17.197815,-4.76E-4,0.057118,0.011076,0.0,1.0,2357.849609,
49.332531,-60.828838,-59.635395,2.870547,0.037459,2.870547,0.037459,-59.999859,-60.0,21.035841,25.399204,10.611899,297.651978,13.571795,-0.016643,0.001438,16.989243,-5.02E-4,0.057271,0.01129,0.0,1.0,2363.766113,
49.909218,-60.793381,-59.599937,2.875156,0.039111,2.875156,0.039111,-59.999859,-60.0,21.07144,25.875351,10.741228,297.642548,13.484116,-0.018771,-4.5E-5,16.942738,-5.24E-4,0.057366,0.01162,0.0,1.0,2367.737061,
50.773705,-60.740196,-59.546749,2.881905,0.041353,2.881905,0.041353,-59.999859,-60.0,21.12565,26.593161,10.938486,297.627747,13.345703,-0.0224,-0.002082,16.980919,-5.59E-4,0.057503,0.012297,0.0,1.0,2373.719727,
51.349693,-60.704617,-59.511169,2.886461,0.042628,2.886461,0.042628,-59.999859,-60.0,21.162334,27.074032,11.068519,297.619263,13.249974,-0.024706,-0.003048,17.061626,-5.91E-4,0.057638,0.013037,0.0,1.0,2377.721436,
52.212734,-60.650822,-59.457378,2.898495,0.028053,2.898495,0.028053,-59.999859,-60.0,21.219746,27.798731,12.44725,297.611206,13.103196,-0.02808,-0.004002,17.377979,-6.09E-4,0.057729,0.013461,0.0,1.0,2383.739258,
52.7868,-60.614212,-59.420769,2.907646,0.024886,2.907646,0.024886,-59.999859,-60.0,21.260733,28.284058,12.372688,297.609924,13.004599,-0.02827,-0.003696,17.859804,-4.01E-4,0.05797,0.013864,0.0,1.0,2387.758545,
53.647957,-60.557896,-59.364449,2.913837,0.02495,2.913837,0.02495,-59.999859,-60.0,21.323086,29.015242,12.566697,297.613953,12.85784,-0.02744,-0.002303,18.55019,-3.56E-4,0.058153,0.013928,0.0,1.0,2393.797363,
54.22197,-60.519501,-59.326054,2.917859,0.024875,2.917859,0.024875,-59.999859,-60.0,21.365206,29.504772,12.700582,297.619781,12.761926,-0.026026,-0.001001,21.231438,-3.56E-4,0.058277,0.013727,0.0,1.0,2397.830322,
55.082756,-60.460735,-59.267292,2.924047,0.024751,2.924047,0.024751,-59.999859,-60.0,21.429237,30.242092,12.90608,297.630737,12.622865,-0.023042,0.001034,18.145529,-3.55E-4,0.058357,0.013435,0.0,1.0,2403.890381,
55.656399,-60.420822,-59.227379,2.92839,0.024764,2.92839,0.024764,-59.999859,-60.0,21.472498,30.735605,13.043782,297.638031,12.534402,-0.020821,0.002212,22.977348,-3.54E-4,0.058481,0.012888,0.0,1.0,2407.9375,
56.516487,-60.359913,-59.16647,2.934633,0.025178,2.934633,0.025178,-59.999859,-60.0,21.538244,31.478733,13.249449,297.645905,12.409664,-0.017805,0.003275,18.846632,-3.54E-4,0.058568,0.012523,0.0,1.0,2414.018066,
57.089542,-60.318638,-59.125191,2.938896,0.025687,2.938896,0.025687,-59.999859,-60.0,21.582649,31.976006,13.386917,297.648102,12.332593,-0.016315,0.00342,19.013056,-3.6E-4,0.058693,0.012129,0.0,1.0,2418.078613,
57.948479,-60.255756,-59.062313,2.945007,0.026876,2.945007,0.026876,-59.999859,-60.0,21.650114,32.724613,13.593119,297.645844,12.227191,-0.015249,0.002748,16.238844,-3.67E-4,0.058778,0.012019,0.0,1.0,2424.179199,
58.52486,-60.213955,-59.020512,2.910595,0.028386,2.910595,0.028386,-59.999859,-60.0,21.684105,33.22546,9.048408,297.641266,12.164162,-0.01544,0.001902,18.783392,-3.84E-4,0.0589,0.012132,0.0,1.0,2428.254395,
59.390419,-60.154964,-58.961521,2.91357,0.029737,2.91357,0.029737,-59.999859,-60.0,21.730083,33.979366,9.325019,297.631653,12.080868,-0.016572,3.39E-4,23.77828,-4.06E-4,0.058212,0.012361,0.0,1.0,2434.387451,
59.965946,-60.117584,-58.924141,2.920619,0.030754,2.920619,0.030754,-59.999859,-60.0,21.761414,34.483673,9.462051,297.623932,12.033028,-0.017832,-7.72E-4,22.995476,-4.25E-4,0.058271,0.012842,0.0,1.0,2438.485352,
60.827888,-60.063541,-58.870094,2.929386,0.03174,2.929386,0.03174,-59.999859,-60.0,21.809332,35.242599,9.848529,297.613159,11.973,-0.020454,-0.00212,22.093575,-4.39E-4,0.058412,0.013228,0.0,1.0,2444.646484,
61.400612,-60.028248,-58.834805,2.940722,0.024444,2.940722,0.024444,-59.999859,-60.0,21.844316,35.75013,10.668982,297.607483,11.940869,-0.021714,-0.002816,21.932055,-4.53E-4,0.058588,0.013767,0.0,1.0,2448.803467,
62.258694,-59.975357,-58.78191,2.947038,0.025663,2.947038,0.025663,-59.999859,-60.0,21.898022,36.51371,10.809364,297.603699,11.90463,-0.022964,-0.002735,21.946295,-3.49E-4,0.058814,0.01405,0.0,1.0,2455.114746,
62.83028,-59.940022,-58.746578,2.950629,0.026425,2.950629,0.026425,-59.999859,-60.0,21.934227,37.024235,10.910489,297.604401,11.88835,-0.02329,-0.002188,21.997786,-3.67E-4,0.058941,0.01424,0.0,1.0,2459.356201,
63.687107,-59.886806,-58.693363,2.949149,0.027525,2.949149,0.027525,-59.999859,-60.0,21.988651,37.792164,10.237988,297.609558,11.875509,-0.023036,-8.25E-4,22.106833,-3.77E-4,0.059013,0.014204,0.0,1.0,2465.752686,
Command: fly_strait
64.262955,-59.852493,-58.65905,2.921168,0.027877,2.921168,0.027877,-59.999859,-60.0,22.009953,38.305546,6.183593,297.615295,11.874442,-0.022011,3.23E-4,20.757765,-3.93E-4,0.058983,0.013947,0.0,1.0,2470.037109,
65.12571,-59.805569,-58.612125,2.926146,0.031369,2.926146,0.031369,-59.999859,-60.0,22.041418,39.077724,6.386412,297.611786,11.883502,-0.021459,-4.26E-4,15.284226,-3.98E-4,0.058423,0.0,0.0,1.0,2476.493164,
65.699181,-59.776592,-58.583145,2.93211,0.032851,2.93211,0.032851,-59.999859,-60.0,22.062885,39.593868,6.484287,297.575684,11.896139,-0.022813,-0.006309,20.377151,-4.48E-4,0.058523,1.75E-4,0.0,1.0,2480.80957,
66.556564,-59.735626,-58.542183,2.938632,0.0322,2.938632,0.0322,-59.999859,-60.0,22.095606,40.370026,6.599079,297.47995,11.923452,-0.02892,-0.020469,15.317828,-4.69E-4,0.058642,0.001981,0.0,1.0,2487.294922,
67.125954,-59.709568,-58.516125,2.942714,0.030616,2.942714,0.030616,-59.999859,-60.0,22.117731,40.888683,6.673507,297.400879,11.94603,-0.035512,-0.031052,21.205572,-4.6E-4,0.058773,0.006767,0.0,1.0,2491.621582,
67.976875,-59.67181,-58.478367,2.948928,0.026806,2.948928,0.026806,-59.999859,-60.0,22.151398,41.668385,6.803639,297.29126,11.984229,-0.046911,-0.043361,14.958563,-4.37E-4,0.058854,0.010721,0.0,1.0,2498.110596,
68.542747,-59.647224,-58.453781,2.948346,0.011846,2.948346,0.011846,-59.999859,-60.0,22.175123,42.189255,7.509201,297.237823,12.011435,-0.054775,-0.047727,12.630533,-3.83E-4,0.058979,0.016202,0.0,1.0,2502.435303,
69.391106,-59.609863,-58.41642,2.916151,-0.101529,2.916151,-0.101529,-59.999859,-60.0,22.218834,42.972057,9.599422,297.209045,12.053983,-0.063623,-0.047457,17.727598,-1.69E-4,0.058967,0.018874,0.0,1.0,2508.926025,
69.958664,-59.583626,-58.390179,2.857939,-0.231227,2.857939,-0.231227,-59.999859,-60.0,22.251591,43.494892,9.936627,297.229309,12.084364,-0.065138,-0.042324,13.398429,0.00145,0.058323,0.020312,0.0,1.0,2513.262939,
70.813156,-59.54216,-58.348717,2.767544,-0.441503,2.767544,-0.441503,-59.999859,-60.0,22.300985,44.280598,9.758161,297.310577,12.1364,-0.059659,-0.028037,22.196325,0.003303,0.057159,0.019299,0.0,1.0,2519.793213,
71.384628,-59.513474,-58.32003,2.719252,-0.565926,2.719252,-0.565926,-59.999859,-60.0,22.333275,44.805405,9.572761,297.383148,12.17781,-0.051479,-0.016583,14.76977,0.006307,0.055351,0.015236,0.0,1.0,2524.165039,
72.241776,-59.469551,-58.276108,2.672494,-0.715581,2.672494,-0.715581,-59.999859,-60.0,22.380791,45.594166,9.521344,297.476288,12.25359,-0.035506,-0.003484,13.687407,0.008085,0.054385,0.011607,0.0,1.0,2530.748779,
72.811256,-59.439754,-58.246307,2.642672,-0.811572,2.642672,-0.811572,-59.999859,-60.0,22.412907,46.120995,9.710664,297.506958,12.314624,-0.024625,-8.79E-4,21.113182,0.010223,0.05345,0.00695,0.0,1.0,2535.147461,
73.664146,-59.394291,-58.200848,2.584791,-0.969445,2.584791,-0.969445,-59.999859,-60.0,22.461201,46.912621,7.818807,297.479614,12.423244,-0.011913,-0.009446,13.759988,0.011594,0.052853,0.005417,0.0,1.0,2541.753174,
74.238541,-59.364807,-58.171364,2.502017,-1.138954,2.502017,-1.138954,-59.999859,-60.0,22.479317,47.441299,4.865996,297.410706,12.507232,-0.006333,-0.02392,20.536371,0.013849,0.051696,0.006784,0.0,1.0,2546.167236,
75.102074,-59.324993,-58.13155,2.418604,-1.360271,2.418604,-1.360271,-59.999859,-60.0,22.503073,48.235733,4.984606,297.253479,12.650966,-9.23E-4,-0.050352,12.912712,0.016271,0.05004,0.010229,0.0,1.0,2552.819092,
75.674263,-59.300678,-58.107235,2.427743,-1.509903,2.427743,-1.509903,-59.999859,-60.0,22.522253,48.766296,6.668653,297.126648,12.758204,-0.002156,-0.069318,20.479244,0.019432,0.048372,0.018091,0.0,1.0,2557.266113,
76.521111,-59.263935,-58.070492,2.553721,-1.847709,2.553721,-1.847709,-59.999859,-60.0,22.574789,49.563454,16.881502,296.943085,12.935805,-0.007854,-0.095664,19.866816,0.02157,0.048555,0.024432,0.0,1.0,2563.931885,
77.073532,-59.233208,-58.039764,2.659289,-2.113802,2.659289,-2.113802,-59.999859,-60.0,22.656101,50.095596,32.13102,296.844666,13.066655,-0.010234,-0.108028,21.421736,0.026396,0.051074,0.033611,0.0,1.0,2568.360596,
77.874886,-59.158611,-57.965168,2.798061,-2.450997,2.798061,-2.450997,-59.999859,-60.0,22.887701,50.894367,60.205509,296.759247,13.285123,-0.011304,-0.11298,20.042271,0.030197,0.053186,0.038531,0.0,1.0,2574.956055,
78.387093,-59.077858,-57.884411,2.903402,-2.60313,2.903402,-2.60313,-59.999859,-60.0,23.122633,51.426914,80.147087,296.737701,13.447145,-0.009401,-0.108723,28.788452,0.035014,0.055961,0.042802,0.0,1.0,2579.300293,
79.120377,-58.892181,-57.698738,3.072407,-2.682008,3.072407,-2.682008,-59.999859,-60.0,23.603146,52.22514,111.321365,296.732178,13.715487,-0.002901,-0.095705,45.382507,0.037188,0.058068,0.04388,0.0,1.0,2585.69751,
79.583664,-58.716492,-57.523048,3.198153,-2.645316,3.198153,-2.645316,-59.999859,-60.0,24.010958,52.756466,132.64151,296.723938,13.910067,0.00326,-0.086953,58.340187,0.038314,0.061448,0.044156,0.0,1.0,2589.860107,
80.243317,-58.362587,-57.16914,3.363733,-2.49158,3.363733,-2.49158,-59.999859,-60.0,24.755716,53.551422,163.945663,296.675049,14.220551,0.013225,-0.079042,80.047821,0.03779,0.063963,0.044568,0.0,1.0,2595.921387,
80.661613,-58.061092,-56.867649,3.467115,-2.352076,3.467115,-2.352076,-59.999859,-60.0,25.335827,54.079605,183.298309,296.609222,14.435592,0.018855,-0.078828,95.543846,0.035594,0.067275,0.047012,0.0,1.0,2599.732178,
81.263733,-57.50528,-56.311836,3.591086,-2.148264,3.591086,-2.148264,-59.999859,-60.0,26.325726,54.868538,211.540176,296.472565,14.761161,0.024283,-0.084435,119.657059,0.033601,0.069342,0.050304,0.0,1.0,2604.356445,
81.6483,-57.063953,-55.870506,3.67584,-2.029717,3.67584,-2.029717,-59.999859,-60.0,27.061846,55.391933,229.389923,296.369659,14.974778,0.02567,-0.089824,136.066132,0.030689,0.071822,0.057136,0.0,1.0,2606.883057,
82.201981,-56.294693,-55.10125,3.797887,-1.89937,3.797887,-1.89937,-59.999859,-60.0,28.276594,56.172657,255.604324,296.238007,15.281614,0.025395,-0.094098,160.855804,0.028996,0.073517,0.062282,0.0,1.0,2610.114502,
82.554939,-55.710255,-54.516811,3.886034,-1.827917,3.886034,-1.827917,-49.999859,-50.0,29.158192,56.68993,272.696899,296.180573,15.473201,0.0251,-0.092047,177.398499,0.027134,0.075958,0.068864,0.0,1.0,2612.00293,
83.05899,-54.726658,-53.533215,4.007331,-1.721558,4.007331,-1.721558,-49.999859,-50.0,30.58614,57.460503,297.507965,296.157471,15.736087,0.026407,-0.079377,202.127884,0.026113,0.077721,0.071736,0.0,1.0,2614.555176,
83.378181,-54.000202,-52.806755,4.091821,-1.628451,4.091821,-1.628451,-49.999859,-50.0,31.607618,57.970345,315.103149,296.17804,15.892846,0.029581,-0.06587,218.498581,0.024594,0.080147,0.072891,0.0,1.0,2616.114258,
83.830978,-52.803711,-51.610268,4.220564,-1.445799,4.220564,-1.445799,-49.999859,-50.0,33.257977,58.728745,344.694977,296.234802,16.097004,0.03768,-0.04326,243.202194,0.023264,0.081836,0.071863,0.0,1.0,2618.290283,
84.11351,-51.932766,-50.739319,4.325209,-1.294464,4.325209,-1.294464,-49.999859,-50.0,34.443779,59.229774,366.047516,296.269287,16.21056,0.044554,-0.030052,260.051819,0.020654,0.084411,0.069025,0.0,1.0,2619.651611,
84.510818,-50.512157,-49.318714,4.470443,-1.055468,4.470443,-1.055468,-49.999859,-50.0,36.348545,59.973953,393.949097,296.285248,16.343493,0.055229,-0.018136,286.058289,0.018492,0.086504,0.0673,0.0,1.0,2621.580566,
84.762901,-49.488899,-48.295452,4.547758,-0.901973,4.547758,-0.901973,-49.999859,-50.0,37.688183,60.464947,408.810852,296.266541,16.404953,0.060965,-0.015911,303.516449,0.015078,0.089409,0.066502,0.0,1.0,2622.801025,
85.131866,-47.844673,-46.65123,4.607736,-0.725187,4.607736,-0.725187,-49.999859,-50.0,39.783566,61.193512,428.344757,296.206177,16.452736,0.066105,-0.019088,329.050964,0.012885,0.090955,0.067438,0.0,1.0,2624.551514,
85.372559,-46.679672,-45.486229,4.645547,-0.645641,4.645547,-0.645641,-49.999859,-50.0,41.231647,61.67387,439.962067,296.158844,16.453489,0.067079,-0.022792,345.35849,0.01036,0.092155,0.070456,0.0,1.0,2625.674561,
85.724205,-44.836086,-43.642643,4.716899,-0.588041,4.716899,-0.588041,-39.999859,-40.0,43.475719,62.386307,457.270935,296.10907,16.407272,0.066156,-0.025493,368.557068,0.009223,0.092911,0.072823,0.0,1.0,2627.302246,
85.950645,-43.54641,-42.352966,4.776383,-0.571644,4.776383,-0.571644,-39.999859,-40.0,45.020824,62.855789,469.456146,296.101807,16.345846,0.065363,-0.023404,383.241058,0.008401,0.094338,0.075311,0.0,1.0,2628.352539,
86.277107,-41.524635,-40.331192,4.861573,-0.550574,4.861573,-0.550574,-39.999859,-40.0,47.417889,63.55162,488.958466,296.136383,16.211239,0.065695,-0.013603,404.395996,0.008166,0.095528,0.075674,0.0,1.0,2629.87793,
86.484879,-40.119625,-38.926182,4.922867,-0.520957,4.922867,-0.520957,-39.999859,-40.0,49.070866,64.009819,502.378906,296.182159,16.095837,0.067767,-0.004021,418.11554,0.007865,0.097231,0.073946,0.0,1.0,2630.862061,
86.783012,-37.927132,-36.733688,5.007578,-0.4416,5.007578,-0.4416,-39.999859,-40.0,51.63488,64.688423,522.57428,296.256531,15.88896,0.073313,0.010068,438.369232,0.007442,0.098457,0.071657,0.0,1.0,2632.290527,
86.973549,-36.409103,-35.21566,5.066456,-0.36981,5.066456,-0.36981,-39.999859,-40.0,53.399944,65.134949,536.012451,296.294556,15.730977,0.077664,0.016798,451.732574,0.006309,0.100152,0.067938,0.0,1.0,2633.212646,
87.249634,-34.047909,-32.854465,5.144908,-0.261618,5.144908,-0.261618,-29.999857,-30.0,56.132038,65.79583,556.131714,296.313354,15.467415,0.083351,0.01958,471.641998,0.005283,0.101329,0.066037,0.0,1.0,2634.553955,
87.428078,-32.417912,-31.224466,5.199605,-0.20366,5.199605,-0.20366,-29.999857,-30.0,58.008392,66.230453,569.167114,296.300323,15.275772,0.085318,0.016898,484.842255,0.003737,0.102898,0.065097,0.0,1.0,2635.423584,
87.688858,-29.889925,-28.696482,5.272917,-0.164243,5.272917,-0.164243,-29.999857,-30.0,60.903652,66.873459,588.302246,296.258789,14.967641,0.085085,0.009005,504.507141,0.002909,0.103992,0.065749,0.0,1.0,2636.695068,
87.857895,-28.149885,-26.956442,5.325222,-0.168603,5.325222,-0.168603,-29.999857,-30.0,62.886459,67.296196,600.922913,296.231171,14.750804,0.08311,0.003841,517.50531,0.002346,0.105458,0.067825,0.0,1.0,2637.523438,
88.10318,-25.458765,-24.265322,5.400253,-0.208405,5.400253,-0.208405,-29.999857,-30.0,65.939751,67.921417,619.801025,296.216125,14.413587,0.079078,5.98E-4,536.82135,0.002409,0.106504,0.069206,0.0,1.0,2638.737549,
88.26001,-23.611143,-22.4177,5.456036,-0.240285,5.456036,-0.240285,-19.999857,-20.0,68.027489,68.332321,632.407898,296.230591,14.184422,0.077027,0.002474,549.582031,0.002977,0.108005,0.069959,0.0,1.0,2639.528076,
88.484131,-20.760033,-19.566589,5.534956,-0.266262,5.534956,-0.266262,-19.999857,-20.0,71.238548,68.939758,651.42688,296.284485,13.840806,0.07618,0.010401,568.574036,0.003433,0.109121,0.069235,0.0,1.0,2640.683594,
88.625702,-18.806414,-17.612968,5.591451,-0.260919,5.591451,-0.260919,-19.999857,-20.0,73.431816,69.338737,664.084778,296.331299,13.615507,0.077389,0.017161,581.155334,0.003804,0.110699,0.066541,0.0,1.0,2641.432373,
88.827599,-15.797025,-14.60358,5.667151,-0.218116,5.667151,-0.218116,-19.999857,-20.0,76.800896,69.928177,682.886902,296.390259,13.288577,0.080954,0.024878,599.930786,0.003727,0.111829,0.0642,0.0,1.0,2642.522217,
88.956192,-13.7384,-12.544955,5.719083,-0.177696,5.719083,-0.177696,-9.999858,-10.0,79.098335,70.315102,695.110535,296.411316,13.080283,0.083313,0.026717,612.384094,0.003116,0.113343,0.061252,0.0,1.0,2643.227295,
89.142509,-10.57273,-9.379286,5.786565,-0.126937,5.786565,-0.126937,-9.999858,-10.0,82.620003,70.886436,712.851746,296.40741,12.785126,0.085318,0.023335,630.940369,0.002539,0.114382,0.060199,0.0,1.0,2644.255371,
89.263092,-8.411174,-7.217729,5.832753,-0.111381,5.832753,-0.111381,-9.999858,-10.0,85.015785,71.261322,724.164124,296.386993,12.601097,0.084824,0.018217,643.197998,0.001813,0.115731,0.060394,0.0,1.0,2644.91626,
89.439148,-5.093856,-3.900412,5.894347,-0.127303,5.894347,-0.127303,1.42E-4,0.0,88.678993,71.814751,740.471802,296.351715,12.34621,0.081667,0.010043,661.346802,0.001591,0.116655,0.061415,0.0,1.0,2645.865967,
89.552887,-2.833469,-1.640025,5.938076,-0.157886,5.938076,-0.157886,1.42E-4,0.0,91.165344,72.177826,750.932495,296.338074,12.191833,0.078722,0.006469,673.249756,0.001819,0.117887,0.063179,0.0,1.0,2646.476318,
89.717041,0.717836,1.911281,5.998578,-0.211897,5.998578,-0.211897,1.42E-4,0.0,94.959656,72.713676,766.237244,296.34845,11.986566,0.07471,0.006492,690.760254,0.002256,0.118762,0.063861,0.0,1.0,2647.361084,
89.821342,3.18765,4.381094,6.042219,-0.239706,6.042219,-0.239706,1.42E-4,0.0,97.531036,73.065109,776.225708,296.375977,11.869078,0.073364,0.009911,702.189575,0.003027,0.119972,0.063342,0.0,1.0,2647.931885,
89.969727,6.963148,8.156592,6.101737,-0.248683,6.101737,-0.248683,10.000142,10.0,101.45034,73.583557,790.970703,296.433075,11.724594,0.073773,0.017485,718.962769,0.003424,0.120844,0.061966,0.0,1.0,2648.759033,
90.063438,9.526273,10.719717,6.143167,-0.233433,6.143167,-0.233433,10.000142,10.0,104.103516,73.923401,800.569031,296.469849,11.650396,0.075318,0.022083,729.902954,0.003553,0.122035,0.059111,0.0,1.0,2649.29126,
90.197906,13.438373,14.631817,6.196684,-0.190734,6.196684,-0.190734,10.000142,10.0,108.142632,74.424515,814.523376,296.501312,11.572612,0.078196,0.024738,745.959106,0.003335,0.122863,0.057272,0.0,1.0,2650.062256,
90.284477,16.090307,17.283752,6.232585,-0.162378,6.232585,-0.162378,20.000143,20.0,110.8731,74.752846,823.397583,296.502289,11.542528,0.07931,0.02312,756.426758,0.002725,0.123934,0.055699,0.0,1.0,2650.55957,
90.411301,20.131933,21.325377,6.278534,-0.143325,6.278534,-0.143325,20.000143,20.0,115.023087,75.236847,836.055908,296.479004,11.528305,0.078899,0.016666,771.756653,0.00232,0.124652,0.05565,0.0,1.0,2651.28418,
90.494087,22.867495,24.06094,6.310126,-0.15109,6.310126,-0.15109,20.000143,20.0,117.823784,75.553925,844.034302,296.457001,11.538298,0.077077,0.011502,781.713257,0.002048,0.125571,0.056815,0.0,1.0,2651.754639,
90.615303,27.030087,28.22353,6.352798,-0.190278,6.352798,-0.190278,30.000143,30.0,122.073761,76.021294,855.502747,296.436188,11.580897,0.073037,0.006152,796.223938,0.002158,0.126203,0.057915,0.0,1.0,2652.443604,
90.693451,29.84322,31.036663,6.383597,-0.224328,6.383597,-0.224328,30.000143,30.0,124.93821,76.327438,862.884033,296.438629,11.627086,0.070506,0.005462,805.604065,0.002718,0.127056,0.058955,0.0,1.0,2652.892334,
90.805573,34.117729,35.311172,6.426464,-0.263429,6.426464,-0.263429,30.000143,30.0,129.280716,76.77861,873.737305,296.46933,11.722315,0.068228,0.009042,819.231018,0.003205,0.127672,0.058833,0.0,1.0,2653.54834,
90.876404,37.002754,38.196198,6.457228,-0.273463,6.457228,-0.273463,40.000141,40.0,132.20546,77.074059,880.841858,296.501801,11.80257,0.068226,0.013314,828.029053,0.003763,0.128529,0.057298,0.0,1.0,2653.973389,
90.977112,41.381535,42.574978,6.498122,-0.258005,6.498122,-0.258005,40.000141,40.0,136.636749,77.509285,891.290466,296.548126,11.946568,0.070058,0.019095,840.822144,0.003907,0.129145,0.055675,0.0,1.0,2654.591553,
91.041145,44.333942,45.527386,6.525869,-0.234685,6.525869,-0.234685,40.000141,40.0,139.619385,77.794167,898.022644,296.567841,12.056829,0.071673,0.020938,849.097778,0.003686,0.129962,0.053358,0.0,1.0,2654.990967,
91.134209,48.810764,50.004208,6.56076,-0.199738,6.56076,-0.199738,50.000141,50.0,144.134674,78.213692,907.68103,296.570343,12.240212,0.07336,0.019079,861.150391,0.003353,0.130517,0.052373,0.0,1.0,2655.572266,
91.194969,51.826454,53.019901,6.584034,-0.187103,6.584034,-0.187103,50.000141,50.0,147.170807,78.488235,913.746826,296.556549,12.372174,0.073181,0.015361,868.948608,0.002853,0.131215,0.052248,0.0,1.0,2655.949463,
91.28479,56.394821,57.588264,6.614238,-0.196591,6.614238,-0.196591,60.000141,60.0,151.761993,78.892494,922.360046,296.527802,12.580842,0.070945,0.008689,880.283752,0.002673,0.131681,0.052937,0.0,1.0,2656.502686,
91.343559,59.469135,60.662579,6.635613,-0.219138,6.635613,-0.219138,60.000141,60.0,154.845978,79.157059,927.814026,296.51355,12.725201,0.068614,0.005279,887.593018,0.002808,0.132285,0.054375,0.0,1.0,2656.864014,
91.429138,64.12175,65.315193,6.665441,-0.26258,6.665441,-0.26258,60.000141,60.0,159.505615,79.546616,935.747681,296.514221,12.947107,0.065158,0.004111,898.178894,0.003131,0.132712,0.055087,0.0,1.0,2657.395264,
91.483749,67.24987,68.443314,6.687389,-0.287328,6.687389,-0.287328,70.000145,70.0,162.633728,79.801529,940.931335,296.530823,13.097528,0.063796,0.006057,904.987244,0.003751,0.133309,0.055054,0.0,1.0,2657.741699,
91.561333,71.980072,73.173515,6.717784,-0.300584,6.717784,-0.300584,70.000145,70.0,167.358276,80.176788,948.623169,296.570404,13.325219,0.063675,0.011357,914.844055,0.004105,0.133748,0.054224,0.0,1.0,2658.248291,
91.610138,75.158119,76.351563,6.739136,-0.292792,6.739136,-0.292792,70.000145,70.0,170.529068,80.422264,953.663147,296.597626,13.477248,0.064723,0.014878,921.194092,0.004294,0.134356,0.052245,0.0,1.0,2658.576904,
91.679977,79.960892,81.154335,6.766427,-0.2634,6.766427,-0.2634,80.000145,80.0,175.316467,80.783485,961.008301,296.622101,13.703179,0.066962,0.017235,930.415222,0.004183,0.134783,0.050883,0.0,1.0,2659.05542,
91.725037,83.18589,84.379333,6.784444,-0.242192,6.784444,-0.242192,80.000145,80.0,178.527924,81.019714,965.669067,296.623322,13.850636,0.067955,0.016254,936.372742,0.003763,0.135329,0.04966,0.0,1.0,2659.365967,
91.791542,88.056877,89.25032,6.806866,-0.226448,6.806866,-0.226448,90.000145,90.0,183.373505,81.367271,972.271484,296.605194,14.063899,0.067891,0.01152,945.033386,0.00346,0.135689,0.049599,0.0,1.0,2659.820557,
91.835442,91.325729,92.519173,6.822109,-0.23118,6.822109,-0.23118,90.000145,90.0,186.621582,81.594551,976.396484,296.587067,14.199121,0.066611,0.007531,950.622864,0.003235,0.136137,0.050505,0.0,1.0,2660.117676,
91.900352,96.25985,97.453293,6.84278,-0.259994,6.84278,-0.259994,100.000145,100.0,191.518906,81.928978,982.296936,296.568024,14.38938,0.063568,0.003192,958.723694,0.003303,0.136442,0.051411,0.0,1.0,2660.555908,
91.942474,99.568977,100.762421,6.858039,-0.285929,6.858039,-0.285929,100.000145,100.0,194.799805,82.147675,986.100159,296.567444,14.507113,0.061601,0.002451,963.933044,0.003714,0.136856,0.052364,0.0,1.0,2660.843262,
92.002922,104.560928,105.754372,6.879878,-0.316528,6.879878,-0.316528,100.000145,100.0,199.744858,82.46946,991.736755,296.587708,14.669556,0.059784,0.004962,971.464844,0.004085,0.137161,0.052393,0.0,1.0,2661.266357,
92.040932,107.907082,109.100533,6.895893,-0.324856,6.895893,-0.324856,110.000145,110.0,203.057098,82.679855,995.470703,296.610809,14.768322,0.059773,0.008164,976.306641,0.004522,0.137598,0.051379,0.0,1.0,2661.542236,
92.094612,112.952705,114.146156,6.917291,-0.313663,6.917291,-0.313663,110.000145,110.0,208.048798,82.989326,1001.012207,296.644348,14.901961,0.061236,0.012609,983.322754,0.004641,0.137918,0.050224,0.0,1.0,2661.945557,
92.128593,116.333603,117.527046,6.931713,-0.295906,6.931713,-0.295906,120.000145,120.0,211.391724,83.191597,1004.600159,296.658356,14.981026,0.062558,0.014066,987.849731,0.004481,0.138346,0.048547,0.0,1.0,2662.20752,
92.178055,121.429886,122.623329,6.949374,-0.268912,6.949374,-0.268912,120.000145,120.0,216.428116,83.489037,1009.735779,296.6586,15.083632,0.063994,0.012705,994.432251,0.004227,0.138634,0.047847,0.0,1.0,2662.590576,
92.210594,124.843544,126.036987,6.960898,-0.258977,6.960898,-0.258977,120.000145,120.0,219.799469,83.683426,1012.937195,296.64679,15.140769,0.063934,0.00988,998.68689,0.003842,0.138987,0.047835,0.0,1.0,2662.84082,
92.259171,129.987259,131.180695,6.975643,-0.265949,6.975643,-0.265949,130.000137,130.0,224.875931,83.969284,1017.448181,296.623016,15.208855,0.062294,0.004813,1004.866638,0.0037,0.139218,0.048425,0.0,1.0,2663.209717,
92.291191,133.431244,134.624695,6.986229,-0.282989,6.986229,-0.282989,130.000137,130.0,228.272354,84.15612,1020.293274,296.611084,15.242477,0.060545,0.002251,1008.848083,0.003799,0.139513,0.049614,0.0,1.0,2663.452393,
92.33783,138.618454,139.811905,7.001549,-0.315636,7.001549,-0.315636,140.000137,140.0,233.384583,84.430893,1024.454956,296.610443,15.276003,0.057969,0.001488,1014.608582,0.004043,0.139725,0.050211,0.0,1.0,2663.811279,
92.367424,142.090179,143.28363,7.013194,-0.333833,7.013194,-0.333833,140.000137,140.0,236.804184,84.610481,1027.210083,296.622467,15.287883,0.057009,0.003076,1018.309631,0.004509,0.140031,0.050243,0.0,1.0,2664.046631,
92.408997,147.317383,148.510834,7.02962,-0.342393,7.02962,-0.342393,150.000137,150.0,241.950928,84.874542,1031.350586,296.65152,15.291626,0.057086,0.007233,1023.66449,0.004769,0.140264,0.049641,0.0,1.0,2664.392578,
92.434814,150.814911,152.008362,7.041202,-0.335263,7.041202,-0.335263,150.000137,150.0,245.393494,85.047073,1034.090576,296.671112,15.28559,0.058011,0.009925,1027.114136,0.004891,0.140592,0.048189,0.0,1.0,2664.617676,
92.471428,156.079788,157.273224,7.055743,-0.311515,7.055743,-0.311515,160.000137,160.0,250.574341,85.300667,1038.090454,296.687408,15.264812,0.059872,0.011622,1032.127075,0.004789,0.140824,0.047209,0.0,1.0,2664.947266,
92.495003,159.601791,160.795227,7.065119,-0.294969,7.065119,-0.294969,160.000137,160.0,254.039032,85.466316,1040.615356,296.686493,15.24352,0.060682,0.010762,1035.369507,0.00445,0.141115,0.046394,0.0,1.0,2665.161865,
92.529968,164.902328,166.095779,7.076425,-0.283384,7.076425,-0.283384,160.000137,160.0,259.251373,85.70977,1044.15625,296.670227,15.200904,0.060642,0.007044,1040.089111,0.004214,0.141302,0.04644,0.0,1.0,2665.477295,
92.55323,168.447296,169.640732,7.084039,-0.287589,7.084039,-0.287589,170.000137,170.0,262.735687,85.868797,1046.344116,296.655334,15.165765,0.059655,0.004021,1043.138062,0.004048,0.141529,0.047253,0.0,1.0,2665.68457,
92.587776,173.780823,174.974258,7.094532,-0.310149,7.094532,-0.310149,170.000137,170.0,267.975525,86.102562,1049.459351,296.640381,15.104096,0.057351,9.26E-4,1047.558228,0.004108,0.141681,0.047998,0.0,1.0,2665.991699,
92.610161,177.346756,178.540192,7.102529,-0.329669,7.102529,-0.329669,180.000137,180.0,271.477203,86.25528,1051.475464,296.640198,15.058002,0.055924,5.88E-4,1050.400146,0.004431,0.141891,0.048746,0.0,1.0,2666.194092,
92.64196,182.710312,183.903748,7.114345,-0.351304,7.114345,-0.351304,180.000137,180.0,276.742371,86.479744,1054.494629,296.656067,14.983478,0.05474,0.00283,1054.506592,0.00471,0.142051,0.048755,0.0,1.0,2666.493164,
92.661652,186.295456,187.488892,7.123145,-0.355883,7.123145,-0.355883,190.000137,190.0,280.260834,86.626366,1056.519897,296.673492,14.931447,0.0549,0.005397,1057.145142,0.005019,0.142287,0.047961,0.0,1.0,2666.688965,
92.689011,191.68689,192.880325,7.134813,-0.344717,7.134813,-0.344717,190.000137,190.0,285.55127,86.841812,1059.543091,296.69751,14.851722,0.056244,0.008749,1060.968384,0.005084,0.142463,0.04709,0.0,1.0,2666.976318,
92.706146,195.290115,196.483566,7.142508,-0.329965,7.142508,-0.329965,190.000137,190.0,289.086456,86.982491,1061.49707,296.70636,14.798211,0.05734,0.009704,1063.435913,0.004925,0.142696,0.045889,0.0,1.0,2667.163574,
92.731102,200.707993,201.901443,7.151532,-0.309183,7.151532,-0.309183,200.000137,200.0,294.401184,87.189163,1064.264771,296.70343,14.718221,0.05845,0.008374,1067.025757,0.004714,0.14285,0.045447,0.0,1.0,2667.438721,
92.747658,204.328339,205.52179,7.157226,-0.302377,7.157226,-0.302377,200.000137,200.0,297.951691,87.324097,1065.962036,296.692688,14.66539,0.058357,0.006084,1069.346558,0.004417,0.143031,0.045593,0.0,1.0,2667.619141,
92.772644,209.770935,210.964386,7.164414,-0.30943,7.164414,-0.30943,210.000137,210.0,303.287659,87.522354,1068.320435,296.67334,14.587473,0.057022,0.002257,1072.715698,0.00432,0.143145,0.04613,0.0,1.0,2667.886475,
92.789238,213.406998,214.600449,7.169683,-0.323264,7.169683,-0.323264,210.000137,210.0,306.851288,87.651817,1069.798096,296.664429,14.536938,0.055687,4.92E-4,1074.883423,0.00442,0.143288,0.047098,0.0,1.0,2668.063232,
92.8134,218.871979,220.06543,7.177622,-0.347905,7.177622,-0.347905,220.000137,220.0,312.205902,87.842064,1071.969116,296.665192,14.464505,0.053838,3.33E-4,1078.012817,0.004618,0.143394,0.047543,0.0,1.0,2668.325684,
92.828568,222.522232,223.715683,7.183855,-0.360517,7.183855,-0.360517,220.000137,220.0,315.781616,87.966293,1073.424805,296.675201,14.419322,0.053261,0.00181,1080.018433,0.00497,0.143552,0.047505,0.0,1.0,2668.498779,
92.84951,228.007599,229.20105,7.192773,-0.364102,7.192773,-0.364102,230.000137,230.0,321.154449,88.148811,1075.640015,296.697449,14.357596,0.053594,0.005166,1082.913574,0.00515,0.143677,0.047005,0.0,1.0,2668.75415,
92.862297,231.671005,232.864441,7.198998,-0.356686,7.198998,-0.356686,230.000137,230.0,324.742462,88.267967,1077.116455,296.711395,14.321057,0.054445,0.007159,1084.775269,0.005201,0.143855,0.045892,0.0,1.0,2668.921143,
92.880302,237.175583,238.369034,7.206497,-0.336962,7.206497,-0.336962,240.000137,240.0,330.133636,88.442978,1079.261597,296.721008,14.273627,0.055962,0.008143,1087.477417,0.005096,0.14398,0.045195,0.0,1.0,2669.166748,
92.891975,240.851486,242.044937,7.211096,-0.324417,7.211096,-0.324417,240.000137,240.0,333.73349,88.557205,1080.595215,296.718109,14.246895,0.056551,0.007236,1089.223755,0.004814,0.14413,0.044714,0.0,1.0,2669.327637,
92.909607,246.374268,247.567719,7.21635,-0.317288,7.21635,-0.317288,250.000137,250.0,339.141296,88.72496,1082.429077,296.703278,14.213812,0.056389,0.004177,1091.762329,0.004635,0.144222,0.044859,0.0,1.0,2669.565674,
92.921562,250.061829,251.255264,7.219854,-0.322017,7.219854,-0.322017,250.000137,250.0,342.751343,88.83448,1083.541748,296.691315,14.196265,0.055557,0.001896,1093.398926,0.004533,0.144327,0.045601,0.0,1.0,2669.723145,
92.939491,255.601212,256.794647,7.22491,-0.340676,7.22491,-0.340676,260.000153,260.0,348.173126,88.995354,1085.120117,296.680695,14.176665,0.053775,-1.51E-4,1095.764526,0.0046,0.144397,0.046199,0.0,1.0,2669.957764,
92.95108,259.299225,260.492676,7.228998,-0.355468,7.228998,-0.355468,260.000153,260.0,351.791992,89.100388,1086.154175,296.681763,14.168236,0.052769,-1.01E-4,1097.279663,0.004867,0.144498,0.04673,0.0,1.0,2670.113037,
Command: turn_+45
92.965317,264.853455,266.046906,7.236917,-0.399398,7.236917,-0.399398,260.000153,260.0,357.226837,89.254677,1087.751831,296.756042,14.162867,0.040033,0.012605,1099.461304,0.001693,0.14458,0.1,0.0,1.0,2670.343262,
92.965652,268.560974,269.754395,7.250823,-0.421026,7.250823,-0.421026,270.000153,270.0,360.854797,89.355316,1089.057129,296.955109,14.165275,0.038967,0.044122,1100.859985,0.001902,0.144738,0.1,0.0,1.0,2670.489258,
92.942947,274.129486,275.322937,7.283213,-0.277792,7.283213,-0.277792,270.000153,270.0,366.307678,89.50267,1092.279785,297.381653,14.182609,0.056292,0.108671,1102.908447,0.002005,0.145016,0.1,0.0,1.0,2670.678711,
92.912773,277.847473,279.040924,7.305138,-0.044278,7.305138,-0.044278,280.000153,280.0,369.953644,89.598267,1095.277222,297.670776,14.204579,0.076673,0.14973,1104.290405,0.001323,0.145664,0.1,0.0,1.0,2670.775635,
92.855446,283.43515,284.628601,7.319447,0.456379,7.319447,0.456379,280.000153,280.0,375.442047,89.737343,1099.815308,298.005707,14.24982,0.111322,0.191284,1106.496094,2.11E-4,0.146103,0.1,0.0,1.0,2670.874023,
92.816902,287.168457,288.361908,7.319857,0.836157,7.319857,0.836157,290.000153,290.0,379.112274,89.827095,1102.128296,298.133667,14.283002,0.131638,0.20153,1108.091675,-0.002173,0.146389,0.1,0.0,1.0,2670.914307,
92.767754,292.781097,293.974548,7.311491,1.359281,7.311491,1.359281,290.000153,290.0,384.628815,89.957329,1104.092529,298.190735,14.324897,0.151646,0.19316,1110.64624,-0.003982,0.146397,0.1,0.0,1.0,2670.956055,
92.742638,296.530609,297.72403,7.304215,1.639135,7.304215,1.639135,300.000153,300.0,388.309753,90.041367,1104.342651,298.169586,14.340027,0.15656,0.17769,1112.397339,-0.006473,0.14623,0.1,0.0,1.0,2670.981689,
92.715424,302.16394,303.357391,7.295458,1.912217,7.295458,1.912217,300.000153,300.0,393.829956,90.16362,1103.580811,298.121002,14.332877,0.153094,0.151856,1114.952271,-0.007805,0.146084,0.1,0.0,1.0,2671.029053,
92.702484,305.923798,307.117218,7.289669,2.009578,7.289669,2.009578,310.000153,310.0,397.506927,90.242798,1102.59021,298.116394,14.304504,0.146211,0.139475,1116.523926,-0.009106,0.145909,0.1,0.0,1.0,2671.06958,
92.687057,311.566803,312.760223,7.282227,2.068686,7.282227,2.068686,310.000153,310.0,403.01535,90.35836,1100.822144,298.194183,14.224912,0.134512,0.134621,1118.571289,-0.009569,0.145793,0.1,0.0,1.0,2671.144043,
92.677048,315.329376,316.522827,7.277606,2.086608,7.277606,2.086608,310.000153,310.0,406.6828,90.433395,1099.701904,298.309235,14.148621,0.128571,0.14125,1119.689819,-0.009851,0.145645,0.1,0.0,1.0,2671.200195,
92.658859,320.972046,322.165497,7.27326,2.132849,7.27326,2.132849,320.000153,320.0,412.177734,90.542999,1098.412354,298.559601,14.004375,0.125149,0.162404,1120.980713,-0.009936,0.145552,0.1,0.0,1.0,2671.288086,
92.643471,324.732361,325.925812,7.27119,2.196161,7.27119,2.196161,320.000153,320.0,415.838165,90.614105,1097.897217,298.757721,13.891791,0.126755,0.180273,1121.599976,-0.010156,0.145465,0.1,0.0,1.0,2671.344971,
92.615784,330.370148,331.563599,7.268818,2.346712,7.268818,2.346712,330.000153,330.0,421.326538,90.717781,1097.528198,299.062195,13.703608,0.133473,0.205997,1122.227661,-0.010458,0.145424,0.1,0.0,1.0,2671.422852,
92.595512,334.126923,335.320343,7.266615,2.476997,7.266615,2.476997,330.000153,330.0,424.984741,90.784882,1097.412842,299.251404,13.567602,0.139245,0.219458,1122.487793,-0.011175,0.145376,0.1,0.0,1.0,2671.46875,
92.565277,339.759705,340.953125,7.262158,2.686776,7.262158,2.686776,340.000153,340.0,430.471191,90.882515,1097.134033,299.497986,13.350274,0.14718,0.231686,1122.705933,-0.011795,0.145332,0.1,0.0,1.0,2671.530762,
92.546638,343.513336,344.706787,7.25818,2.821262,7.25818,2.821262,340.000153,340.0,434.127716,90.945625,1096.744019,299.637665,13.197407,0.150773,0.234878,1122.762207,-0.012794,0.145243,0.1,0.0,1.0,2671.569824,
92.522293,349.141266,350.334717,7.251888,2.987713,7.251888,2.987713,350.000153,350.0,439.6091,91.03746,1095.769409,299.823425,12.957445,0.152816,0.234728,1122.730591,-0.013435,0.145164,0.1,0.0,1.0,2671.62915,
92.50856,352.891205,354.084625,7.247009,3.071559,7.247009,3.071559,350.000153,350.0,443.260162,91.096886,1094.874634,299.943054,12.791459,0.152118,0.233474,1122.630493,-0.014227,0.145038,0.1,0.0,1.0,2671.671631,
92.491005,358.512238,359.705688,7.239954,3.155602,7.239954,3.155602,360.000153,360.0,448.73053,91.183479,1093.286865,300.135376,12.536371,0.149166,0.233026,1122.348022,-0.014626,0.14494,0.1,0.0,1.0,2671.741455,
92.480621,362.256531,363.449982,7.234776,3.192597,7.234776,3.192597,360.000153,360.0,452.372894,91.239594,1092.156738,300.279785,12.364645,0.146811,0.234943,1122.062744,-0.015027,0.144799,0.1,0.0,1.0,2671.792236,
92.465683,367.867615,369.061066,7.227859,3.234506,7.227859,3.234506,370.000153,370.0,457.829346,91.321472,1090.507446,300.525055,12.109617,0.144046,0.241658,1121.482788,-0.015203,0.144696,0.1,0.0,1.0,2671.873535,
92.455528,371.604401,372.797852,7.22316,3.263219,7.22316,3.263219,370.000153,370.0,461.462646,91.374573,1089.507202,300.705261,11.944571,0.143202,0.248219,1120.998169,-0.015402,0.144557,0.1,0.0,1.0,2671.929688,
92.439407,377.2034,378.396851,7.217313,3.316959,7.217313,3.316959,380.000153,380.0,466.906677,91.452034,1088.19873,300.99118,11.71001,0.143622,0.259487,1120.142212,-0.015539,0.144463,0.1,0.0,1.0,2672.015381,
92.428078,380.931946,382.125397,7.213412,3.362383,7.213412,3.362383,380.000153,380.0,470.532715,91.502243,1087.449951,301.185486,11.56527,0.144793,0.266845,1119.501709,-0.015795,0.144346,0.1,0.0,1.0,2672.072266,
92.410698,386.518707,387.712128,7.208372,3.440725,7.208372,3.440725,390.000153,390.0,475.967285,91.575432,1086.434692,301.473022,11.369917,0.147185,0.276133,1118.467163,-0.016011,0.144268,0.1,0.0,1.0,2672.156982,
92.399269,390.239288,391.432739,7.204816,3.496383,7.204816,3.496383,390.000153,390.0,479.587646,91.622833,1085.785034,301.658875,11.256209,0.148728,0.280725,1117.744995,-0.016384,0.144167,0.1,0.0,1.0,2672.213379,
92.383041,395.814545,397.007965,7.199913,3.575081,7.199913,3.575081,400.000153,400.0,485.013977,91.691917,1084.770996,301.928314,11.113163,0.150382,0.285234,1116.634521,-0.016649,0.144096,0.1,0.0,1.0,2672.298096,
92.37307,399.527679,400.72113,7.196322,3.621488,7.196322,3.621488,400.000153,400.0,488.628632,91.736664,1084.046997,302.103546,11.037421,0.150864,0.287078,1115.883667,-0.017024,0.143998,0.1,0.0,1.0,2672.355713,
92.359505,405.091919,406.28537,7.191278,3.676991,7.191278,3.676991,400.000153,400.0,494.045898,91.801903,1082.88147,302.365204,10.955103,0.150713,0.289062,1114.746704,-0.017245,0.143926,0.1,0.0,1.0,2672.44458,
92.35128,408.797729,409.99115,7.18759,3.705652,7.18759,3.705652,410.000153,410.0,497.654114,91.844193,1082.06897,302.542053,10.922079,0.150203,0.290447,1113.981323,-0.017509,0.143826,0.1,0.0,1.0,2672.505859,
92.339844,414.3508,415.54425,7.182527,3.738239,7.182527,3.738239,410.000153,410.0,503.061279,91.905899,1080.839478,302.814911,10.90691,0.149245,0.293253,1112.819946,-0.017646,0.143752,0.1,0.0,1.0,2672.60083,
92.332642,418.049042,419.242493,7.178942,3.75634,7.178942,3.75634,420.000153,420.0,506.662689,91.945923,1080.04187,303.002747,10.920554,0.148707,0.295754,1112.036133,-0.017801,0.143651,0.1,0.0,1.0,2672.666016,
92.331345,423.590698,424.784149,7.174201,3.782365,7.174201,3.782365,420.000153,420.0,512.06012,92.004356,1078.998413,303.292328,10.977848,0.148396,0.300252,1110.848389,-0.017887,0.143579,0.1,0.0,1.0,2672.772705,
92.330589,427.281433,428.474854,7.171078,3.801606,7.171078,3.801606,430.000153,430.0,515.655762,92.042259,1078.421387,303.488708,11.041069,0.148556,0.303445,1110.054077,-0.018011,0.143484,0.1,0.0,1.0,2672.850586,
92.329208,432.812164,434.005585,7.167608,3.833819,7.167608,3.833819,430.000153,430.0,521.045959,92.097565,1077.707397,303.78476,11.173727,0.149182,0.307942,1108.873779,-0.018103,0.143422,0.1,0.0,1.0,2672.973877,
92.328194,436.495972,437.689423,7.16554,3.857169,7.16554,3.857169,440.000153,440.0,524.637634,92.13343,1077.324829,303.981384,11.287217,0.149705,0.310494,1108.104126,-0.018256,0.143352,0.1,0.0,1.0,2673.059082,
92.326706,442.01712,443.210571,7.163126,3.891929,7.163126,3.891929,440.000153,440.0,530.022949,92.185753,1076.838501,304.273712,11.49419,0.150411,0.313456,1106.991211,-0.018367,0.143311,0.1,0.0,1.0,2673.190186,
92.325844,445.695099,446.88855,7.161552,3.913854,7.161552,3.913854,450.000153,450.0,533.611938,92.219673,1076.551147,304.466949,11.655897,0.150721,0.314904,1106.284058,-0.018533,0.143263,0.1,0.0,1.0,2673.279297,
92.324837,451.208221,452.401672,7.159576,3.942247,7.159576,3.942247,450.000153,450.0,538.993652,92.269157,1076.143066,304.755493,11.932355,0.150885,0.316533,1105.283447,-0.018637,0.143231,0.1,0.0,1.0,2673.415527,
92.324371,454.881256,456.074707,7.158252,3.958143,7.158252,3.958143,450.000153,450.0,542.580322,92.301239,1075.883423,304.948029,12.138118,0.150813,0.317459,1104.658081,-0.018773,0.143192,0.1,0.0,1.0,2673.507568,
92.323883,460.387573,461.581024,7.156567,3.977244,7.156567,3.977244,460.000153,460.0,547.95874,92.348053,1075.512451,305.2388,12.476802,0.150544,0.318898,1103.782227,-0.018848,0.143165,0.1,0.0,1.0,2673.647705,
92.323639,464.056396,465.249817,7.155433,3.987851,7.155433,3.987851,460.000153,460.0,551.543396,92.37841,1075.283813,305.434601,12.72129,0.150337,0.320005,1103.238525,-0.018939,0.143131,0.1,0.0,1.0,2673.741943,
92.323273,469.556763,470.750183,7.153903,4.001941,7.153903,4.001941,470.000153,470.0,556.919006,92.422714,1074.971436,305.731506,13.113669,0.150106,0.321929,1102.47998,-0.019013,0.143099,0.1,0.0,1.0,2673.884766,
92.3228,475.053925,476.247375,7.152721,4.015432,7.152721,4.015432,470.000153,470.0,562.293152,92.465576,1074.711914,306.031616,13.533792,0.150048,0.324063,1101.786377,-0.019057,0.143078,0.1,0.0,1.0,2674.028564,
92.322388,478.717041,479.910492,7.151954,4.024838,7.151954,4.024838,480.000153,480.0,565.875305,92.49337,1074.569214,306.232849,13.827521,0.150109,0.325501,1101.358398,-0.019121,0.143054,0.1,0.0,1.0,2674.125,
92.321671,484.209442,485.402893,7.151016,4.039488,7.151016,4.039488,480.000153,480.0,571.247681,92.53392,1074.386841,306.535339,14.285804,0.150307,0.327513,1100.766357,-0.019166,0.143039,0.1,0.0,1.0,2674.269531,
92.321144,487.869629,489.06308,7.150415,4.049585,7.150415,4.049585,490.000153,490.0,574.828796,92.560211,1074.28125,306.737,14.601438,0.150467,0.328693,1100.403809,-0.019236,0.14302,0.1,0.0,1.0,2674.366211,
92.320618,491.528778,492.722229,7.14991,4.059475,7.14991,4.059475,490.000153,490.0,578.409546,92.585915,1074.182495,306.938416,14.923788,0.150616,0.329717,1100.06604,-0.019284,0.143008,0.1,0.0,1.0,2674.463135,
92.321571,497.013367,498.206818,7.149248,4.07337,7.149248,4.07337,500.000153,500.0,583.78009,92.623421,1074.046143,307.240051,15.41732,0.150781,0.330979,1099.485596,-0.019331,0.142998,0.1,0.0,1.0,2674.608398,
92.319214,500.669342,501.862793,7.148773,4.081841,7.148773,4.081841,500.000153,500.0,587.360107,92.647728,1073.9552,307.44101,15.751306,0.15083,0.331682,1099.181763,-0.019397,0.142985,0.1,0.0,1.0,2674.705566,
92.320396,506.152405,507.345856,7.148149,4.092781,7.148149,4.092781,510.000153,510.0,592.729492,92.683182,1073.817017,307.742706,16.256884,0.150827,0.332617,1098.79895,-0.019437,0.142975,0.1,0.0,1.0,2674.851563,
92.318283,511.633728,512.827148,7.147523,4.101967,7.147523,4.101967,510.000153,510.0,598.098267,92.719032,1073.680054,308.045258,16.76474,0.150764,0.333521,1098.464233,-0.019489,0.142963,0.1,0.0,1.0,2674.998047,
92.317268,515.284607,516.478027,7.14711,4.107336,7.14711,4.107336,510.000153,510.0,601.677063,92.742638,1073.590088,308.24765,17.102882,0.150715,0.334145,1098.147461,-0.019533,0.14295,0.1,0.0,1.0,2675.095703,
92.317116,520.764893,521.958374,7.146602,4.114557,7.146602,4.114557,520.000122,520.0,607.044678,92.777092,1073.464844,308.552368,17.607105,0.150661,0.335124,1097.990967,-0.019559,0.142942,0.1,0.0,1.0,2675.24292,
92.316948,524.417297,525.610718,7.146259,4.119174,7.146259,4.119174,520.000122,520.0,610.622742,92.799446,1073.389282,308.756134,17.940008,0.150651,0.335794,1097.867432,-0.019593,0.142932,0.1,0.0,1.0,2675.341064,
92.316643,529.894165,531.087646,7.145821,4.125958,7.145821,4.125958,530.000122,530.0,615.989441,92.832085,1073.285645,309.0625,18.432531,0.150679,0.336785,1097.666992,-0.019615,0.142925,0.1,0.0,1.0,2675.48877,
92.316414,533.544434,534.737854,7.145531,4.130534,7.145531,4.130534,530.000122,530.0,619.566956,92.853256,1073.22229,309.266998,18.755302,0.150719,0.33741,1097.528687,-0.019647,0.142916,0.1,0.0,1.0,2675.587158,
92.316055,539.018372,540.211792,7.145172,4.137278,7.145172,4.137278,540.000122,540.0,624.9328,92.884155,1073.133667,309.573944,19.229542,0.150794,0.338259,1097.320923,-0.019669,0.142911,0.1,0.0,1.0,2675.734863,
92.315811,542.666687,543.860168,7.144933,4.141681,7.144933,4.141681,540.000122,540.0,628.509827,92.904205,1073.077759,309.778595,19.538303,0.150841,0.338757,1097.184692,-0.019701,0.142903,0.1,0.0,1.0,2675.833252,
92.315468,548.137939,549.33136,7.144625,4.14782,7.144625,4.14782,550.000122,550.0,633.875,92.933464,1072.995361,310.085541,19.989229,0.150892,0.339408,1096.986572,-0.019722,0.142899,0.1,0.0,1.0,2675.981201,
92.315262,551.784546,552.978027,7.144412,4.1516,7.144412,4.1516,550.000122,550.0,637.451538,92.952446,1072.940918,310.290253,20.281176,0.150909,0.339791,1096.859497,-0.019752,0.142892,0.1,0.0,1.0,2676.079834,
