airspeed_indicator_indicated_speed_kt,altimeter_indicated_altitude_ft,altimeter_pressure_alt_ft,attitude_indicator_indicated_pitch_deg,attitude_indicator_indicated_roll_deg,attitude_indicator_internal_pitch_deg,attitude_indicator_internal_roll_deg,encoder_indicated_altitude_ft,encoder_pressure_alt_ft,gps_indicated_altitude_ft,gps_indicated_ground_speed_kt,gps_indicated_vertical_speed,indicated_heading_deg,magnetic_compass_indicated_heading_deg,slip_skid_ball_indicated_slip_skid,turn_indicator_indicated_turn_rate,vertical_speed_indicator_indicated_speed_fpm,flight_aileron,flight_elevator,flight_rudder,flight_flaps,engine_throttle,engine_rpm,
Command: takeoff
24.889257,-226.527023,-225.333572,3.04531,0.69895,2.711022,-0.415345,-219.999863,-220.0,17.857658,5.9E-5,0.003149,297.864655,104.807693,0.043813,-0.032687,-1671.44043,-0.0,0.0,0.0,0.0,0.0,605.315857,
24.910374,-231.937119,-230.743683,3.045022,0.692464,2.712684,-0.415332,-229.999863,-230.0,17.857668,5.8E-5,0.002613,297.8638,101.811516,0.043807,-0.029571,-1672.243896,-0.0,0.0,0.0,0.0,0.0,605.215698,
24.914541,-240.054611,-238.86116,2.862177,0.102572,2.706747,-0.415526,-239.999863,-240.0,17.857632,8.3E-5,-0.018255,297.862579,97.518089,0.043682,-0.025447,-1673.310425,-0.009892,0.054254,4.3E-5,0.0,1.0,678.63324,
24.895351,-245.463333,-244.269882,2.736858,-0.244651,2.685201,-0.41684,-239.999863,-240.0,17.857534,1.93E-4,-0.04187,297.861816,94.81604,0.043527,-0.023051,-1673.767944,-0.001465,0.054135,1.04E-4,0.0,1.0,792.242615,
24.927084,-250.436218,-249.242767,2.655296,-0.408032,2.651814,-0.419638,-249.999863,-250.0,17.857393,4.75E-4,-0.041535,297.861084,92.467667,0.042894,-0.021097,-1674.690674,0.003495,0.053704,1.42E-4,0.0,1.0,924.406067,
24.924582,-258.849182,-257.655731,2.615913,-0.428539,2.615913,-0.428539,-259.999847,-260.0,17.857302,0.002735,0.007336,297.859406,88.824219,0.042518,-0.018355,-1677.744019,0.005829,0.053036,1.79E-4,0.0,1.0,1174.47168,
24.923037,-262.690643,-261.497192,2.611579,-0.434281,2.611579,-0.434281,-259.999847,-260.0,17.857351,0.005279,0.03286,297.858276,87.288399,0.042496,-0.017333,-1678.018433,0.006122,0.052318,2.62E-4,0.0,1.0,1290.758179,
24.872738,-272.534729,-271.341309,2.622794,-0.452285,2.622794,-0.452285,-269.999847,-270.0,17.857737,0.019125,0.094325,297.853424,83.81958,0.04324,-0.015439,-1682.746094,0.006204,0.052232,3.19E-4,0.0,1.0,1563.092773,
24.867031,-280.834167,-279.640717,2.645641,-0.469551,2.645641,-0.469551,-279.999847,-280.0,17.858353,0.043372,0.144502,297.845673,81.335037,0.045299,-0.014668,-1680.007446,0.006461,0.052456,5.62E-4,0.0,1.0,1757.013062,
24.947409,-288.901306,-287.707886,2.671296,-0.48589,2.671296,-0.48589,-289.999847,-290.0,17.859205,0.081706,0.193741,297.833344,79.377625,0.04795,-0.014769,-1677.526001,0.006708,0.052913,9.49E-4,0.0,1.0,1904.957153,
23.357544,-293.732483,-292.539032,2.686844,-0.495416,2.686844,-0.495416,-289.999847,-290.0,17.859882,0.115174,0.22851,297.82251,78.367577,0.049523,-0.015273,-1663.578979,0.006866,0.053256,0.001331,0.0,1.0,1979.798096,
20.360395,-299.528595,-298.335144,2.707915,-0.507948,2.707915,-0.507948,-299.999847,-300.0,17.861126,0.181084,0.282506,297.800964,77.189728,0.051731,-0.0167,-1585.796753,0.007077,0.053737,0.002107,0.0,1.0,2068.499023,
18.54196,-302.743164,-301.549744,2.7202,-0.515339,2.7202,-0.515339,-299.999847,-300.0,17.862181,0.239979,0.324342,297.782471,76.610588,0.053095,-0.018045,-1499.35376,0.007204,0.054036,0.002817,0.0,1.0,2116.265869,
16.31905,-306.420532,-305.227081,2.735086,-0.52398,2.735086,-0.52398,-299.999847,-300.0,17.864023,0.346127,0.391066,297.750458,76.143829,0.05489,-0.020458,-1337.903564,0.007362,0.054404,0.004109,0.0,1.0,2168.278809,
15.165843,-308.263489,-307.070038,2.742595,-0.528287,2.742595,-0.528287,-309.999847,-310.0,17.865406,0.427404,0.437257,297.728333,76.08165,0.055766,-0.021998,-1217.294434,0.00745,0.054615,0.005171,0.0,1.0,2192.63916,
13.845904,-310.417542,-309.224091,2.751831,-0.533144,2.751831,-0.533144,-309.999847,-310.0,17.867779,0.567896,0.509709,297.694153,76.325188,0.056784,-0.024143,-1019.993896,0.007547,0.054852,0.006816,0.0,1.0,2218.821777,
13.227639,-311.531555,-310.338104,2.756771,-0.535524,2.756771,-0.535524,-309.999847,-310.0,17.869564,0.673955,0.560456,297.672638,76.699608,0.057358,-0.025159,-880.976379,0.007594,0.054976,0.007916,0.0,1.0,2230.960205,
12.66396,-312.833038,-311.639587,2.76316,-0.538112,2.76316,-0.538112,-309.999847,-310.0,17.872564,0.851515,0.637195,297.643158,77.554977,0.058114,-0.026044,-667.012817,0.00765,0.055135,0.009601,0.0,1.0,2243.303467,
12.507449,-313.505707,-312.312256,2.766788,-0.539344,2.766788,-0.539344,-309.999847,-310.0,17.874781,0.982057,0.689081,297.627136,78.305367,0.05866,-0.025959,-524.77478,0.007677,0.055224,0.010616,0.0,1.0,2248.558594,
12.5532,-314.290894,-313.097443,2.771804,-0.540625,2.771804,-0.540625,-309.999847,-310.0,17.878437,1.195796,0.771347,297.608673,79.672195,0.05955,-0.024964,-322.835602,0.007705,0.055336,0.011876,0.0,1.0,2253.191406,
12.739266,-314.696228,-313.502808,2.774897,-0.541187,2.774897,-0.541187,-309.999847,-310.0,17.881098,1.350009,0.824706,297.600861,80.72641,0.060263,-0.023663,-207.987717,0.007717,0.055402,0.012511,0.0,1.0,2254.641357,
13.200303,-315.168671,-313.97522,2.779497,-0.541658,2.779497,-0.541658,-309.999847,-310.0,17.885427,1.598472,0.90436,297.594788,82.490517,0.061455,-0.021055,-101.078804,0.007731,0.055498,0.01319,0.0,1.0,2255.033691,
13.769051,-315.49118,-314.297729,2.783584,-0.541721,2.783584,-0.541721,-309.999847,-310.0,17.889753,1.843824,0.980664,297.594635,84.267097,0.06261,-0.018153,-67.330147,0.007736,0.05556,0.013429,0.0,1.0,2254.015137,
14.311555,-315.694916,-314.501495,2.786909,-0.541517,2.786909,-0.541517,-309.999847,-310.0,17.893549,2.056721,1.042028,297.596954,85.809532,0.063614,-0.01568,-52.254936,0.007739,0.055649,0.013519,0.0,1.0,2252.474609,
15.109903,-315.902069,-314.708618,2.791337,-0.540756,2.791337,-0.540756,-309.999847,-310.0,17.898964,2.357078,1.122553,297.60144,87.956245,0.064755,-0.01258,-37.584126,0.007738,0.055709,0.013448,0.0,1.0,2250.424561,
15.677941,-316.007965,-314.814514,2.794312,-0.539748,2.794312,-0.539748,-309.999847,-310.0,17.902802,2.567488,1.176984,297.604095,89.425186,0.065301,-0.010817,-30.171265,0.00773,0.055797,0.013237,0.0,1.0,2250.211426,
16.569353,-316.129822,-314.936371,2.798908,-0.537748,2.798908,-0.537748,-309.999847,-310.0,17.908899,2.897894,1.259619,297.605469,91.653961,0.06566,-0.008891,-21.635929,0.007718,0.055857,0.013089,0.0,1.0,2251.079834,
17.18281,-316.191498,-314.998047,2.802123,-0.536176,2.802123,-0.536176,-309.999847,-310.0,17.913193,3.127775,1.314787,297.603912,93.139114,0.065532,-0.008153,-18.927841,0.007692,0.055947,0.012961,0.0,1.0,2252.154053,
18.1241,-316.261475,-315.068054,2.807075,-0.53355,2.807075,-0.53355,-319.999847,-320.0,17.919964,3.486604,1.384793,297.596893,95.337067,0.064789,-0.007905,-22.73955,0.007671,0.05601,0.012984,0.0,1.0,2254.190674,
18.762686,-316.296234,-315.102783,2.806235,-0.53488,2.806235,-0.53488,-319.999847,-320.0,17.924322,3.734939,1.298608,297.58905,96.766754,0.063391,-0.008338,-19.714222,0.007635,0.056108,0.013239,0.0,1.0,2255.718506,
19.732121,-316.334778,-315.141327,2.807323,-0.537357,2.807323,-0.537357,-319.999847,-320.0,17.930676,4.120747,1.269466,297.57373,98.832649,0.06255,-0.009445,-17.259682,0.007616,0.056137,0.01357,0.0,1.0,2258.146484,
20.384554,-316.353302,-315.159851,2.811389,-0.535599,2.811389,-0.535599,-319.999847,-320.0,17.934996,4.386611,1.31961,297.56134,100.144096,0.061798,-0.010357,-15.342251,0.007685,0.056118,0.014267,0.0,1.0,2259.815186,
21.368498,-316.372803,-315.179352,2.817929,-0.532495,2.817929,-0.532495,-319.999847,-320.0,17.941769,4.798037,1.389047,297.540771,101.992065,0.060226,-0.011851,-18.420107,0.007651,0.056228,0.015166,0.0,1.0,2262.35083,
22.027292,-316.381409,-315.187958,2.822119,-0.530479,2.822119,-0.530479,-319.999847,-320.0,17.946472,5.080536,1.433764,297.52713,103.134117,0.059217,-0.012699,-10.09025,0.007622,0.056316,0.015848,0.0,1.0,2264.049805,
23.017761,-316.389191,-315.19577,2.828507,-0.527587,2.828507,-0.527587,-319.999847,-320.0,17.953808,5.516262,1.498948,297.507721,104.696999,0.057921,-0.013663,-10.20802,0.007578,0.056442,0.016876,0.0,1.0,2266.598389,
23.680149,-316.391663,-315.198212,2.83277,-0.525795,2.83277,-0.525795,-319.999847,-320.0,17.958887,5.814535,1.54611,297.496521,105.631432,0.057357,-0.013941,-9.40086,0.00755,0.056528,0.017538,0.0,1.0,2268.294434,
24.673531,-316.39212,-315.198669,2.839443,-0.523169,2.839443,-0.523169,-319.999847,-320.0,17.966784,6.273293,1.611662,297.4823,106.86203,0.056899,-0.013918,-12.258898,0.007511,0.056655,0.018407,0.0,1.0,2270.830811,
25.336462,-316.390686,-315.197235,2.84393,-0.521461,2.84393,-0.521461,-319.999847,-320.0,17.972237,6.586509,1.655876,297.474823,107.564247,0.056882,-0.013591,6.402776,0.007486,0.056745,0.018901,0.0,1.0,2272.516846,
26.331398,-316.386505,-315.193054,2.850903,-0.518777,2.850903,-0.518777,-319.999847,-320.0,17.9807,7.067078,1.72585,297.465332,108.43589,0.05706,-0.012896,16.032812,0.007449,0.056879,0.019492,0.0,1.0,2275.039551,
27.32543,-316.380341,-315.18689,2.857933,-0.515838,2.857933,-0.515838,-319.999847,-320.0,17.9895,7.560165,1.794282,297.456818,109.087646,0.057226,-0.012163,6.865702,0.007424,0.056972,0.019817,0.0,1.0,2277.55542,
27.988064,-316.375366,-315.181915,2.862839,-0.513942,2.862839,-0.513942,-319.999847,-320.0,17.995136,7.895642,1.849852,297.4505,109.400612,0.058106,-0.01184,19.093388,0.007385,0.057107,0.020235,0.0,1.0,2279.229736,
28.980021,-316.366852,-315.173401,2.879318,-0.510213,2.879318,-0.510213,-319.999847,-320.0,18.005478,8.408676,2.352695,297.438721,109.691254,0.057408,-0.011777,10.892336,0.007354,0.057171,0.020546,0.0,1.0,2281.738281,
29.639948,-316.360291,-315.16684,2.884659,-0.507578,2.884659,-0.507578,-319.999847,-320.0,18.013371,8.757062,2.38743,297.428528,109.769196,0.056668,-0.012102,17.231762,0.007306,0.057471,0.021079,0.0,1.0,2283.408691,
30.629147,-316.349274,-315.155823,2.890337,-0.503233,2.890337,-0.503233,-319.999847,-320.0,18.025471,9.288891,2.457337,297.409851,109.719963,0.054933,-0.013063,19.089529,0.00727,0.05765,0.021541,0.0,1.0,2285.912354,
31.287462,-316.341278,-315.147827,2.894594,-0.500219,2.894594,-0.500219,-319.999847,-320.0,18.033745,9.649444,2.50604,297.394897,109.581787,0.053492,-0.014012,19.790077,0.007211,0.057767,0.022403,0.0,1.0,2287.580811,
32.274212,-316.328461,-315.13501,2.901576,-0.495483,2.901576,-0.495483,-319.999847,-320.0,18.046484,10.198996,2.585359,297.369934,109.227318,0.050878,-0.015656,19.014675,0.007168,0.057849,0.023105,0.0,1.0,2290.083008,
32.931702,-316.319427,-315.126007,2.906434,-0.492398,2.906434,-0.492398,-319.999847,-320.0,18.055201,10.571017,2.642469,297.351837,108.899971,0.049106,-0.016842,13.45524,0.007102,0.057983,0.024301,0.0,1.0,2291.751221,
33.915604,-316.305267,-315.111816,2.913855,-0.487754,2.913855,-0.487754,-319.999847,-320.0,18.068605,11.137261,2.72209,297.324615,108.285782,0.046424,-0.018418,17.410488,0.007056,0.05808,0.025188,0.0,1.0,2294.253662,
Command_Fault: set /systems/static/serviceable false
34.570789,-316.295441,-315.10202,2.914904,-0.489044,2.914904,-0.489044,-319.999847,-320.0,18.077253,11.520079,2.354168,297.30661,107.802528,0.044527,-0.019424,13.746923,0.006991,0.058226,0.026547,0.0,1.0,2295.922119,
35.546566,-316.295441,-315.10202,2.925078,-0.486415,2.925078,-0.486415,-319.999847,-320.0,18.090656,12.102031,2.783588,297.282074,106.981941,0.04318,-0.020237,13.746923,0.006954,0.058302,0.02746,0.0,1.0,2298.425537,
36.168491,-316.295441,-315.10202,2.930323,-0.483986,2.930323,-0.483986,-319.999847,-320.0,18.099636,12.478544,2.835641,297.267487,106.406029,0.04273,-0.020501,13.746923,0.006968,0.058439,0.028732,0.0,1.0,2300.025146,
37.167984,-316.295441,-315.10202,2.938397,-0.479956,2.938397,-0.479956,-319.999847,-320.0,18.114408,13.09169,2.911409,297.246033,105.411453,0.042095,-0.020579,13.746923,0.006914,0.058606,0.029858,0.0,1.0,2302.598877,
37.814636,-316.295441,-315.10202,2.943473,-0.477377,2.943473,-0.477377,-319.999847,-320.0,18.124208,13.494172,2.961921,297.233582,104.730911,0.042021,-0.020395,13.746923,0.006875,0.058717,0.030598,0.0,1.0,2304.268555,
38.783199,-316.295441,-315.10202,2.95124,-0.473345,2.95124,-0.473345,-319.999847,-320.0,18.139225,14.104681,2.992871,297.215485,103.673988,0.042025,-0.020068,13.746923,0.00682,0.058869,0.031554,0.0,1.0,2306.772705,
39.41605,-316.295441,-315.10202,2.953655,-0.473058,2.953655,-0.473058,-319.999847,-320.0,18.148993,14.516075,2.871414,297.203491,102.954422,0.042021,-0.019928,13.746923,0.006781,0.058974,0.032161,0.0,1.0,2308.440674,
40.300812,-316.295441,-315.10202,2.960984,-0.468299,2.960984,-0.468299,-319.999847,-320.0,18.163591,15.139522,2.892316,297.184937,101.86776,0.041825,-0.019716,13.746923,0.006758,0.059073,0.033058,0.0,1.0,2310.886475,
40.888084,-316.295441,-315.10202,2.963932,-0.463614,2.963932,-0.463614,-319.999847,-320.0,18.173201,15.559268,2.865519,297.173401,101.146919,0.041393,-0.019424,13.746923,0.006725,0.059176,0.033681,0.0,1.0,2312.477051,
41.767067,-316.295441,-315.10202,2.970668,-0.461038,2.970668,-0.461038,-319.999847,-320.0,18.187702,16.194847,2.934186,297.158112,100.08477,0.040763,-0.018804,13.746923,0.006623,0.059279,0.034563,0.0,1.0,2314.819824,
42.351543,-316.295441,-315.10202,2.975272,-0.459728,2.975272,-0.459728,-319.999847,-320.0,18.197561,16.622417,2.978735,297.150269,99.396919,0.040746,-0.018067,13.746923,0.006597,0.059367,0.035094,0.0,1.0,2316.362549,
43.226078,-316.295441,-315.10202,2.982198,-0.45806,2.982198,-0.45806,-319.999847,-320.0,18.212631,17.269341,3.047268,297.141907,98.407379,0.041335,-0.016583,13.746923,0.006568,0.059505,0.035719,0.0,1.0,2318.658203,
44.097294,-316.295441,-315.10202,2.995402,-0.463622,2.995402,-0.463622,-319.999847,-320.0,18.229006,17.922695,4.151668,297.137146,97.481361,0.041977,-0.014955,13.746923,0.006551,0.059599,0.036021,0.0,1.0,2321.541748,
44.675335,-316.295441,-315.10202,3.004678,-0.465742,3.004678,-0.465742,-319.999847,-320.0,18.24229,18.361691,4.019258,297.135162,96.905708,0.043545,-0.01373,13.746923,0.00653,0.059749,0.036307,0.0,1.0,2324.25708,
45.541233,-316.295441,-315.10202,3.010962,-0.464344,3.010962,-0.464344,-319.999847,-320.0,18.262568,19.025137,4.091442,297.132477,96.112999,0.045725,-0.012018,13.746923,0.006656,0.060026,0.036429,0.0,1.0,2329.060547,
46.117947,-316.295441,-315.10202,3.014891,-0.463113,3.014891,-0.463113,-319.999847,-320.0,18.2763,19.470644,4.147213,297.129822,95.635666,0.046895,-0.011152,13.746923,0.006641,0.06018,0.036559,0.0,1.0,2332.571045,
46.982506,-316.295441,-315.10202,3.021155,-0.460876,3.021155,-0.460876,-319.999847,-320.0,18.297256,20.143576,4.233733,297.123199,95.001785,0.04791,-0.010417,13.746923,0.006625,0.060259,0.036668,0.0,1.0,2338.110596,
47.558617,-316.295441,-315.10202,3.02548,-0.459175,3.02548,-0.459175,-319.999847,-320.0,18.311472,20.59523,4.292183,297.116516,94.636322,0.048014,-0.010341,13.746923,0.006595,0.06038,0.036942,0.0,1.0,2341.919922,
48.422535,-316.295441,-315.10202,3.031991,-0.456373,3.031991,-0.456373,-319.999847,-320.0,18.333162,21.277134,4.380781,297.102936,94.176529,0.047242,-0.010787,13.746923,0.00656,0.06051,0.037407,0.0,1.0,2347.738525,
48.998363,-316.295441,-315.10202,3.036216,-0.45444,3.036216,-0.45444,-319.999847,-320.0,18.347866,21.73461,4.439399,297.092163,93.929733,0.046234,-0.011312,13.746923,0.006533,0.060597,0.037839,0.0,1.0,2351.663086,
49.861706,-316.295441,-315.10202,3.04269,-0.45152,3.04269,-0.45152,-319.999847,-320.0,18.370291,22.425011,4.526019,297.074219,93.649269,0.044193,-0.012274,13.746923,0.006492,0.060724,0.038625,0.0,1.0,2357.592773,
50.437164,-316.295441,-315.10202,3.046913,-0.449713,3.046913,-0.449713,-319.999847,-320.0,18.385483,22.888002,4.585374,297.062347,93.521477,0.042755,-0.012811,13.746923,0.006464,0.060812,0.03922,0.0,1.0,2361.565918,
51.300926,-316.295441,-315.10202,3.046777,-0.454557,3.046777,-0.454557,-319.999847,-320.0,18.406263,23.586468,4.060189,297.045593,93.416336,0.040723,-0.013515,13.746923,0.006424,0.060938,0.040115,0.0,1.0,2367.547119,
51.87669,-316.295441,-315.10202,3.050924,-0.453113,3.050924,-0.453113,-319.999847,-320.0,18.419907,24.054701,4.122759,297.036499,93.401993,0.039956,-0.013487,13.746923,0.006501,0.060916,0.040694,0.0,1.0,2371.546387,
52.739742,-316.295441,-315.10202,3.058033,-0.45119,3.058033,-0.45119,-319.999847,-320.0,18.440741,24.76082,4.206433,297.025696,93.459999,0.039451,-0.013015,13.746923,0.006473,0.061018,0.041408,0.0,1.0,2377.558594,
53.314777,-316.295441,-315.10202,3.062505,-0.450117,3.062505,-0.450117,-319.999847,-320.0,18.454857,25.234015,4.26016,297.02063,93.548851,0.039621,-0.012407,13.746923,0.006454,0.061114,0.041789,0.0,1.0,2381.574219,
54.176613,-316.295441,-315.10202,3.069128,-0.448613,3.069128,-0.448613,-319.999847,-320.0,18.476364,25.947367,4.340417,297.015167,93.751846,0.040473,-0.011283,13.746923,0.00643,0.06125,0.042201,0.0,1.0,2387.607666,
54.750824,-316.295441,-315.10202,3.073951,-0.447668,3.073951,-0.447668,-319.999847,-320.0,18.49099,26.425243,4.521095,297.01239,93.930038,0.04134,-0.010493,13.746923,0.006416,0.06134,0.042395,0.0,1.0,2391.63623,
55.587254,-316.295441,-315.10202,3.080773,-0.446182,3.080773,-0.446182,-319.999847,-320.0,18.513111,27.125359,4.588221,297.008087,94.245071,0.042581,-0.00953,13.746923,0.006395,0.061479,0.042613,0.0,1.0,2397.519531,
56.159897,-316.295441,-315.10202,3.091021,-0.447424,3.091021,-0.447424,-319.999847,-320.0,18.52998,27.607574,5.386031,297.004242,94.494911,0.043246,-0.009149,13.746923,0.006381,0.061574,0.042749,0.0,1.0,2401.559082,
57.017529,-316.295441,-315.10202,3.098312,-0.445778,3.098312,-0.445778,-319.999847,-320.0,18.557114,28.334045,5.464043,296.995972,94.913979,0.044245,-0.008961,13.746923,0.006392,0.06182,0.043021,0.0,1.0,2407.625,
57.588989,-316.295441,-315.10202,3.101744,-0.444523,3.101744,-0.444523,-319.999847,-320.0,18.575424,28.820398,5.520551,296.988647,95.218437,0.044558,-0.009128,13.746923,0.006377,0.06193,0.043279,0.0,1.0,2411.673828,
58.445583,-316.295441,-315.10202,3.107343,-0.442516,3.107343,-0.442516,-319.999847,-320.0,18.603258,29.552891,5.610755,296.975006,95.704857,0.044399,-0.009767,13.746923,0.00635,0.062035,0.0438,0.0,1.0,2417.755859,
59.30275,-316.295441,-315.10202,3.105653,-0.445531,3.105653,-0.445531,-319.999847,-320.0,18.628283,30.288836,4.914171,296.95932,96.217422,0.043432,-0.010727,13.746923,0.006331,0.062109,0.044241,0.0,1.0,2423.848877,
59.873878,-316.295441,-315.10202,3.10961,-0.444376,3.10961,-0.444376,-319.999847,-320.0,18.644781,30.781328,4.980794,296.948578,96.568344,0.042822,-0.011254,13.746923,0.006372,0.062091,0.045001,0.0,1.0,2427.917725,
60.729752,-316.295441,-315.10202,3.116058,-0.442613,3.116058,-0.442613,-319.999847,-320.0,18.669922,31.522766,5.071368,296.933533,97.100952,0.041862,-0.011775,13.746923,0.006357,0.06215,0.045538,0.0,1.0,2434.030029,
61.299732,-316.295441,-315.10202,3.120903,-0.441564,3.120903,-0.441564,-319.999847,-320.0,18.687126,32.018803,5.241126,296.924591,97.455925,0.041359,-0.011905,13.746923,0.006332,0.062278,0.046313,0.0,1.0,2438.142578,
62.153652,-316.295441,-315.10202,3.130482,-0.441756,3.130482,-0.441756,-319.999847,-320.0,18.714172,32.765388,5.998405,296.91391,97.981354,0.040765,-0.011695,13.746923,0.006315,0.062368,0.04679,0.0,1.0,2444.395752,
62.721447,-316.295441,-315.10202,3.137149,-0.441393,3.137149,-0.441393,-319.999847,-320.0,18.734453,33.264736,6.111086,296.908478,98.323235,0.040954,-0.011285,13.746923,0.006294,0.062498,0.047376,0.0,1.0,2448.60083,
63.572529,-316.295441,-315.10202,3.142688,-0.440054,3.142688,-0.440054,-319.999847,-320.0,18.765217,34.016109,6.192682,296.902283,98.817589,0.041677,-0.010437,13.746923,0.006306,0.062743,0.047809,0.0,1.0,2454.943115,
Command: fly_strait
64.139412,-316.295441,-315.10202,3.145911,-0.439233,3.145911,-0.439233,-319.999847,-320.0,18.785961,34.518547,6.252674,296.899078,99.131691,0.042447,-0.009797,13.746923,0.006293,0.062822,0.048027,0.0,1.0,2459.187744,
64.98996,-316.295441,-315.10202,3.150613,-0.430001,3.150613,-0.430001,-319.999847,-320.0,18.817461,35.27441,6.343984,296.848724,99.574791,0.040402,-0.01733,13.746923,0.006275,0.062918,0.0,0.0,1.0,2465.573242,
65.55957,-316.295441,-315.10202,3.150961,-0.427131,3.150961,-0.427131,-319.999847,-320.0,18.838696,35.779766,6.393625,296.698914,99.848579,0.032506,-0.0405,13.746923,0.006212,0.062989,6.24E-4,0.0,1.0,2469.845703,
66.418655,-316.295441,-315.10202,3.148375,-0.433753,3.148375,-0.433753,-319.999847,-320.0,18.870831,36.539982,6.457535,296.333405,100.220253,0.006645,-0.092682,13.746923,0.006102,0.063019,0.010008,0.0,1.0,2476.287598,
66.994347,-316.295441,-315.10202,3.14207,-0.453757,3.14207,-0.453757,-319.999847,-320.0,18.891104,37.048275,5.721526,296.051331,100.437531,-0.018301,-0.129065,13.746923,0.006148,0.062989,0.021556,0.0,1.0,2480.607666,
67.86042,-316.295441,-315.10202,3.138888,-0.471494,3.138888,-0.471494,-319.999847,-320.0,18.919592,37.815151,5.732244,295.660614,100.710083,-0.059915,-0.170943,13.746923,0.006482,0.062841,0.042387,0.0,1.0,2487.126953,
68.434418,-316.295441,-315.10202,3.143218,-0.482769,3.143218,-0.482769,-319.999847,-320.0,18.938784,38.328472,5.780512,295.484253,100.852783,-0.084287,-0.181633,13.746923,0.00665,0.062767,0.056027,0.0,1.0,2491.488037,
69.294296,-316.295441,-315.10202,3.139603,-0.524059,3.139603,-0.524059,-319.999847,-320.0,18.969959,39.100422,6.822106,295.397461,101.005363,-0.108977,-0.1684,13.746923,0.006897,0.062864,0.070741,0.0,1.0,2498.03833,
69.870216,-316.295441,-315.10202,3.107305,-0.605171,3.107305,-0.605171,-319.999847,-320.0,18.993795,39.616341,7.37382,295.474762,101.065987,-0.113981,-0.140553,13.746923,0.007143,0.062917,0.074976,0.0,1.0,2502.417236,
70.734047,-316.295441,-315.10202,3.040131,-0.757198,3.040131,-0.757198,-319.999847,-320.0,19.030691,40.392162,7.227409,295.76062,101.097229,-0.100991,-0.078389,13.746923,0.008645,0.062146,0.071216,0.0,1.0,2509.013672,
71.301476,-316.295441,-315.10202,3.012877,-0.833239,3.012877,-0.833239,-319.999847,-320.0,19.054083,40.91058,6.88183,296.01297,101.080872,-0.080206,-0.032201,13.746923,0.010124,0.061214,0.062564,0.0,1.0,2513.410645,
72.138824,-316.295441,-315.10202,3.000605,-0.900004,3.000605,-0.900004,-319.999847,-320.0,19.088428,41.689743,7.110842,296.378418,101.007294,-0.038463,0.026851,13.746923,0.011903,0.060258,0.044305,0.0,1.0,2519.96582,
72.691002,-316.295441,-315.10202,2.99577,-0.930491,2.99577,-0.930491,-319.999847,-320.0,19.112808,42.210052,7.689487,296.547272,100.930016,-0.009448,0.049397,13.746923,0.012857,0.060012,0.026033,0.0,1.0,2524.300537,
73.521896,-316.295441,-315.10202,2.923105,-0.959559,2.923105,-0.959559,-319.999847,-320.0,19.156179,42.991615,9.338332,296.598511,100.777962,0.028889,0.047438,13.746923,0.013293,0.059915,0.01759,0.0,1.0,2530.771484,
74.363098,-316.295441,-315.10202,2.799952,-1.010044,2.799952,-1.010044,-319.999847,-320.0,19.201628,43.774433,8.573884,296.393066,100.585236,0.051566,0.005656,13.746923,0.013708,0.058462,0.015028,0.0,1.0,2537.255615,
74.928551,-316.295441,-315.10202,2.750139,-1.101571,2.750139,-1.101571,-319.999847,-320.0,19.229139,44.29707,8.127616,296.147614,100.433479,0.055903,-0.036857,13.746923,0.014074,0.056736,0.020587,0.0,1.0,2541.602783,
75.782547,-316.295441,-315.10202,2.693946,-1.369749,2.693946,-1.369749,-319.999847,-320.0,19.272257,45.082321,9.693759,295.718781,100.168571,0.048048,-0.104454,13.746923,0.015737,0.055003,0.037573,0.0,1.0,2548.168945,
76.351379,-316.295441,-315.10202,2.691883,-1.627042,2.691883,-1.627042,-319.999847,-320.0,19.311007,45.606743,13.979148,295.474274,99.965721,0.036305,-0.138569,13.746923,0.018033,0.054191,0.051959,0.0,1.0,2552.576172,
77.191475,-316.295441,-315.10202,2.772474,-2.055463,2.772474,-2.055463,-319.999847,-320.0,19.413177,46.394688,28.165277,295.258972,99.622131,0.018269,-0.160288,13.746923,0.023243,0.053838,0.07124,0.0,1.0,2559.208008,
77.73394,-316.295441,-315.10202,2.873839,-2.295878,2.873839,-2.295878,-319.999847,-320.0,19.532137,46.920658,43.26997,295.248322,99.369347,0.009729,-0.150783,13.746923,0.027363,0.054689,0.079698,0.0,1.0,2563.619385,
78.504959,-316.295441,-315.10202,3.070464,-2.487664,3.070464,-2.487664,-319.999847,-320.0,19.821842,47.71003,72.948875,295.399078,98.96347,0.008391,-0.108793,13.746923,0.032798,0.057477,0.082538,0.0,1.0,2570.164063,
78.984589,-316.295441,-315.10202,3.202587,-2.455701,3.202587,-2.455701,-319.999847,-320.0,20.103649,48.236095,95.301216,295.55957,98.682335,0.015516,-0.07158,13.746923,0.035057,0.060073,0.078381,0.0,1.0,2574.442139,
79.647491,-316.295441,-315.10202,3.403937,-2.186197,3.403937,-2.186197,-319.999847,-320.0,20.669111,49.024055,130.086777,295.777985,98.258949,0.034702,-0.02184,13.746923,0.035081,0.064052,0.066975,0.0,1.0,2580.678223,
80.055328,-316.295441,-315.10202,3.514432,-1.90492,3.514432,-1.90492,-319.999847,-320.0,21.142357,49.548073,152.605652,295.844208,97.983788,0.04987,-0.003433,13.746923,0.032886,0.066823,0.059128,0.0,1.0,2584.698242,
80.608948,-316.295441,-315.10202,3.658107,-1.464147,3.658107,-1.464147,-319.999847,-320.0,21.960461,50.309669,182.573105,295.782257,97.603897,0.067843,-0.004043,13.746923,0.027213,0.070289,0.052743,0.0,1.0,2590.216064,
80.982407,-316.295441,-315.10202,3.732296,-1.216329,3.732296,-1.216329,-319.999847,-320.0,22.629887,50.851421,201.981171,295.63266,97.35331,0.073472,-0.022368,13.746923,0.022804,0.072368,0.053831,0.0,1.0,2593.442383,
81.487671,-316.295441,-315.10202,3.838328,-1.02176,3.838328,-1.02176,-319.999847,-320.0,23.707121,51.627815,227.906174,295.339752,97.027763,0.070961,-0.060518,13.746923,0.017376,0.074646,0.063321,0.0,1.0,2597.254883,
81.803238,-316.295441,-315.10202,3.908386,-1.01702,3.908386,-1.01702,-319.999847,-320.0,24.495388,52.142761,244.25885,295.164185,96.835251,0.06304,-0.081944,13.746923,0.015143,0.076075,0.072984,0.0,1.0,2599.419678,
82.242699,-316.295441,-315.10202,4.029136,-1.120193,4.029136,-1.120193,-319.999847,-320.0,25.778931,52.910854,268.527344,295.019592,96.58461,0.049311,-0.093518,13.746923,0.014529,0.078168,0.086745,0.0,1.0,2602.287842,
82.509781,-316.295441,-315.10202,4.117273,-1.203673,4.117273,-1.203673,-319.999847,-320.0,26.702089,53.419777,284.769287,295.032288,96.444153,0.042787,-0.083257,13.746923,0.016003,0.080583,0.093974,0.0,1.0,2604.015869,
82.866631,-316.295441,-315.10202,4.241525,-1.237122,4.241525,-1.237122,-319.999847,-320.0,28.188412,54.177868,309.395874,295.201904,96.277115,0.042028,-0.044326,13.746923,0.017195,0.082345,0.09334,0.0,1.0,2606.4021,
83.073853,-316.295441,-315.10202,4.334691,-1.160839,4.334691,-1.160839,-319.999847,-320.0,29.25152,54.679359,328.132477,295.371613,96.197876,0.048749,-0.010841,13.746923,0.017673,0.084831,0.084859,0.0,1.0,2607.880615,
83.338043,-316.295441,-315.10202,4.480173,-0.895376,4.480173,-0.895376,-319.999847,-320.0,30.971962,55.425064,359.720367,295.596588,96.133377,0.067012,0.031222,13.746923,0.016583,0.086694,0.076373,0.0,1.0,2609.957764,
83.48465,-316.295441,-315.10202,4.588838,-0.657425,4.588838,-0.657425,-319.999847,-320.0,32.208282,55.917458,380.82132,295.676453,96.130043,0.080137,0.04581,13.746923,0.012791,0.089603,0.065124,0.0,1.0,2611.261475,
83.672592,-316.295441,-315.10202,4.709277,-0.324368,4.709277,-0.324368,-319.999847,-320.0,34.18227,56.648479,406.681,295.644104,96.188484,0.095698,0.040505,13.746923,0.009392,0.091777,0.061131,0.0,1.0,2613.117188,
Command_Fault: set /systems/static/serviceable true
83.783775,-316.295441,-315.10202,4.759408,-0.1699,4.759408,-0.1699,-319.999847,-320.0,35.56089,57.130669,419.773285,295.536896,96.269882,0.099231,0.02263,13.746923,0.004634,0.094186,0.062749,0.0,1.0,2614.302002,
84.370766,-312.845184,-311.651733,4.79909,-0.111966,4.79909,-0.111966,-309.999847,-310.0,37.705296,57.846214,436.947937,295.331116,96.451782,0.093989,-0.011161,545.723877,0.002427,0.095188,0.068109,0.0,1.0,2616.022461,
84.883385,-309.757965,-308.564514,4.835134,-0.172725,4.835134,-0.172725,-309.999847,-310.0,39.179642,58.318142,447.247803,295.218903,96.609039,0.085363,-0.02877,667.881104,0.0016,0.095982,0.078398,0.0,1.0,2617.139404,
85.554726,-305.651642,-304.458191,4.91058,-0.345224,4.91058,-0.345224,-309.999847,-310.0,41.457104,59.018375,463.554535,295.171692,96.891907,0.071428,-0.034352,732.784241,0.002468,0.096703,0.084009,0.0,1.0,2618.773926,
85.945793,-303.181732,-301.988281,4.974301,-0.454019,4.974301,-0.454019,-299.999847,-300.0,43.022888,59.480015,475.677856,295.232727,97.108475,0.065918,-0.022895,740.371948,0.004932,0.098212,0.086369,0.0,1.0,2619.834961,
86.459923,-299.766174,-298.572723,5.068304,-0.510282,5.068304,-0.510282,-299.999847,-300.0,45.452103,60.164421,495.662415,295.425629,97.471519,0.066665,0.010072,726.510254,0.006486,0.099486,0.083318,0.0,1.0,2621.377197,
86.760681,-297.630157,-296.436707,5.136879,-0.45917,5.136879,-0.45917,-299.999847,-300.0,47.12838,60.615139,509.668274,295.576965,97.73777,0.073056,0.034513,709.022156,0.00729,0.101366,0.073672,0.0,1.0,2622.368896,
87.164391,-294.567535,-293.374084,5.226384,-0.269512,5.226384,-0.269512,-289.999847,-290.0,49.731632,61.282604,530.946716,295.739502,98.172028,0.088107,0.058475,679.397278,0.00656,0.102738,0.066106,0.0,1.0,2623.800293,
87.410568,-292.588043,-291.394592,5.283619,-0.114654,5.283619,-0.114654,-289.999847,-290.0,51.525719,61.721737,544.980652,295.772095,98.483551,0.096968,0.061002,660.62207,0.00385,0.104528,0.057979,0.0,1.0,2624.721436,
87.757736,-289.669708,-288.476288,5.354137,0.05695,5.354137,0.05695,-289.999847,-290.0,54.303421,62.371624,565.222778,295.696014,98.979965,0.103869,0.043459,637.125549,0.001638,0.105672,0.056349,0.0,1.0,2626.065186,
87.978294,-287.739319,-286.545868,5.402105,0.095591,5.402105,0.095591,-289.999847,-290.0,56.209412,62.799072,577.82019,295.590027,99.326675,0.10202,0.023098,625.408386,-8.14E-4,0.107083,0.060153,0.0,1.0,2626.942139,
88.295624,-284.84259,-283.649139,5.468364,0.012815,5.468364,0.012815,-279.999847,-280.0,59.145679,63.431679,596.062988,295.435242,99.862404,0.090857,-0.005554,613.94342,-0.001366,0.108042,0.065453,0.0,1.0,2628.237305,
88.59552,-281.923553,-280.730103,5.544338,-0.172622,5.544338,-0.172622,-279.999847,-280.0,62.17247,64.054169,614.26178,295.373779,100.40657,0.076663,-0.017249,609.126343,-1.83E-4,0.109367,0.073192,0.0,1.0,2629.510254,
88.783836,-279.956146,-278.762695,5.597196,-0.294588,5.597196,-0.294588,-279.999847,-280.0,64.241554,64.463554,626.670105,295.41272,100.768982,0.069358,-0.011316,609.051392,0.001518,0.110376,0.076007,0.0,1.0,2630.344238,
89.044968,-276.96225,-275.768799,5.689384,-0.397339,5.689384,-0.397339,-279.999847,-280.0,67.424278,65.069115,646.107239,295.567352,101.306671,0.066705,0.012989,612.792908,0.004208,0.111944,0.074318,0.0,1.0,2631.56543,
89.204659,-274.932526,-273.739105,5.748313,-0.381334,5.748313,-0.381334,-269.999847,-270.0,69.601219,65.467033,659.472534,295.693512,101.65934,0.070774,0.032361,617.430115,0.005418,0.113179,0.069597,0.0,1.0,2632.354492,
89.425911,-271.82962,-270.6362,5.838279,-0.25475,5.838279,-0.25475,-269.999847,-270.0,72.950562,66.055016,679.764832,295.842102,102.177902,0.081726,0.053283,626.980713,0.005448,0.114966,0.060278,0.0,1.0,2633.496094,
89.565773,-269.718567,-268.525116,5.887233,-0.138486,5.887233,-0.138486,-269.999847,-270.0,75.239571,66.441002,692.940002,295.874878,102.515778,0.089404,0.05549,634.769104,0.004394,0.116211,0.054777,0.0,1.0,2634.230469,
89.770294,-266.484009,-265.290558,5.957293,3.84E-4,5.957293,3.84E-4,-269.999847,-270.0,78.752655,67.010994,711.60614,295.816956,103.008324,0.094889,0.040973,648.079163,0.001978,0.117745,0.05121,0.0,1.0,2635.300293,
89.905327,-264.281036,-263.087585,5.996113,0.025978,5.996113,0.025978,-259.999847,-260.0,81.145035,67.385071,723.165039,295.729309,103.32486,0.093159,0.023483,657.757507,4.98E-4,0.118718,0.052504,0.0,1.0,2635.998047,
90.105927,-260.906128,-259.712677,6.057416,-0.04682,6.057416,-0.04682,-259.999847,-260.0,84.802925,67.937508,739.43158,295.593201,103.77668,0.083377,-0.002208,673.037964,-3.71E-4,0.119922,0.058488,0.0,1.0,2637.028076,
90.237099,-258.60965,-257.416199,6.096427,-0.151595,6.096427,-0.151595,-259.999847,-260.0,87.285896,68.300133,749.830322,295.54483,104.059372,0.074374,-0.011451,683.520691,1.17E-4,0.120753,0.063283,0.0,1.0,2637.705566,
90.425858,-255.096298,-253.902863,6.163869,-0.31924,6.163869,-0.31924,-249.999863,-250.0,91.074722,68.835648,765.344971,295.570831,104.451141,0.063708,-0.008333,699.4245,0.002166,0.121929,0.067712,0.0,1.0,2638.705322,
90.543922,-252.708893,-251.515457,6.209035,-0.389517,6.209035,-0.389517,-249.999863,-250.0,93.644058,69.187035,775.790833,295.649872,104.689316,0.060808,0.004059,710.059387,0.003832,0.122829,0.067537,0.0,1.0,2639.357422,
90.706696,-249.060684,-247.867249,6.283546,-0.394793,6.283546,-0.394793,-249.999863,-250.0,97.563873,69.705605,791.801147,295.809875,105.011703,0.064313,0.028618,725.993652,0.005565,0.124181,0.06246,0.0,1.0,2640.306396,
90.806519,-246.583939,-245.390488,6.332365,-0.33133,6.332365,-0.33133,-249.999863,-250.0,100.221954,70.045555,802.649719,295.903046,105.20417,0.070387,0.042016,736.600342,0.00564,0.125671,0.05446,0.0,1.0,2640.916748,
90.948982,-242.801895,-241.608444,6.388503,-0.185514,6.388503,-0.185514,-239.999863,-240.0,104.275848,70.546776,818.196899,295.958435,105.461113,0.080794,0.0472,752.496338,0.004733,0.126647,0.049802,0.0,1.0,2641.799316,
91.042419,-240.236298,-239.042862,6.423507,-0.098243,6.423507,-0.098243,-239.999863,-240.0,107.019806,70.87516,827.745422,295.930511,105.611977,0.084648,0.039798,763.057983,0.00265,0.12777,0.047032,0.0,1.0,2642.369873,
91.193451,-236.220703,-235.027252,6.467909,-0.053439,6.467909,-0.053439,-239.999863,-240.0,111.309959,71.372559,841.285706,295.816742,105.812637,0.082714,0.017062,778.652344,0.001403,0.12847,0.048428,0.0,1.0,2643.230469,
91.332443,-232.344208,-231.150772,6.510135,-0.125066,6.510135,-0.125066,-229.999863,-230.0,115.429024,71.83345,852.991577,295.701569,105.965508,0.074112,-0.00439,793.623169,7.63E-4,0.129358,0.054117,0.0,1.0,2644.03125,
91.419525,-229.643753,-228.450302,6.537188,-0.219745,6.537188,-0.219745,-229.999863,-230.0,118.285675,72.144234,860.611572,295.663757,106.048668,0.065986,-0.011534,803.895203,0.001305,0.12995,0.058319,0.0,1.0,2644.574707,
91.522255,-226.803192,-225.609756,6.570943,-0.325051,6.570943,-0.325051,-229.999863,-230.0,121.287979,72.463478,868.455811,295.674896,106.116226,0.058478,-0.010327,813.922546,0.003139,0.130744,0.061766,0.0,1.0,2645.134766,
91.650078,-222.65477,-221.461319,6.621661,-0.420055,6.621661,-0.420055,-219.999863,-220.0,125.659943,72.915184,880.036194,295.773804,106.180244,0.055034,0.005293,828.113098,0.004644,0.131419,0.061209,0.0,1.0,2645.92627,
91.756516,-218.557175,-217.363739,6.674922,-0.409169,6.674922,-0.409169,-219.999863,-220.0,129.966736,73.34523,891.640076,295.909637,106.20813,0.059123,0.026208,841.653015,0.006001,0.132433,0.056264,0.0,1.0,2646.670898,
91.828018,-215.713913,-214.520477,6.70649,-0.344799,6.70649,-0.344799,-219.999863,-220.0,132.952698,73.634888,899.539734,295.981201,106.21035,0.065122,0.036361,850.618469,0.006084,0.133152,0.051743,0.0,1.0,2647.164307,
91.930443,-211.398087,-210.204636,6.751023,-0.216448,6.751023,-0.216448,-209.999863,-210.0,137.479965,74.061378,910.975037,296.014984,106.19223,0.073592,0.038729,863.719849,0.004926,0.13413,0.045894,0.0,1.0,2647.879883,
91.998383,-208.487457,-207.294022,6.772977,-0.149969,6.772977,-0.149969,-209.999863,-210.0,140.529007,74.340439,918.019531,295.980865,106.167946,0.076621,0.03074,872.251465,0.003696,0.134758,0.044182,0.0,1.0,2648.343994,
92.102333,-204.073013,-202.879578,6.803875,-0.124583,6.803875,-0.124583,-199.999863,-200.0,145.143982,74.751335,927.556213,295.877411,106.115463,0.074347,0.010734,884.735657,0.002142,0.13546,0.045911,0.0,1.0,2649.028076,
92.172974,-201.099014,-199.905563,6.821768,-0.168118,6.821768,-0.168118,-199.999863,-200.0,148.246033,75.020279,933.350647,295.808838,106.070389,0.068848,-0.001946,892.822144,0.00172,0.135888,0.049203,0.0,1.0,2649.479492,
92.278725,-196.593964,-195.400528,6.852967,-0.288551,6.852967,-0.288551,-199.999863,-200.0,152.934128,75.416428,941.649292,295.75769,105.988258,0.05878,-0.01147,904.544495,0.002402,0.136435,0.054512,0.0,1.0,2650.1521,
92.346947,-193.562637,-192.369202,6.875131,-0.3707,6.875131,-0.3707,-189.999863,-190.0,156.08255,75.675766,947.163208,295.776672,105.924469,0.053282,-0.008594,912.072327,0.003496,0.136849,0.056714,0.0,1.0,2650.596436,
92.441956,-188.975571,-187.782135,6.914992,-0.442206,6.914992,-0.442206,-189.999863,-190.0,160.840195,76.057686,955.756287,295.871307,105.817543,0.050898,0.006457,922.946106,0.005296,0.137503,0.05612,0.0,1.0,2651.251709,
92.499268,-185.891495,-184.698044,6.943475,-0.436143,6.943475,-0.436143,-189.999863,-190.0,164.036392,76.307556,961.771484,295.952972,105.740875,0.053412,0.01915,929.947449,0.006317,0.1383,0.051389,0.0,1.0,2651.67749,
92.578018,-181.226868,-180.033432,6.978427,-0.352024,6.978427,-0.352024,-179.999863,-180.0,168.868469,76.675209,970.713989,296.042908,105.622208,0.061388,0.032012,940.153503,0.006231,0.138869,0.047305,0.0,1.0,2652.295898,
92.628059,-178.091736,-176.8983,6.999989,-0.275111,6.999989,-0.275111,-179.999863,-180.0,172.114014,76.915565,976.370544,296.05957,105.543137,0.066382,0.033049,946.793579,0.005029,0.139569,0.042808,0.0,1.0,2652.695313,
92.703384,-173.351791,-172.15834,7.023563,-0.191119,7.023563,-0.191119,-169.999863,-170.0,177.016388,77.269081,984.163574,296.011292,105.427864,0.070162,0.022266,956.52771,0.00393,0.14,0.041975,0.0,1.0,2653.280273,
92.754997,-170.16774,-168.974304,7.038015,-0.178289,7.038015,-0.178289,-169.999863,-170.0,180.305038,77.500198,988.79541,295.94754,105.354324,0.06866,0.010219,962.857117,0.00273,0.140471,0.044389,0.0,1.0,2653.664307,
92.834396,-165.357407,-164.163971,7.057056,-0.238188,7.057056,-0.238188,-169.999863,-170.0,185.265625,77.840263,995.145142,295.858978,105.249573,0.061277,-0.005894,972.069641,0.002547,0.14076,0.047577,0.0,1.0,2654.236084,
92.887436,-162.128845,-160.935394,7.072202,-0.311162,7.072202,-0.311162,-159.999863,-160.0,188.589737,78.062683,999.16925,295.830811,105.183456,0.055368,-0.011007,977.999084,0.003403,0.141141,0.052005,0.0,1.0,2654.615723,
92.96386,-157.25531,-156.061874,7.097319,-0.415254,7.097319,-0.415254,-159.999863,-160.0,193.601257,78.390007,1005.2901,295.859528,105.090134,0.048492,-0.00641,986.553894,0.004445,0.141444,0.053413,0.0,1.0,2655.180908,
93.010727,-153.986664,-152.793228,7.118076,-0.454269,7.118076,-0.454269,-149.999863,-150.0,196.959564,78.604042,1009.575989,295.91803,105.032509,0.047411,0.003026,992.038086,0.005932,0.141946,0.051978,0.0,1.0,2655.552002,
93.073624,-149.055038,-147.861603,7.147856,-0.435937,7.147856,-0.435937,-149.999863,-150.0,202.024673,78.918816,1016.290344,296.020538,104.955109,0.051345,0.019123,999.979675,0.00649,0.142362,0.049052,0.0,1.0,2656.094727,
93.111427,-145.748398,-144.554947,7.167713,-0.38323,7.167713,-0.38323,-149.999863,-150.0,205.420105,79.124466,1020.806274,296.071747,104.911087,0.05598,0.026525,1005.11792,0.006228,0.142957,0.043927,0.0,1.0,2656.445801,
93.165443,-140.761383,-139.567947,7.189339,-0.285356,7.189339,-0.285356,-139.999863,-140.0,210.541031,79.426682,1027.250732,296.085571,104.85878,0.062834,0.026624,1012.57782,0.005475,0.143354,0.041367,0.0,1.0,2656.956787,
93.201874,-137.417374,-136.223923,7.201425,-0.23656,7.201425,-0.23656,-139.999863,-140.0,213.971939,79.624054,1031.102173,296.052277,104.833824,0.064695,0.019673,1017.504395,0.004077,0.143787,0.040675,0.0,1.0,2657.289795,
93.258926,-132.374771,-131.18132,7.214638,-0.229882,7.214638,-0.229882,-129.999863,-130.0,219.140945,79.914146,1036.205688,295.968781,104.811249,0.062247,0.004053,1024.699829,0.003379,0.144028,0.04234,0.0,1.0,2657.783447,
93.298447,-128.996155,-127.802711,7.223936,-0.268719,7.223936,-0.268719,-129.999863,-130.0,222.60025,80.103691,1039.240234,295.916321,104.80542,0.057866,-0.005319,1029.348633,0.003284,0.144293,0.046515,0.0,1.0,2658.111084,
93.357941,-123.904549,-122.711098,7.239185,-0.364473,7.239185,-0.364473,-119.999855,-120.0,227.807755,80.382408,1043.621704,295.886658,104.808876,0.049858,-0.010548,1036.06543,0.003839,0.144479,0.049138,0.0,1.0,2658.601807,
93.395912,-120.495201,-119.30175,7.252734,-0.425863,7.252734,-0.425863,-119.999855,-120.0,231.291641,80.564552,1046.623901,295.907959,104.818542,0.046257,-0.007067,1040.363037,0.005207,0.144784,0.050621,0.0,1.0,2658.927246,
93.447571,-115.359779,-114.166336,7.274862,-0.465922,7.274862,-0.465922,-119.999855,-120.0,236.536987,80.832321,1051.427124,295.985931,104.843559,0.045453,0.005702,1046.552246,0.006084,0.145055,0.049556,0.0,1.0,2659.408691,
93.477852,-111.922211,-110.72876,7.291446,-0.451009,7.291446,-0.451009,-109.999855,-110.0,240.047577,81.007202,1054.822021,296.046997,104.86747,0.048034,0.015325,1050.529175,0.006656,0.145497,0.045657,0.0,1.0,2659.722412,
93.518669,-106.745049,-105.551605,7.311457,-0.377385,7.311457,-0.377385,-109.999855,-110.0,245.334961,81.264046,1059.934082,296.105499,104.91494,0.054689,0.023643,1056.319824,0.006443,0.145829,0.042604,0.0,1.0,2660.179932,
93.544678,-103.2798,-102.086349,7.322855,-0.318394,7.322855,-0.318394,-99.999855,-100.0,248.873642,81.431671,1063.13208,296.108276,104.954613,0.058396,0.022946,1060.086914,0.005391,0.146229,0.039679,0.0,1.0,2660.476807,
93.584862,-98.061584,-96.868141,7.333726,-0.26372,7.333726,-0.26372,-99.999855,-100.0,254.200607,81.677803,1067.390259,296.058838,105.025772,0.060474,0.012956,1065.611328,0.004548,0.146457,0.03954,0.0,1.0,2660.914063,
93.628059,-92.82,-91.626556,7.342721,-0.276581,7.342721,-0.276581,-89.999855,-90.0,259.546875,81.917793,1070.945923,295.981354,105.108986,0.056914,-0.001062,1070.964966,0.003767,0.146675,0.042012,0.0,1.0,2661.347656,
93.658142,-89.313446,-88.120003,7.349199,-0.321306,7.349199,-0.321306,-89.999855,-90.0,263.120483,82.074501,1073.108521,295.941345,105.169563,0.052509,-0.00804,1074.417603,0.003951,0.146854,0.045886,0.0,1.0,2661.636719,
93.702988,-84.036636,-82.843193,7.360653,-0.408838,7.360653,-0.408838,-79.999855,-80.0,268.494171,82.304794,1076.284058,295.932739,105.265572,0.045729,-0.009442,1079.395752,0.00459,0.146984,0.047887,0.0,1.0,2662.070313,
93.730972,-80.508064,-79.314621,7.37147,-0.455903,7.37147,-0.455903,-79.999855,-80.0,272.085632,82.455193,1078.529541,295.96344,105.331863,0.043385,-0.004305,1082.575684,0.005841,0.147213,0.048317,0.0,1.0,2662.358398,
93.767998,-75.199806,-74.006363,7.389166,-0.471478,7.389166,-0.471478,-79.999855,-80.0,277.48761,82.676109,1082.214844,296.040466,105.433746,0.044363,0.00831,1087.154053,0.006513,0.147429,0.046782,0.0,1.0,2662.783936,
93.789261,-71.650826,-70.457375,7.401858,-0.444848,7.401858,-0.444848,-69.999855,-70.0,281.099487,82.820267,1084.83374,296.091034,105.503181,0.047471,0.016206,1090.099731,0.006735,0.147783,0.042931,0.0,1.0,2663.061279,
93.818108,-66.31208,-65.118637,7.415895,-0.370056,7.415895,-0.370056,-69.999855,-70.0,286.533752,83.03183,1088.700684,296.126892,105.609756,0.053652,0.020862,1094.400024,0.006355,0.148037,0.040402,0.0,1.0,2663.466553,
93.837082,-62.742756,-61.549313,7.423194,-0.320478,7.423194,-0.320478,-59.999859,-60.0,290.16684,83.169792,1091.034912,296.116028,105.682289,0.056416,0.018082,1097.204468,0.005287,0.148318,0.038609,0.0,1.0,2663.730957,
93.867462,-57.373875,-56.180431,7.429537,-0.28808,7.429537,-0.28808,-59.999859,-60.0,295.630066,83.372253,1094.042236,296.058685,105.79232,0.056777,0.007198,1101.320313,0.004578,0.148464,0.039152,0.0,1.0,2664.122803,
93.88945,-53.785141,-52.591698,7.43321,-0.301655,7.43321,-0.301655,-49.999859,-50.0,299.279816,83.504341,1095.720215,296.011169,105.865425,0.054289,-0.001241,1103.99231,0.004115,0.148591,0.04202,0.0,1.0,2664.383301,
93.92408,-48.388851,-47.195408,7.439423,-0.366728,7.439423,-0.366728,-49.999859,-50.0,304.764374,83.698311,1098.014404,295.965881,105.97245,0.048065,-0.00901,1107.862427,0.004309,0.148664,0.044395,0.0,1.0,2664.775146,
93.94696,-44.783146,-43.589703,7.44579,-0.419893,7.44579,-0.419893,-49.999859,-50.0,308.427063,83.824928,1099.560913,295.965942,106.040802,0.044421,-0.008939,1110.33728,0.005239,0.148788,0.04666,0.0,1.0,2665.037354,
93.978432,-39.363094,-38.169651,7.457983,-0.472341,7.457983,-0.472341,-39.999859,-40.0,313.931335,84.010864,1102.119751,296.011993,106.137444,0.041878,-0.001091,1113.888184,0.005998,0.148916,0.046657,0.0,1.0,2665.428711,
93.99765,-35.747097,-34.55365,7.46812,-0.476777,7.46812,-0.476777,-39.999859,-40.0,317.608337,84.132179,1104.033936,296.059998,106.197685,0.042908,0.006758,1115.884888,0.006748,0.14916,0.044354,0.0,1.0,2665.686035,
94.019615,-30.304731,-29.111286,7.481307,-0.433114,7.481307,-0.433114,-29.999857,-30.0,323.136292,84.310158,1107.06665,296.120117,106.282097,0.047671,0.016083,1119.242554,0.006811,0.149362,0.041954,0.0,1.0,2666.064209,
94.032921,-26.668135,-25.474689,7.488912,-0.386176,7.488912,-0.386176,-29.999857,-30.0,326.829956,84.42617,1109.036621,296.136414,106.334747,0.051131,0.018076,1121.468018,0.006187,0.149626,0.038948,0.0,1.0,2666.310791,
94.054146,-21.202248,-20.008804,7.495326,-0.327302,7.495326,-0.327302,-19.999857,-20.0,332.382141,84.596291,1111.666138,296.113739,106.408539,0.054489,0.013043,1124.702393,0.005517,0.149778,0.038133,0.0,1.0,2666.673828,
94.069626,-17.551123,-16.357679,7.498109,-0.311994,7.498109,-0.311994,-19.999857,-20.0,336.09024,84.707184,1113.106934,296.0755,106.454048,0.05422,0.006034,1126.796631,0.004676,0.149907,0.039267,0.0,1.0,2666.913574,
94.09523,-12.06424,-10.870795,7.501176,-0.339693,7.501176,-0.339693,-9.999858,-10.0,341.660583,84.869896,1114.919922,296.016052,106.515755,0.050271,-0.004405,1129.834839,0.004457,0.149962,0.041179,0.0,1.0,2667.248291,
94.1222,-6.566103,-5.372658,7.506307,-0.405264,7.506307,-0.405264,-9.999858,-10.0,347.23941,85.028419,1116.570679,295.989197,106.568024,0.044833,-0.00886,1132.726318,0.004853,0.150024,0.044151,0.0,1.0,2667.556152,
Command: turn_+45
94.139503,-2.894936,-1.701491,7.511794,-0.44944,7.511794,-0.44944,1.42E-4,0.0,350.963348,85.131844,1117.761719,296.000031,106.596992,0.042121,-0.006914,1134.564941,0.005789,0.150126,0.045494,0.0,1.0,2667.751709,
94.160347,2.807482,4.000926,7.523798,-0.51553,7.523798,-0.51553,1.42E-4,0.0,356.557312,85.283615,1119.815186,296.115387,106.631569,0.030577,0.012903,1137.196533,0.00214,0.150236,0.1,0.0,1.0,2668.032959,
94.162804,6.670521,7.863966,7.541871,-0.535138,7.541871,-0.535138,10.000142,10.0,360.292877,85.382469,1121.574707,296.354126,106.649734,0.030039,0.050817,1138.88147,0.002455,0.150476,0.1,0.0,1.0,2668.206787,
94.138824,12.474178,13.667623,7.580505,-0.355902,7.580505,-0.355902,10.000142,10.0,365.910522,85.526901,1125.660889,296.836304,106.674728,0.050863,0.123781,1141.360596,0.002548,0.150837,0.1,0.0,1.0,2668.427734,
94.105782,16.350431,17.543877,7.605754,-0.082575,7.605754,-0.082575,20.000143,20.0,369.668823,85.620369,1129.299927,297.149323,106.694664,0.074437,0.167976,1143.043091,0.001695,0.15161,0.1,0.0,1.0,2668.538574,
94.044113,22.178219,23.371664,7.621129,0.481959,7.621129,0.481959,20.000143,20.0,375.32962,85.755936,1134.665283,297.492981,106.738647,0.113387,0.209508,1145.734741,3.93E-4,0.152115,0.1,0.0,1.0,2668.649658,
94.003967,26.073557,27.267002,7.621008,0.897343,7.621008,0.897343,30.000143,30.0,379.116669,85.843163,1137.316162,297.611053,106.782082,0.135602,0.217139,1147.678467,-0.002295,0.152423,0.1,0.0,1.0,2668.695801,
Command_Fault: set /systems/static/serviceable false
93.954765,31.932014,33.125458,7.611751,1.450503,7.611751,1.450503,30.000143,30.0,384.809784,85.969391,1139.487915,297.641479,106.874031,0.156227,0.203057,1150.776367,-0.004273,0.15242,0.1,0.0,1.0,2668.74585,
93.73941,33.888657,35.0821,7.604223,1.734654,7.604223,1.734654,30.000143,30.0,388.608734,86.050659,1139.723877,297.60321,106.954689,0.160427,0.184057,1043.773193,-0.006907,0.152235,0.1,0.0,1.0,2668.778564,
93.027107,33.888657,35.0821,7.595462,1.996299,7.595462,1.996299,40.000141,40.0,394.305542,86.168648,1138.84082,297.541595,107.104614,0.154786,0.155207,719.245667,-0.00826,0.152084,0.1,0.0,1.0,2668.838867,
92.55378,33.888657,35.0821,7.58955,2.081097,7.58955,2.081097,40.000141,40.0,398.099915,86.244934,1137.757813,297.540039,107.222717,0.146488,0.142809,502.397369,-0.009506,0.151909,0.1,0.0,1.0,2668.88916,
91.83165,33.888657,35.0821,7.581717,2.126413,7.581717,2.126413,40.000141,40.0,403.94165,86.359131,1135.851563,297.643188,107.430489,0.132207,0.140773,165.592773,-0.00991,0.151791,0.1,0.0,1.0,2668.982178,
91.364304,33.888657,35.0821,7.577346,2.141761,7.577346,2.141761,40.000141,40.0,407.568268,86.428146,1134.782349,297.774445,107.574104,0.127365,0.149917,9.5502,-0.010126,0.151634,0.1,0.0,1.0,2669.045898,
90.638191,33.888657,35.0821,7.573772,2.199225,7.573772,2.199225,40.000141,40.0,413.238861,86.533188,1133.616699,298.057495,107.820015,0.124846,0.175179,9.5502,-0.010199,0.151547,0.1,0.0,1.0,2669.147705,
90.146812,33.888657,35.0821,7.572415,2.277699,7.572415,2.277699,40.000141,40.0,417.016876,86.601173,1133.256348,298.273743,107.998299,0.127506,0.195013,9.5502,-0.010472,0.151475,0.1,0.0,1.0,2669.212402,
89.39962,33.888657,35.0821,7.570818,2.455682,7.570818,2.455682,40.000141,40.0,422.682709,86.700027,1133.142822,298.595337,108.288132,0.135836,0.221844,9.5502,-0.010846,0.151448,0.1,0.0,1.0,2669.299805,
88.8964,33.888657,35.0821,7.568975,2.60331,7.568975,2.60331,40.000141,40.0,426.4599,86.763832,1133.166992,298.789093,108.496964,0.142414,0.234858,9.5502,-0.011694,0.151416,0.1,0.0,1.0,2669.351318,
88.137253,33.888657,35.0821,7.564788,2.831197,7.564788,2.831197,40.000141,40.0,432.125488,86.856422,1133.004761,299.035553,108.834465,0.15078,0.245268,9.5502,-0.012397,0.151379,0.1,0.0,1.0,2669.421143,
87.629784,33.888657,35.0821,7.560934,2.971399,7.560934,2.971399,40.000141,40.0,435.901581,86.916115,1132.624512,299.173676,109.07563,0.154205,0.247044,9.5502,-0.013482,0.151296,0.1,0.0,1.0,2669.46582,
86.867729,33.888657,35.0821,7.554726,3.137395,7.554726,3.137395,40.000141,40.0,441.562256,87.002762,1131.590942,299.360046,109.460617,0.15545,0.245322,9.5502,-0.01415,0.151219,0.1,0.0,1.0,2669.534912,
86.104378,33.888657,35.0821,7.547403,3.247909,7.547403,3.247909,40.000141,40.0,447.216522,87.086159,1130.088623,299.549377,109.871033,0.153047,0.243295,9.5502,-0.01494,0.151095,0.1,0.0,1.0,2669.610596,
85.594032,33.888657,35.0821,7.54213,3.295679,7.54213,3.295679,40.000141,40.0,450.981506,87.140068,1128.924683,299.690094,110.15699,0.150448,0.243892,9.5502,-0.015466,0.150948,0.1,0.0,1.0,2669.665771,
84.824745,33.888657,35.0821,7.535104,3.344021,7.535104,3.344021,40.000141,40.0,456.621582,87.218529,1127.17395,299.932526,110.601501,0.146761,0.249104,9.5502,-0.015694,0.150843,0.1,0.0,1.0,2669.754639,
84.308418,33.888657,35.0821,7.530207,3.372886,7.530207,3.372886,40.000141,40.0,460.376923,87.269295,1126.093872,300.114624,110.906586,0.145221,0.255294,9.5502,-0.015924,0.150702,0.1,0.0,1.0,2669.816895,
83.527641,33.888657,35.0821,7.524088,3.424821,7.524088,3.424821,40.000141,40.0,466.003632,87.343193,1124.67749,300.40979,111.374855,0.144833,0.267035,9.5502,-0.016061,0.150604,0.1,0.0,1.0,2669.912109,
83.002655,33.888657,35.0821,7.52011,3.469886,7.52011,3.469886,40.000141,40.0,469.75116,87.390991,1123.882568,300.613831,111.692909,0.145766,0.275238,9.5502,-0.016309,0.150482,0.1,0.0,1.0,2669.97583,
82.186417,33.888657,35.0821,7.515079,3.553614,7.515079,3.553614,40.000141,40.0,475.523804,87.462395,1122.826416,300.927032,112.190613,0.14856,0.286387,9.5502,-0.016523,0.150402,0.1,0.0,1.0,2670.072754,
81.676323,33.888657,35.0821,7.511799,3.611442,7.511799,3.611442,40.000141,40.0,479.109619,87.505417,1122.223145,301.116272,112.503609,0.150086,0.291731,9.5502,-0.016922,0.150302,0.1,0.0,1.0,2670.132324,
80.870605,33.888657,35.0821,7.507184,3.699651,7.507184,3.699651,40.000141,40.0,484.718262,87.570702,1121.256836,301.401489,112.997528,0.152309,0.297346,9.5502,-0.017197,0.150236,0.1,0.0,1.0,2670.225586,
80.33094,33.888657,35.0821,7.503776,3.753228,7.503776,3.753228,40.000141,40.0,488.45459,87.612877,1120.563477,301.58551,113.328545,0.153155,0.299578,9.5502,-0.017617,0.150144,0.1,0.0,1.0,2670.28833,
79.517029,33.888657,35.0821,7.498894,3.818642,7.498894,3.818642,40.000141,40.0,494.054535,87.67421,1119.419556,301.85791,113.825806,0.153345,0.301681,9.5502,-0.017873,0.150076,0.1,0.0,1.0,2670.384521,
78.971344,33.888657,35.0821,7.495258,3.85274,7.495258,3.85274,40.000141,40.0,497.784515,87.71386,1118.599854,302.040863,114.156647,0.15292,0.302949,9.5502,-0.018184,0.149978,0.1,0.0,1.0,2670.450928,
78.147675,33.888657,35.0821,7.490187,3.890988,7.490187,3.890988,40.000141,40.0,503.374268,87.771576,1117.332031,302.322571,114.649872,0.151877,0.305511,9.5502,-0.018346,0.149905,0.1,0.0,1.0,2670.553467,
77.582321,33.888657,35.0821,7.486408,3.91229,7.486408,3.91229,40.000141,40.0,507.252319,87.810463,1116.462891,302.524963,114.989044,0.151112,0.308031,9.5502,-0.018529,0.149804,0.1,0.0,1.0,2670.626953,
76.759285,33.888657,35.0821,7.481738,3.939402,7.481738,3.939402,40.000141,40.0,512.676636,87.863319,1115.302979,302.817444,115.457588,0.150589,0.312499,9.5502,-0.01863,0.149728,0.1,0.0,1.0,2670.732422,
76.203926,33.888657,35.0821,7.478465,3.958421,7.478465,3.958421,40.000141,40.0,516.393005,87.898529,1114.564087,303.022919,115.773781,0.15037,0.315981,9.5502,-0.018759,0.149635,0.1,0.0,1.0,2670.806885,
75.353943,33.888657,35.0821,7.474258,3.987305,7.474258,3.987305,40.000141,40.0,521.963135,87.949829,1113.543579,303.337006,116.239151,0.150287,0.321494,9.5502,-0.01885,0.149569,0.1,0.0,1.0,2670.922607,
74.784904,33.888657,35.0821,7.471465,4.007576,7.471465,4.007576,40.000141,40.0,525.673889,87.983032,1112.927979,303.54895,116.542915,0.150437,0.32515,9.5502,-0.018987,0.149485,0.1,0.0,1.0,2671.001709,
73.924683,33.888657,35.0821,7.467931,4.03918,7.467931,4.03918,40.000141,40.0,531.236328,88.031403,1112.085571,303.868439,116.988174,0.150891,0.330241,9.5502,-0.019084,0.149429,0.1,0.0,1.0,2671.12207,
73.345963,33.888657,35.0821,7.465563,4.060941,7.465563,4.060941,40.000141,40.0,534.942383,88.062706,1111.568237,304.08136,117.27784,0.151267,0.333226,9.5502,-0.019234,0.149359,0.1,0.0,1.0,2671.203613,
72.47023,33.888657,35.0821,7.462536,4.092527,7.462536,4.092527,40.000141,40.0,540.498291,88.108315,1110.833252,304.399689,117.701302,0.151775,0.336981,9.5502,-0.019338,0.149311,0.1,0.0,1.0,2671.327393,
71.88121,33.888657,35.0821,7.460432,4.112404,7.460432,4.112404,40.000141,40.0,544.200256,88.137833,1110.361694,304.611145,117.976189,0.152018,0.339045,9.5502,-0.019488,0.149251,0.1,0.0,1.0,2671.410645,
70.989662,33.888657,35.0821,7.457641,4.138681,7.457641,4.138681,40.000141,40.0,549.750305,88.18084,1109.664429,304.927979,118.377365,0.152177,0.341647,9.5502,-0.019583,0.149209,0.1,0.0,1.0,2671.537354,
70.385452,33.888657,35.0821,7.455676,4.153979,7.455676,4.153979,40.000141,40.0,553.448364,88.208687,1109.207886,305.139557,118.637444,0.15217,0.343188,9.5502,-0.019708,0.149153,0.1,0.0,1.0,2671.622803,
69.458328,33.888657,35.0821,7.452991,4.173838,7.452991,4.173838,40.000141,40.0,559.146606,88.250374,1108.516357,305.467407,119.027031,0.152029,0.345462,9.5502,-0.019781,0.149114,0.1,0.0,1.0,2671.756348,
68.845497,33.888657,35.0821,7.451144,4.185118,7.451144,4.185118,40.000141,40.0,562.840942,88.276642,1108.084351,305.681488,119.27256,0.151917,0.34695,9.5502,-0.019875,0.14906,0.1,0.0,1.0,2671.843994,
67.927734,33.888657,35.0821,7.448758,4.200271,7.448758,4.200271,40.000141,40.0,568.379761,88.314926,1107.463501,306.004852,119.630684,0.151813,0.349232,9.5502,-0.019929,0.149023,0.1,0.0,1.0,2671.976807,
67.318176,33.888657,35.0821,7.447186,4.209563,7.447186,4.209563,40.000141,40.0,571.91687,88.338715,1107.090576,306.212677,119.853394,0.151799,0.3507,9.5502,-0.020001,0.148975,0.1,0.0,1.0,2672.062256,
66.372635,33.888657,35.0821,7.445081,4.223767,7.445081,4.223767,40.000141,40.0,577.450867,88.374916,1106.54187,306.539307,120.1931,0.151879,0.352926,9.5502,-0.020046,0.148944,0.1,0.0,1.0,2672.197266,
65.733124,33.888657,35.0821,7.443636,4.233323,7.443636,4.233323,40.000141,40.0,581.138733,88.398384,1106.200562,306.757507,120.413986,0.151975,0.354308,9.5502,-0.020113,0.148902,0.1,0.0,1.0,2672.287842,
64.764351,33.888657,35.0821,7.441778,4.247318,7.441778,4.247318,40.000141,40.0,586.668457,88.432594,1105.714478,307.085052,120.737778,0.152144,0.356158,9.5502,-0.020159,0.148873,0.1,0.0,1.0,2672.424805,
64.110855,33.888657,35.0821,7.440505,4.256397,7.440505,4.256397,40.000141,40.0,590.353638,88.454773,1105.406372,307.303345,120.94915,0.152251,0.357229,9.5502,-0.020225,0.148836,0.1,0.0,1.0,2672.516602,
63.118664,33.888657,35.0821,7.438847,4.268949,7.438847,4.268949,40.000141,40.0,595.879517,88.487114,1104.960449,307.630707,121.260406,0.152366,0.358608,9.5502,-0.020269,0.14881,0.1,0.0,1.0,2672.655029,
62.448959,33.888657,35.0821,7.437692,4.27661,7.437692,4.27661,40.000141,40.0,599.562256,88.50808,1104.673218,307.848969,121.4646,0.152407,0.359408,9.5502,-0.020328,0.148777,0.1,0.0,1.0,2672.747803,
61.431477,33.888657,35.0821,7.436167,4.286685,7.436167,4.286685,40.000141,40.0,605.084534,88.538666,1104.25415,308.176697,121.766876,0.152417,0.360488,9.5502,-0.020365,0.148754,0.1,0.0,1.0,2672.888184,
60.744183,33.888657,35.0821,7.435101,4.292664,7.435101,4.292664,40.000141,40.0,608.764893,88.558502,1103.984253,308.395538,121.96627,0.152402,0.361166,9.5502,-0.020413,0.148723,0.1,0.0,1.0,2672.982178,
59.699108,33.888657,35.0821,7.433701,4.300561,7.433701,4.300561,40.000141,40.0,614.283813,88.587448,1103.59436,308.724579,122.263107,0.15237,0.362154,9.5502,-0.020441,0.148702,0.1,0.0,1.0,2673.124023,
58.650497,33.888657,35.0821,7.43229,4.307717,7.43229,4.307717,40.000141,40.0,619.800842,88.615456,1103.224243,309.054474,122.558334,0.152352,0.363126,9.5502,-0.020479,0.148674,0.1,0.0,1.0,2673.266846,
57.917118,33.888657,35.0821,7.431374,4.312254,7.431374,4.312254,40.000141,40.0,623.477844,88.633629,1102.988525,309.274841,122.754829,0.152355,0.363756,9.5502,-0.020513,0.148646,0.1,0.0,1.0,2673.362549,
56.822048,33.888657,35.0821,7.430244,4.31872,7.430244,4.31872,40.000141,40.0,628.991943,88.660156,1102.657471,309.605835,123.04995,0.152383,0.364653,9.5502,-0.020535,0.148627,0.1,0.0,1.0,2673.506836,
56.080486,33.888657,35.0821,7.42946,4.322939,7.42946,4.322939,40.000141,40.0,632.667114,88.677376,1102.451416,309.82666,123.247398,0.152414,0.365206,9.5502,-0.020565,0.148605,0.1,0.0,1.0,2673.603516,
54.94997,33.888657,35.0821,7.428425,4.328972,7.428425,4.328972,40.000141,40.0,638.178589,88.702515,1102.156494,310.158051,123.545372,0.152466,0.365949,9.5502,-0.020585,0.148589,0.1,0.0,1.0,2673.749023,
54.183559,33.888657,35.0821,7.427714,4.332826,7.427714,4.332826,40.000141,40.0,641.852112,88.718834,1101.968872,310.379028,123.745621,0.152499,0.366387,9.5502,-0.020614,0.148568,0.1,0.0,1.0,2673.846436,
53.028824,33.888657,35.0821,7.4268,4.338138,7.4268,4.338138,40.000141,40.0,647.361267,88.742668,1101.700073,310.71051,124.048981,0.152529,0.366962,9.5502,-0.020633,0.148554,0.1,0.0,1.0,2673.993164,
52.220921,33.888657,35.0821,7.426163,4.341413,7.426163,4.341413,40.000141,40.0,651.033264,88.758141,1101.527222,310.931549,124.253532,0.15254,0.367302,9.5502,-0.020658,0.148536,0.1,0.0,1.0,2674.091309,
50.971806,33.888657,35.0821,7.425315,4.345913,7.425315,4.345913,40.000141,40.0,656.693237,88.781372,1101.271851,311.272461,124.572968,0.15254,0.367775,9.5502,-0.020673,0.148523,0.1,0.0,1.0,2674.24292,
50.173813,33.888657,35.0821,7.424766,4.348446,7.424766,4.348446,40.000141,40.0,660.210938,88.795433,1101.122192,311.484497,124.774246,0.152528,0.368048,9.5502,-0.020695,0.148506,0.1,0.0,1.0,2674.337891,
48.917591,33.888657,35.0821,7.424034,4.351987,7.424034,4.351987,40.000141,40.0,665.715942,88.816895,1100.895996,311.81665,125.093735,0.152526,0.368457,9.5502,-0.020707,0.148495,0.1,0.0,1.0,2674.486816,
48.057331,33.888657,35.0821,7.423532,4.354179,7.423532,4.354179,40.000141,40.0,669.385376,88.830841,1100.754028,312.038269,125.30986,0.152528,0.368719,9.5502,-0.020724,0.148481,0.1,0.0,1.0,2674.586182,
