airspeed_indicator_indicated_speed_kt,altimeter_indicated_altitude_ft,altimeter_pressure_alt_ft,attitude_indicator_indicated_pitch_deg,attitude_indicator_indicated_roll_deg,attitude_indicator_internal_pitch_deg,attitude_indicator_internal_roll_deg,encoder_indicated_altitude_ft,encoder_pressure_alt_ft,gps_indicated_altitude_ft,gps_indicated_ground_speed_kt,gps_indicated_vertical_speed,indicated_heading_deg,magnetic_compass_indicated_heading_deg,slip_skid_ball_indicated_slip_skid,turn_indicator_indicated_turn_rate,vertical_speed_indicator_indicated_speed_fpm,flight_aileron,flight_elevator,flight_rudder,flight_flaps,engine_throttle,engine_rpm,
Command: takeoff
24.882769,-228.56749,-227.374039,3.047854,0.705294,2.711664,-0.415339,-219.999863,-220.0,17.857662,5.9E-5,0.002613,297.864288,103.673195,0.043807,-0.03131,-1672.435547,-0.0,0.0,0.0,0.0,0.0,605.279053,
24.886763,-236.687515,-235.49408,3.009545,0.570934,2.713667,-0.415325,-229.999863,-230.0,17.857672,5.7E-5,-0.00345,297.863037,99.274551,0.043793,-0.026941,-1673.566772,-0.010076,0.054233,0.0,0.0,1.0,613.597656,
24.889671,-242.090088,-240.896637,2.864067,0.106947,2.707325,-0.415526,-239.999863,-240.0,17.857635,8.3E-5,-0.017485,297.862244,96.48867,0.043685,-0.024376,-1673.779541,-0.008156,0.054273,6.3E-5,0.0,1.0,678.592285,
24.894194,-250.2229,-249.029449,2.686882,-0.354713,2.66785,-0.418154,-249.999863,-250.0,17.85746,3.0E-4,-0.047765,297.861084,92.57206,0.043716,-0.021034,-1675.075073,-0.001528,0.054146,1.02E-4,0.0,1.0,861.804077,
24.889101,-255.62442,-254.430969,2.634132,-0.422401,2.634132,-0.422401,-249.999863,-250.0,17.857332,9.5E-4,-0.024754,297.860199,90.156746,0.043548,-0.019146,-1674.999878,0.005067,0.053357,1.6E-4,0.0,1.0,1016.763245,
24.919556,-263.741943,-262.548523,2.613138,-0.432854,2.613138,-0.432854,-259.999847,-260.0,17.857342,0.004562,0.027266,297.858246,86.856789,0.042971,-0.016839,-1675.401367,0.006034,0.052683,2.04E-4,0.0,1.0,1263.589111,
24.907846,-269.145386,-267.951935,2.614758,-0.442155,2.614758,-0.442155,-269.999847,-270.0,17.857492,0.010168,0.062068,297.85611,84.88604,0.043225,-0.015674,-1675.293213,0.006184,0.052263,3.02E-4,0.0,1.0,1422.53064,
24.978479,-277.044434,-275.850983,2.630378,-0.457822,2.630378,-0.457822,-269.999847,-270.0,17.857914,0.025521,0.11037,297.851044,82.35807,0.044283,-0.014531,-1675.812622,0.006316,0.052295,4.09E-4,0.0,1.0,1630.533569,
24.956585,-282.677551,-281.4841,2.646705,-0.469551,2.646705,-0.469551,-279.999847,-280.0,17.85836,0.043371,0.144268,297.845337,80.811592,0.045561,-0.01416,-1675.751953,0.00654,0.052608,6.62E-4,0.0,1.0,1756.94104,
24.725435,-290.768921,-289.57547,2.672098,-0.485883,2.672098,-0.485883,-289.999847,-290.0,17.859213,0.081707,0.194411,297.833099,78.971985,0.048121,-0.014321,-1674.820068,0.006708,0.052934,9.48E-4,0.0,1.0,1904.862183,
21.517578,-297.317963,-296.124512,2.695379,-0.499971,2.695379,-0.499971,-289.999847,-290.0,17.860289,0.13567,0.245593,297.815399,77.624207,0.050562,-0.015313,-1624.019775,0.006941,0.053442,0.001559,0.0,1.0,2013.345337,
19.534903,-300.950256,-299.756805,2.709792,-0.508557,2.709792,-0.508557,-299.999847,-300.0,17.861214,0.185426,0.285855,297.799072,76.925613,0.051962,-0.016486,-1551.293579,0.007142,0.053908,0.002444,0.0,1.0,2072.713867,
17.25415,-304.814575,-303.621155,2.725763,-0.518237,2.725763,-0.518237,-299.999847,-300.0,17.862701,0.269139,0.343134,297.77298,76.321655,0.053634,-0.018446,-1417.892578,0.007265,0.054196,0.003261,0.0,1.0,2133.798584,
15.821074,-307.109619,-305.916168,2.735586,-0.523933,2.735586,-0.523933,-299.999847,-300.0,17.864031,0.346128,0.391301,297.75,76.121223,0.054865,-0.020204,-1295.898682,0.007403,0.054515,0.004565,0.0,1.0,2168.239746,
14.266508,-309.564514,-308.371063,2.746422,-0.530086,2.746422,-0.530086,-309.999847,-310.0,17.866165,0.471756,0.460939,297.716492,76.201065,0.056108,-0.022537,-1106.58728,0.007485,0.054712,0.005714,0.0,1.0,2202.553223,
13.497085,-310.83429,-309.640839,2.752225,-0.533072,2.752225,-0.533072,-309.999847,-310.0,17.867786,0.567899,0.510279,297.693604,76.473053,0.056798,-0.023959,-971.01825,0.007573,0.054928,0.00739,0.0,1.0,2218.771484,
12.723586,-312.317963,-311.124512,2.759343,-0.536407,2.759343,-0.536407,-309.999847,-310.0,17.870531,0.730694,0.586047,297.661774,77.186211,0.057624,-0.025396,-759.359741,0.007615,0.055044,0.008534,0.0,1.0,2235.709229,
12.364065,-313.414124,-312.220703,2.765312,-0.538654,2.765312,-0.538654,-309.999847,-310.0,17.873661,0.915585,0.663054,297.634216,78.234421,0.058369,-0.025931,-545.28009,0.007663,0.055187,0.010126,0.0,1.0,2246.118896,
12.324842,-313.959167,-312.765717,2.768706,-0.539653,2.768706,-0.539653,-309.999847,-310.0,17.875868,1.045108,0.71494,297.619659,79.061996,0.058932,-0.025736,-412.647644,0.007695,0.055306,0.011504,0.0,1.0,2250.272949,
12.519607,-314.641418,-313.447968,2.773611,-0.540767,2.773611,-0.540767,-309.999847,-310.0,17.879757,1.271751,0.796938,297.603119,80.620598,0.05986,-0.02436,-223.21048,0.007709,0.055374,0.012231,0.0,1.0,2253.982178,
12.785132,-314.982422,-313.788971,2.776728,-0.541208,2.776728,-0.541208,-309.999847,-310.0,17.882509,1.430572,0.852072,297.596558,81.762825,0.06059,-0.02292,-135.485596,0.007725,0.055472,0.013058,0.0,1.0,2254.906738,
13.338258,-315.379547,-314.186096,2.78122,-0.541536,2.78122,-0.541536,-309.999847,-310.0,17.886974,1.685773,0.932061,297.592682,83.637169,0.061823,-0.020072,-76.716438,0.007732,0.055535,0.013387,0.0,1.0,2254.713867,
13.787436,-315.583954,-314.390503,2.784243,-0.541514,2.784243,-0.541514,-309.999847,-310.0,17.890179,1.866943,0.986793,297.59317,84.974976,0.062688,-0.017925,-60.394825,0.007736,0.055624,0.01358,0.0,1.0,2253.791992,
14.547213,-315.821198,-314.627747,2.788639,-0.54114,2.788639,-0.54114,-309.999847,-310.0,17.895323,2.154763,1.067887,297.59668,87.081291,0.063939,-0.014653,-43.356586,0.007736,0.055685,0.013556,0.0,1.0,2251.550293,
15.09675,-315.942719,-314.749298,2.791611,-0.540531,2.791611,-0.540531,-309.999847,-310.0,17.898979,2.357062,1.121582,297.599762,88.532997,0.064673,-0.012622,-34.819683,0.007731,0.055773,0.01338,0.0,1.0,2250.385254,
15.968432,-316.082916,-314.889496,2.796031,-0.538885,2.796031,-0.538885,-309.999847,-310.0,17.904804,2.675645,1.204484,297.60318,90.750069,0.065425,-0.010126,-25.02948,0.007722,0.055832,0.013226,0.0,1.0,2250.375732,
16.570496,-316.154144,-314.960693,2.799157,-0.537484,2.799157,-0.537484,-309.999847,-310.0,17.908916,2.897857,1.258982,297.603638,92.236526,0.065599,-0.008942,-20.012541,0.007698,0.055921,0.013055,0.0,1.0,2251.099365,
17.474228,-316.233429,-315.039978,2.803847,-0.535128,2.803847,-0.535128,-319.999847,-320.0,17.915237,3.235602,1.340143,297.600433,94.388504,0.06532,-0.008033,-19.937527,0.007678,0.055983,0.013032,0.0,1.0,2252.769043,
18.453316,-316.292847,-315.099396,2.807111,-0.532812,2.807111,-0.532812,-319.999847,-320.0,17.922195,3.609809,1.275998,297.591217,96.608948,0.064102,-0.008123,-20.484152,0.007645,0.056077,0.013193,0.0,1.0,2254.987793,
19.096775,-316.321167,-315.127716,2.805946,-0.536916,2.805946,-0.536916,-319.999847,-320.0,17.926527,3.861713,1.322156,297.582153,98.001762,0.062804,-0.008789,-12.586101,0.007612,0.056142,0.013654,0.0,1.0,2256.563232,
20.072353,-316.352173,-315.158722,2.809569,-0.536245,2.809569,-0.536245,-319.999847,-320.0,17.932835,4.252738,1.29422,297.56546,99.997025,0.062209,-0.009965,-15.411963,0.00767,0.056119,0.014107,0.0,1.0,2259.030518,
21.028269,-316.372162,-315.178741,2.815836,-0.533319,2.815836,-0.533319,-319.999847,-320.0,17.939301,4.647641,1.362217,297.546265,101.804893,0.060776,-0.011353,-20.055557,0.007661,0.056191,0.014941,0.0,1.0,2261.487061,
21.686646,-316.381409,-315.187958,2.820164,-0.531215,2.820164,-0.531215,-319.999847,-320.0,17.943924,4.9266,1.408173,297.532288,102.957405,0.059731,-0.012315,-14.315016,0.007619,0.056317,0.015901,0.0,1.0,2263.18457,
22.705496,-316.390137,-315.196686,2.826605,-0.528183,2.826605,-0.528183,-319.999847,-320.0,17.951345,5.36932,1.478448,297.511688,104.579002,0.05831,-0.013454,-18.421919,0.007589,0.056403,0.0166,0.0,1.0,2265.805908,
23.366943,-316.392914,-315.199493,2.830995,-0.526249,2.830995,-0.526249,-319.999847,-320.0,17.956348,5.664495,1.520988,297.499359,105.522438,0.057584,-0.013943,-5.196497,0.007545,0.056532,0.01763,0.0,1.0,2267.503906,
24.333115,-316.393829,-315.200378,2.837225,-0.523713,2.837225,-0.523713,-319.999847,-320.0,17.963913,6.10593,1.587879,297.484314,106.735687,0.056925,-0.014104,-12.178463,0.007518,0.05662,0.018246,0.0,1.0,2269.973389,
25.023884,-316.392609,-315.199158,2.841938,-0.521892,2.841938,-0.521892,-319.999847,-320.0,17.969511,6.429012,1.633635,297.475525,107.479691,0.056756,-0.013901,3.851631,0.007482,0.056745,0.018999,0.0,1.0,2271.731934,
25.963287,-316.388977,-315.195526,2.848376,-0.519438,2.848376,-0.519438,-319.999847,-320.0,17.977386,6.878501,1.69711,297.466064,108.323296,0.056851,-0.013275,12.531355,0.007456,0.056839,0.019438,0.0,1.0,2274.116699,
26.62627,-316.385315,-315.191864,2.853105,-0.517573,2.853105,-0.517573,-319.999847,-320.0,17.98313,7.202619,1.743067,297.460266,108.800835,0.057012,-0.012753,17.424145,0.007421,0.056968,0.019911,0.0,1.0,2275.796143,
27.675547,-316.37796,-315.184509,2.858739,-0.514385,2.858739,-0.514385,-319.999847,-320.0,17.992481,7.727029,1.809925,297.451141,109.357735,0.057243,-0.012023,15.729289,0.007394,0.057062,0.020201,0.0,1.0,2278.449707,
28.668682,-316.369629,-315.176208,2.873089,-0.511998,2.873089,-0.511998,-319.999847,-320.0,18.001644,8.236148,1.973787,297.44043,109.663811,0.056649,-0.011787,17.80551,0.007348,0.057175,0.020657,0.0,1.0,2280.959473,
29.328909,-316.363312,-315.169891,2.882339,-0.509029,2.882339,-0.509029,-319.999847,-320.0,18.009443,8.581999,2.36127,297.431091,109.751732,0.056267,-0.011969,10.230855,0.007314,0.057462,0.021193,0.0,1.0,2282.630615,
30.291079,-316.352966,-315.159515,2.888315,-0.504616,2.888315,-0.504616,-319.999847,-320.0,18.021084,9.095315,2.42518,297.414307,109.72052,0.055015,-0.012701,10.039526,0.007272,0.057647,0.02166,0.0,1.0,2285.065674,
30.978107,-316.344849,-315.151398,2.892635,-0.501361,2.892635,-0.501361,-319.999847,-320.0,18.029606,9.468296,2.483732,297.399628,109.587952,0.05377,-0.013583,10.941176,0.007209,0.057766,0.022499,0.0,1.0,2286.803711,
31.937239,-316.332611,-315.139191,2.899198,-0.496792,2.899198,-0.496792,-319.999847,-320.0,18.041857,9.999054,2.559332,297.376312,109.25824,0.051446,-0.015096,18.114683,0.007162,0.057853,0.023233,0.0,1.0,2289.236572,
32.621944,-316.323364,-315.129944,2.904273,-0.493435,2.904273,-0.493435,-319.999847,-320.0,18.050838,10.38413,2.614768,297.357788,108.927216,0.049701,-0.01634,13.230397,0.007097,0.057984,0.024399,0.0,1.0,2290.974121,
33.579334,-316.309784,-315.116364,2.91137,-0.488941,2.91137,-0.488941,-319.999847,-320.0,18.063736,10.931319,2.691005,297.331055,108.342766,0.047075,-0.017983,14.259809,0.007049,0.058085,0.025325,0.0,1.0,2293.406738,
34.58997,-316.294769,-315.101318,2.915161,-0.488462,2.915161,-0.488462,-319.999847,-320.0,18.077269,11.519704,2.35169,297.302795,107.589188,0.044389,-0.019582,9.887086,0.006985,0.058227,0.026662,0.0,1.0,2295.979492,
35.24395,-316.28479,-315.091339,2.922308,-0.487099,2.922308,-0.487099,-319.999847,-320.0,18.08605,11.90664,2.756992,297.28537,107.035927,0.043391,-0.020297,19.472488,0.006978,0.058303,0.028075,0.0,1.0,2297.648438,
36.223118,-316.269409,-315.075958,2.930806,-0.48327,2.930806,-0.48327,-319.999847,-320.0,18.100042,12.494572,2.834469,297.26239,106.126686,0.042357,-0.020717,19.194782,0.006959,0.058446,0.028946,0.0,1.0,2300.152344,
36.87463,-316.25885,-315.065399,2.936095,-0.480648,2.936095,-0.480648,-319.999847,-320.0,18.109585,12.891397,2.885416,297.248566,105.476936,0.042001,-0.020732,19.592726,0.006904,0.058616,0.030095,0.0,1.0,2301.821533,
Command_Fault: set /instrumentation/vertical-speed-indicator/serviceable false
37.849468,-316.242584,-315.049133,2.943695,-0.476887,2.943695,-0.476887,-319.999847,-320.0,18.124218,13.493693,2.962156,297.230286,104.452942,0.041936,-0.02037,20.222015,0.006866,0.058722,0.030786,0.0,1.0,2304.325439,
38.498371,-316.231506,-315.038055,2.948953,-0.474229,2.948953,-0.474229,-319.999847,-320.0,18.13419,13.899788,3.014376,297.21875,103.746651,0.04206,-0.020072,20.222015,0.006813,0.058874,0.0317,0.0,1.0,2305.995117,
39.413853,-316.214996,-315.021545,2.953704,-0.472771,2.953704,-0.472771,-319.999847,-320.0,18.14859,14.498328,2.861634,297.201904,102.697533,0.042035,-0.019748,20.222015,0.006775,0.058979,0.032277,0.0,1.0,2308.421631,
40.031574,-316.203064,-315.009644,2.958933,-0.470636,2.958933,-0.470636,-319.999847,-320.0,18.158764,14.930312,2.958303,297.189514,101.94342,0.041907,-0.019569,20.222015,0.006754,0.059074,0.033119,0.0,1.0,2310.115967,
40.892502,-316.186798,-314.993378,2.963786,-0.463843,2.963786,-0.463843,-309.999847,-310.0,18.17277,15.541123,2.861901,297.173279,100.894905,0.041612,-0.01907,20.222015,0.006723,0.059179,0.033739,0.0,1.0,2312.431641,
41.505886,-316.175537,-314.982086,2.96836,-0.461979,2.96836,-0.461979,-309.999847,-310.0,18.182791,15.981595,2.909633,297.162994,100.159538,0.041262,-0.018619,20.222015,0.006626,0.059276,0.03455,0.0,1.0,2314.056152,
42.362297,-316.160126,-314.966675,2.975106,-0.460013,2.975106,-0.460013,-309.999847,-310.0,18.197104,16.603901,2.976994,297.151703,99.161263,0.04125,-0.017576,20.222015,0.0066,0.059367,0.035065,0.0,1.0,2316.304688,
43.264645,-316.144043,-314.950623,2.982218,-0.458288,2.982218,-0.458288,-309.999847,-310.0,18.212587,17.268671,3.047134,297.143585,98.160118,0.041906,-0.016049,20.222015,0.006572,0.059502,0.035629,0.0,1.0,2318.659912,
43.823959,-316.134125,-314.940674,2.987082,-0.457306,2.987082,-0.457306,-309.999847,-310.0,18.222448,17.68535,3.239837,297.140137,97.572517,0.042715,-0.014968,20.222015,0.006547,0.059644,0.036035,0.0,1.0,2320.30835,
44.719532,-316.117737,-314.924286,3.005004,-0.466342,3.005004,-0.466342,-309.999847,-310.0,18.242222,18.360975,4.024215,297.136108,96.692825,0.044041,-0.013441,20.222015,0.006533,0.059742,0.036208,0.0,1.0,2324.250977,
45.299034,-316.106476,-314.913025,3.009563,-0.465182,3.009563,-0.465182,-309.999847,-310.0,18.255713,18.802607,4.068296,297.133759,96.170265,0.045376,-0.012381,20.222015,0.006662,0.0601,0.036409,0.0,1.0,2327.377686,
46.143703,-316.089325,-314.895874,3.014732,-0.463191,3.014732,-0.463191,-309.999847,-310.0,18.275675,19.451277,4.143796,297.129272,95.482361,0.046968,-0.011183,20.222015,0.006645,0.060191,0.036526,0.0,1.0,2332.412109,
46.722595,-316.077148,-314.883698,3.018803,-0.461646,3.018803,-0.461646,-309.999847,-310.0,18.289589,19.899164,4.202113,297.124725,95.064484,0.047593,-0.010695,20.222015,0.006617,0.060295,0.036751,0.0,1.0,2336.071533,
47.590412,-316.058197,-314.864746,3.025187,-0.459097,3.025187,-0.459097,-309.999847,-310.0,18.310823,20.575571,4.289906,297.11499,94.523705,0.047746,-0.010502,20.222015,0.006595,0.060376,0.036978,0.0,1.0,2341.749756,
48.192902,-316.044678,-314.851227,3.029808,-0.457159,3.029808,-0.457159,-309.999847,-310.0,18.32583,21.048443,4.352074,297.105896,94.210526,0.047298,-0.010747,20.222015,0.006559,0.060504,0.037465,0.0,1.0,2345.777832,
49.036171,-316.025208,-314.831757,3.036017,-0.454407,3.036017,-0.454407,-309.999847,-310.0,18.347197,21.714672,4.436786,297.09079,93.8592,0.045937,-0.011407,20.222015,0.006531,0.060596,0.03792,0.0,1.0,2351.488525,
49.638359,-316.010956,-314.817505,3.04057,-0.452392,3.04057,-0.452392,-309.999847,-310.0,18.362713,22.193481,4.497916,297.078766,93.670486,0.044691,-0.01201,20.222015,0.006492,0.06072,0.038675,0.0,1.0,2355.601318,
50.505291,-315.990021,-314.79657,3.046925,-0.449724,3.046925,-0.449724,-309.999847,-310.0,18.385427,22.887138,4.585274,297.061523,93.488663,0.042685,-0.01275,20.222015,0.006463,0.060811,0.039276,0.0,1.0,2361.55542,
51.083305,-315.9758,-314.782349,3.045528,-0.454716,3.045528,-0.454716,-309.999847,-310.0,18.399481,23.352245,4.02475,297.050537,93.425041,0.04149,-0.013261,20.222015,0.006425,0.060938,0.040138,0.0,1.0,2365.540283,
51.926476,-315.955322,-314.761871,3.050654,-0.453136,3.050654,-0.453136,-309.999847,-310.0,18.419281,24.034254,4.118405,297.037506,93.411598,0.040343,-0.013226,20.222015,0.006496,0.060911,0.040688,0.0,1.0,2371.368896,
52.816978,-315.933746,-314.740295,3.058068,-0.451276,3.058068,-0.451276,-309.999847,-310.0,18.440683,24.759903,4.206433,297.027039,93.494484,0.039939,-0.012689,20.222015,0.006473,0.061013,0.041339,0.0,1.0,2377.547607,
53.394066,-315.919769,-314.726318,3.062692,-0.450194,3.062692,-0.450194,-309.999847,-310.0,18.454802,25.233084,4.260763,297.02182,93.598213,0.040104,-0.012142,20.222015,0.006447,0.061161,0.041862,0.0,1.0,2381.563232,
54.259136,-315.898651,-314.705231,3.069073,-0.448706,3.069073,-0.448706,-309.999847,-310.0,18.476307,25.946417,4.339044,297.015961,93.821693,0.040893,-0.011114,20.222015,0.006431,0.061254,0.042123,0.0,1.0,2387.596436,
54.81139,-315.885132,-314.691681,3.073783,-0.447738,3.073783,-0.447738,-309.999847,-310.0,18.490305,26.404335,4.436685,297.012787,94.00367,0.041643,-0.010457,20.222015,0.00641,0.061381,0.042416,0.0,1.0,2391.457031,
55.698891,-315.863037,-314.669586,3.080855,-0.446126,3.080855,-0.446126,-309.999847,-310.0,18.513691,27.144438,4.589896,297.007385,94.353539,0.042845,-0.009575,20.222015,0.006396,0.061476,0.042575,0.0,1.0,2397.676514,
56.225727,-315.84964,-314.656189,3.091053,-0.447961,3.091053,-0.447961,-309.999847,-310.0,18.529142,27.586458,5.391122,297.003296,94.59127,0.04341,-0.009329,20.222015,0.006373,0.061617,0.042845,0.0,1.0,2401.379395,
57.134449,-315.825439,-314.631989,3.09855,-0.445883,3.09855,-0.445883,-309.999847,-310.0,18.557802,28.353271,5.467962,296.994019,95.046181,0.044271,-0.009178,20.222015,0.006399,0.061821,0.04305,0.0,1.0,2407.782471,
57.994949,-315.801331,-314.60788,3.103808,-0.443801,3.103808,-0.443801,-309.999847,-310.0,18.585358,29.083483,5.553444,296.982086,95.519341,0.044394,-0.00954,20.222015,0.00637,0.061971,0.043513,0.0,1.0,2413.85791,
58.56823,-315.784698,-314.591248,3.107491,-0.442411,3.107491,-0.442411,-309.999847,-310.0,18.603949,29.572256,5.429274,296.972656,95.852219,0.044081,-0.009984,20.222015,0.00634,0.062076,0.04411,0.0,1.0,2417.914063,
59.428837,-315.759369,-314.565948,3.1057,-0.445493,3.1057,-0.445493,-309.999847,-310.0,18.628901,30.308281,4.916616,296.957458,96.369774,0.043183,-0.01083,20.222015,0.00632,0.06215,0.044582,0.0,1.0,2424.007324,
60.002159,-315.742615,-314.549164,3.109535,-0.444331,3.109535,-0.444331,-309.999847,-310.0,18.645407,30.800825,4.982871,296.947266,96.722359,0.042612,-0.01126,20.222015,0.006364,0.062114,0.045341,0.0,1.0,2428.076416,
60.837383,-315.718201,-314.52475,3.115884,-0.442678,3.115884,-0.442678,-309.999847,-310.0,18.669853,31.521698,5.070698,296.933563,97.240295,0.041815,-0.011618,20.222015,0.006348,0.062191,0.045851,0.0,1.0,2434.019287,
61.40947,-315.701416,-314.507965,3.120938,-0.441577,3.120938,-0.441577,-309.999847,-310.0,18.687056,32.017727,5.241427,296.925232,97.593956,0.041412,-0.011672,20.222015,0.006324,0.062318,0.046536,0.0,1.0,2438.131592,
62.266518,-315.675964,-314.482513,3.130653,-0.441291,3.130653,-0.441291,-309.999847,-310.0,18.714069,32.764297,5.997132,296.915009,98.115524,0.04136,-0.011414,20.222015,0.006308,0.062419,0.046953,0.0,1.0,2444.384277,
62.860191,-315.657806,-314.464355,3.137471,-0.441015,3.137471,-0.441015,-309.999847,-310.0,18.735216,33.28447,6.116713,296.909424,98.467537,0.041538,-0.011011,20.222015,0.006304,0.062613,0.047464,0.0,1.0,2448.765137,
63.714745,-315.630676,-314.437225,3.142547,-0.439921,3.142547,-0.439921,-309.999847,-310.0,18.765995,34.035908,6.195228,296.903229,98.953918,0.042283,-0.010208,20.222015,0.0063,0.062749,0.047743,0.0,1.0,2455.108154,
64.283684,-315.611938,-314.418488,3.146031,-0.439134,3.146031,-0.439134,-309.999847,-310.0,18.786749,34.538383,6.255755,296.899658,99.261642,0.043011,-0.009654,20.222015,0.006285,0.062851,0.048053,0.0,1.0,2459.353027,
Command: fly_strait
65.114014,-315.583984,-314.390533,3.150519,-0.430009,3.150519,-0.430009,-309.999847,-310.0,18.817383,35.273273,6.343616,296.848846,99.682289,0.04003,-0.017322,20.222015,0.006273,0.062921,0.0,0.0,1.0,2465.561279,
65.709854,-315.563538,-314.370087,3.151,-0.427238,3.151,-0.427238,-309.999847,-310.0,18.839508,35.799706,6.397678,296.690369,99.959389,0.031223,-0.041791,20.222015,0.006143,0.06301,0.002541,0.0,1.0,2470.011963,
66.572578,-315.533508,-314.340057,3.148319,-0.434201,3.148319,-0.434201,-309.999847,-310.0,18.871655,36.559982,6.459612,296.325104,100.317688,0.004086,-0.0937,20.222015,0.006103,0.06302,0.010464,0.0,1.0,2476.455078,
67.150673,-315.513245,-314.319794,3.14164,-0.453918,3.14164,-0.453918,-309.999847,-310.0,18.891819,37.068314,5.668568,296.037903,100.525429,-0.021105,-0.130856,20.222015,0.006203,0.062966,0.028728,0.0,1.0,2480.775879,
67.996109,-315.484009,-314.290558,3.138964,-0.471894,3.138964,-0.471894,-309.999847,-310.0,18.919519,37.813972,5.732747,295.663849,100.776726,-0.062738,-0.170394,20.222015,0.006485,0.062833,0.043088,0.0,1.0,2487.114746,
68.596199,-315.463287,-314.269867,3.143312,-0.482609,3.143312,-0.482609,-309.999847,-310.0,18.939518,38.348698,5.795853,295.478455,100.915306,-0.086565,-0.181915,20.222015,0.006741,0.062779,0.06179,0.0,1.0,2491.657715,
69.459396,-315.433502,-314.240051,3.13768,-0.528811,3.13768,-0.528811,-309.999847,-310.0,18.970938,39.120705,6.847664,295.402222,101.052193,-0.109875,-0.167001,20.222015,0.006894,0.062866,0.07106,0.0,1.0,2498.20874,
70.013496,-315.41394,-314.22052,3.107077,-0.605516,3.107077,-0.605516,-309.999847,-310.0,18.993729,39.615139,7.330544,295.479309,101.100937,-0.113371,-0.139962,20.222015,0.007554,0.062754,0.074872,0.0,1.0,2502.405762,
70.856636,-315.382935,-314.189484,3.043562,-0.75042,3.043562,-0.75042,-309.999847,-310.0,19.029499,40.369373,7.240204,295.753387,101.11924,-0.101188,-0.080026,20.222015,0.00865,0.062142,0.071017,0.0,1.0,2508.818604,
71.755783,-315.348145,-314.154694,3.003497,-0.863996,3.003497,-0.863996,-309.999847,-310.0,19.06638,41.190529,6.74607,296.159607,101.069061,-0.063338,-0.007658,20.222015,0.01072,0.060871,0.057314,0.0,1.0,2515.772949,
72.314163,-315.325928,-314.132477,2.999287,-0.902748,2.999287,-0.902748,-309.999847,-310.0,19.089409,41.710182,7.105047,296.397675,101.004684,-0.033934,0.029505,20.222015,0.012343,0.06007,0.037003,0.0,1.0,2520.134766,
73.122597,-315.29303,-314.099579,2.985196,-0.938088,2.985196,-0.938088,-309.999847,-310.0,19.126017,42.469196,8.392101,296.599243,100.872887,0.009048,0.054054,20.222015,0.012896,0.059986,0.025099,0.0,1.0,2526.446045,
73.703194,-315.268341,-314.074921,2.921161,-0.956424,2.921161,-0.956424,-309.999847,-310.0,19.15736,43.012093,9.386969,296.599976,100.754684,0.032226,0.046925,20.222015,0.013401,0.059704,0.015021,0.0,1.0,2530.936768,
74.525261,-315.231567,-314.038116,2.800566,-1.006001,2.800566,-1.006001,-309.999847,-310.0,19.201635,43.773163,8.597131,296.392517,100.557259,0.053215,0.005075,20.222015,0.013663,0.058423,0.014984,0.0,1.0,2537.240967,
75.093933,-315.205444,-314.011993,2.743975,-1.099148,2.743975,-1.099148,-309.999847,-310.0,19.229391,44.295792,8.112743,296.141174,100.399559,0.056114,-0.03837,20.222015,0.014371,0.056011,0.025357,0.0,1.0,2541.588867,
75.975906,-315.164734,-313.971283,2.696854,-1.382429,2.696854,-1.382429,-309.999847,-310.0,19.273165,45.102875,9.771201,295.703857,100.118294,0.04639,-0.106996,20.222015,0.015702,0.05488,0.037924,0.0,1.0,2548.3396,
76.523636,-315.138214,-313.944763,2.693987,-1.634572,2.693987,-1.634572,-309.999847,-310.0,19.310947,45.605461,14.16495,295.46637,99.918907,0.034535,-0.140253,20.222015,0.019749,0.053937,0.05979,0.0,1.0,2552.563721,
77.39225,-315.086823,-313.893372,2.777694,-2.074627,2.777694,-2.074627,-309.999847,-310.0,19.418041,46.415306,28.894655,295.254456,99.5588,0.016095,-0.160664,20.222015,0.023351,0.05388,0.071664,0.0,1.0,2559.380615,
78.205307,-315.01062,-313.817169,2.943155,-2.407706,2.943155,-2.407706,-309.999847,-310.0,19.621782,47.204399,53.433254,295.282135,99.167831,0.006979,-0.139195,20.222015,0.029638,0.055554,0.08226,0.0,1.0,2565.984619,
78.721344,-314.933502,-313.740051,3.080132,-2.504393,3.080132,-2.504393,-309.999847,-310.0,19.834917,47.730659,74.119736,295.405334,98.891281,0.008773,-0.107528,20.222015,0.034396,0.058863,0.080876,0.0,1.0,2570.332031,
79.450523,-314.757141,-313.56369,3.275339,-2.39909,3.275339,-2.39909,-309.999847,-310.0,20.292202,48.519531,108.015564,295.647552,98.465591,0.022673,-0.051914,20.222015,0.035777,0.061603,0.074716,0.0,1.0,2576.708252,
79.908852,-314.588776,-313.395325,3.406654,-2.184647,3.406654,-2.184647,-309.999847,-310.0,20.691874,49.044586,130.953415,295.781342,98.182861,0.036742,-0.020998,20.222015,0.034273,0.065507,0.062605,0.0,1.0,2580.834473,
80.554939,-314.242035,-313.048615,3.566426,-1.746651,3.566426,-1.746651,-309.999847,-310.0,21.432753,49.829998,163.861252,295.840668,97.773941,0.058642,-3.17E-4,20.222015,0.031209,0.068133,0.055916,0.0,1.0,2586.815918,
80.951851,-313.956207,-312.762787,3.658412,-1.458613,3.658412,-1.458613,-309.999847,-310.0,21.988075,50.330029,182.829605,295.7724,97.528252,0.068873,-0.005284,20.222015,0.024952,0.071329,0.052949,0.0,1.0,2590.344971,
81.573959,-313.387085,-312.193634,3.768163,-1.128416,3.768163,-1.128416,-309.999847,-310.0,23.003929,51.130962,211.258942,295.526276,97.166328,0.073976,-0.036184,20.222015,0.020837,0.073168,0.056363,0.0,1.0,2594.905029,
81.965286,-312.943451,-311.75,3.839727,-1.026589,3.839727,-1.026589,-309.999847,-310.0,23.737751,51.647968,228.260483,295.326721,96.955933,0.069939,-0.062053,20.222015,0.01612,0.075363,0.068669,0.0,1.0,2597.342529,
82.536568,-312.171143,-310.977692,3.948053,-1.049836,3.948053,-1.049836,-309.999847,-310.0,24.942326,52.419411,252.73996,295.089417,96.678223,0.056811,-0.089527,20.222015,0.014666,0.076795,0.078647,0.0,1.0,2600.494141,
82.907303,-311.5849,-310.391449,4.03184,-1.128572,4.03184,-1.128572,-309.999847,-310.0,25.812695,52.930782,268.897919,295.018982,96.519127,0.047977,-0.092873,20.222015,0.014998,0.078961,0.090512,0.0,1.0,2602.356934,
83.4104,-310.629303,-309.435883,4.153107,-1.230065,4.153107,-1.230065,-309.999847,-310.0,27.178717,53.671894,292.325134,295.078827,96.326729,0.0407,-0.071225,20.222015,0.016122,0.080637,0.094034,0.0,1.0,2604.831299,
83.738792,-309.905151,-308.7117,4.244456,-1.232717,4.244456,-1.232717,-309.999847,-310.0,28.181173,54.176563,308.953888,295.211823,96.224243,0.04299,-0.042407,20.222015,0.017572,0.083062,0.091042,0.0,1.0,2606.397217,
84.213089,-308.679565,-307.486115,4.385877,-1.068075,4.385877,-1.068075,-309.999847,-310.0,29.846354,54.948284,338.958221,295.46756,96.118988,0.056421,0.007428,20.222015,0.01761,0.084889,0.084392,0.0,1.0,2608.643555,
84.619629,-307.390869,-306.197418,4.534026,-0.76587,4.534026,-0.76587,-309.999847,-310.0,31.572645,55.670448,370.640778,295.64682,96.085403,0.076082,0.040457,20.222015,0.015258,0.087718,0.071605,0.0,1.0,2610.611328,
84.894188,-306.390381,-305.19696,4.641962,-0.514328,4.641962,-0.514328,-309.999847,-310.0,32.897182,56.18119,391.086182,295.683563,96.104385,0.088176,0.047303,20.222015,0.010941,0.090681,0.062642,0.0,1.0,2611.938232,
85.255447,-304.922607,-303.729187,4.73463,-0.23661,4.73463,-0.23661,-299.999847,-300.0,34.800751,56.868679,413.085876,295.59729,96.189934,0.098301,0.03271,20.222015,0.007348,0.092839,0.060805,0.0,1.0,2613.658936,
85.520409,-303.76828,-302.574829,4.773885,-0.121515,4.773885,-0.121515,-299.999847,-300.0,36.258297,57.368893,425.85611,295.463806,96.295753,0.098635,0.010576,20.222015,0.00338,0.094693,0.065118,0.0,1.0,2614.876709,
85.901497,-301.994995,-300.801544,4.817257,-0.131238,4.817257,-0.131238,-299.999847,-300.0,38.430676,58.081367,442.248016,295.264282,96.50666,0.088649,-0.021661,20.222015,0.001736,0.095478,0.071793,0.0,1.0,2616.578613,
86.151802,-300.751312,-299.557861,4.860152,-0.224262,4.860152,-0.224262,-299.999847,-300.0,39.922825,58.551258,452.706879,295.179657,96.681442,0.079107,-0.034452,20.222015,0.001875,0.096345,0.081769,0.0,1.0,2617.684814,
86.527504,-298.736938,-297.543488,4.943618,-0.409488,4.943618,-0.409488,-299.999847,-300.0,42.294518,59.267635,470.147186,295.192352,96.997368,0.066988,-0.029918,20.222015,0.003204,0.097203,0.086,0.0,1.0,2619.347168,
86.854927,-296.730438,-295.536987,5.038165,-0.51306,5.038165,-0.51306,-299.999847,-300.0,44.625946,59.936066,488.927063,295.353577,97.342461,0.065014,-0.001798,20.222015,0.00585,0.098872,0.085365,0.0,1.0,2620.865723,
87.068436,-295.300873,-294.107452,5.107637,-0.499017,5.107637,-0.499017,-289.999847,-290.0,46.27961,60.38903,502.866608,295.507385,97.603195,0.070279,0.023538,20.222015,0.007329,0.100763,0.077304,0.0,1.0,2621.872314,
87.368004,-293.069916,-291.876465,5.199804,-0.342715,5.199804,-0.342715,-289.999847,-290.0,48.849022,61.059948,524.234131,295.705475,98.029533,0.084737,0.054108,20.222015,0.007129,0.102153,0.069614,0.0,1.0,2623.324951,
87.560661,-291.527344,-290.333893,5.259625,-0.187151,5.259625,-0.187151,-289.999847,-290.0,50.620792,61.501408,538.329956,295.773193,98.336273,0.09463,0.062726,20.222015,0.004896,0.103996,0.059709,0.0,1.0,2624.257568,
87.848076,-289.058441,-287.86499,5.33464,0.026086,5.33464,0.026086,-289.999847,-290.0,53.443882,62.172768,559.532593,295.738739,98.841133,0.104184,0.05191,20.222015,0.002674,0.105192,0.056323,0.0,1.0,2625.650879,
88.029228,-287.469574,-286.276123,5.380168,0.097217,5.380168,0.097217,-289.999847,-290.0,55.251923,62.584496,571.878967,295.648682,99.171494,0.104031,0.034046,20.222015,-3.73E-4,0.106693,0.058046,0.0,1.0,2626.496826,
88.314545,-284.826904,-283.633453,5.445812,0.059378,5.445812,0.059378,-279.999847,-280.0,58.240555,63.23798,590.551331,295.476166,99.721664,0.094815,0.001721,20.222015,-0.001389,0.107603,0.062549,0.0,1.0,2627.834961,
88.492805,-283.130737,-281.937286,5.492459,-0.038992,5.492459,-0.038992,-279.999847,-280.0,60.145996,63.63879,601.993958,295.397308,100.070457,0.08519,-0.012732,20.222015,-8.48E-4,0.108916,0.071175,0.0,1.0,2628.655273,
Command_Fault: set /instrumentation/vertical-speed-indicator/serviceable true
88.780708,-280.321777,-279.128326,5.570598,-0.24202,5.570598,-0.24202,-279.999847,-280.0,63.288818,64.274948,620.720703,295.386047,100.63382,0.071556,-0.015708,2096.499756,5.57E-4,0.109849,0.075117,0.0,1.0,2629.954834,
89.010948,-277.56488,-276.371429,5.659,-0.38233,5.659,-0.38233,-279.999847,-280.0,66.352364,64.866859,639.408325,295.507477,101.161842,0.06633,0.003352,1873.155396,0.003457,0.111412,0.075681,0.0,1.0,2631.154297,
89.165367,-275.623108,-274.429688,5.723804,-0.40512,5.723804,-0.40512,-279.999847,-280.0,68.506844,65.267097,652.859253,295.634644,101.518456,0.068876,0.023134,1728.396851,0.005462,0.11318,0.069609,0.0,1.0,2631.954102,
89.379883,-272.634674,-271.441223,5.809351,-0.312085,5.809351,-0.312085,-269.999847,-270.0,71.823746,65.858612,673.236145,295.807922,102.042969,0.079336,0.048656,1526.16626,0.005787,0.114476,0.063251,0.0,1.0,2633.112061,
89.517441,-270.584747,-269.391296,5.865474,-0.197947,5.865474,-0.197947,-269.999847,-270.0,74.090904,66.246979,686.541016,295.872131,102.384865,0.087233,0.056384,1403.018555,0.004458,0.116187,0.054587,0.0,1.0,2633.856201,
89.711784,-267.518982,-266.325562,5.933131,-0.036833,5.933131,-0.036833,-269.999847,-270.0,77.475365,66.804726,705.123779,295.855835,102.870453,0.094712,0.048764,1242.314575,0.002828,0.117309,0.051376,0.0,1.0,2634.907715,
89.854408,-265.183685,-263.990234,5.980742,0.027422,5.980742,0.027422,-259.999847,-260.0,80.045837,67.212494,717.988831,295.773163,103.218987,0.094919,0.031735,1138.932129,5.26E-4,0.118663,0.052191,0.0,1.0,2635.669189,
90.054688,-261.864563,-260.671143,6.038405,-0.007951,6.038405,-0.007951,-259.999847,-260.0,83.679321,67.768051,734.66217,295.628174,103.679413,0.086472,0.004097,1020.276978,-3.92E-4,0.119615,0.056325,0.0,1.0,2636.70459,
90.24086,-258.553528,-257.360077,6.09792,-0.152179,6.09792,-0.152179,-259.999847,-260.0,87.288712,68.29834,749.872803,295.538971,104.095917,0.073115,-0.012691,932.079102,1.14E-4,0.120768,0.063574,0.0,1.0,2637.694824,
90.364937,-256.231567,-255.038132,6.142469,-0.27229,6.142469,-0.27229,-259.999847,-260.0,89.80619,68.656448,760.236511,295.541382,104.360603,0.065348,-0.013084,886.66687,0.002174,0.121958,0.068034,0.0,1.0,2638.364014,
90.544868,-252.676895,-251.483459,6.209198,-0.398435,6.209198,-0.398435,-249.999863,-250.0,93.647461,69.185196,775.82489,295.645416,104.722778,0.060031,0.003222,838.540161,0.00389,0.122849,0.067914,0.0,1.0,2639.347656,
90.665398,-250.162048,-248.968613,6.262231,-0.418215,6.262231,-0.418215,-249.999863,-250.0,96.361031,69.546394,786.862488,295.760406,104.949234,0.062137,0.021076,816.730652,0.005692,0.124184,0.062712,0.0,1.0,2640.01123,
90.803055,-246.568939,-245.375488,6.327792,-0.336937,6.327792,-0.336937,-249.999863,-250.0,100.225327,70.043686,802.479309,295.904388,105.232925,0.071482,0.042216,799.367554,0.005974,0.125245,0.056963,0.0,1.0,2640.907471,
90.896896,-244.163559,-242.970108,6.369249,-0.241764,6.369249,-0.241764,-239.999863,-240.0,102.805374,70.365105,812.438354,295.955536,105.399239,0.077331,0.048309,794.313538,0.004813,0.126556,0.049764,0.0,1.0,2641.47583,
91.038246,-240.231216,-239.037781,6.421671,-0.09856,6.421671,-0.09856,-239.999863,-240.0,107.021034,70.873276,827.55072,295.933472,105.634949,0.085347,0.040245,793.009766,0.003454,0.127385,0.047206,0.0,1.0,2642.361084,
91.1539,-237.529419,-236.335983,6.455055,-0.049432,6.455055,-0.049432,-239.999863,-240.0,109.911438,71.21051,836.902588,295.859558,105.772278,0.084846,0.025342,795.605896,0.001408,0.128433,0.048309,0.0,1.0,2642.94458,
91.280937,-233.56633,-232.372894,6.494768,-0.089315,6.494768,-0.089315,-229.999863,-230.0,114.128311,71.687683,849.244751,295.733093,105.938118,0.076988,0.001447,803.355164,7.06E-4,0.129101,0.052005,0.0,1.0,2643.771973,
91.417435,-229.642471,-228.449036,6.536934,-0.219127,6.536934,-0.219127,-229.999863,-230.0,118.284508,72.142326,860.380432,295.661774,106.061607,0.06518,-0.011907,813.266602,0.001276,0.129895,0.058328,0.0,1.0,2644.566162,
91.513657,-226.801407,-225.607956,6.571045,-0.325748,6.571045,-0.325748,-229.999863,-230.0,121.286194,72.461571,868.323181,295.671448,106.126465,0.058642,-0.010903,820.985229,0.00313,0.130739,0.061894,0.0,1.0,2645.126709,
91.659302,-222.654358,-221.460907,6.62043,-0.42223,6.62043,-0.42223,-219.999863,-220.0,125.657539,72.913284,879.888245,295.770599,106.186592,0.054789,0.004817,832.659302,0.004654,0.131421,0.061411,0.0,1.0,2645.918457,
91.714661,-219.969543,-218.776093,6.656273,-0.428746,6.656273,-0.428746,-219.999863,-220.0,128.480759,73.196907,887.437134,295.862244,106.205948,0.057201,0.019093,840.494263,0.006032,0.132409,0.056453,0.0,1.0,2646.411377,
91.826973,-215.71933,-214.525879,6.705868,-0.347328,6.705868,-0.347328,-219.999863,-220.0,132.948685,73.633003,899.338806,295.981934,106.210403,0.065787,0.036587,852.596008,0.006125,0.133125,0.051871,0.0,1.0,2647.157227,
91.904007,-212.734726,-211.54129,6.739182,-0.256138,6.739182,-0.256138,-209.999863,-210.0,136.085907,73.930199,907.399414,296.018555,106.197754,0.071794,0.040487,860.828308,0.004962,0.134117,0.045886,0.0,1.0,2647.657227,
Command_Fault: set /instrumentation/vertical-speed-indicator/serviceable false
91.995766,-208.503265,-207.30983,6.773063,-0.147978,6.773063,-0.147978,-209.999863,-210.0,140.523865,74.338577,917.955811,295.985107,106.16217,0.077081,0.031501,872.704651,0.003659,0.134784,0.044055,0.0,1.0,2648.336914,
92.061295,-205.687149,-204.493698,6.793077,-0.117034,6.793077,-0.117034,-209.999863,-210.0,143.466629,74.602142,924.152405,295.921906,106.128807,0.076482,0.019064,872.704651,0.002114,0.135461,0.045728,0.0,1.0,2648.775146,
92.170372,-200.991196,-199.79776,6.822289,-0.165684,6.822289,-0.165684,-199.999863,-200.0,148.369827,75.029533,933.474854,295.807159,106.057716,0.068447,-0.002308,872.704651,0.001672,0.135862,0.048888,0.0,1.0,2649.491211,
92.279709,-196.486694,-195.293243,6.85322,-0.288458,6.85322,-0.288458,-199.999863,-200.0,153.058609,75.425446,941.779785,295.754944,105.972794,0.058075,-0.011967,872.704651,0.002367,0.136446,0.054625,0.0,1.0,2650.163574,
92.349937,-193.4543,-192.260849,6.877015,-0.374568,6.877015,-0.374568,-189.999863,-190.0,156.207458,75.684639,947.342285,295.773102,105.907372,0.052833,-0.009286,872.704651,0.004121,0.137064,0.057236,0.0,1.0,2650.60791,
92.438812,-188.997711,-187.80426,6.912949,-0.444091,6.912949,-0.444091,-189.999863,-190.0,160.833252,76.055847,955.63092,295.865234,105.801483,0.050687,0.005527,872.704651,0.005351,0.13754,0.056328,0.0,1.0,2651.245117,
92.506798,-185.785736,-184.5923,6.942446,-0.438317,6.942446,-0.438317,-189.999863,-190.0,164.162369,76.316063,961.768494,295.952087,105.720436,0.053584,0.019096,872.704651,0.006344,0.138259,0.051721,0.0,1.0,2651.689209,
92.584251,-181.25119,-180.057739,6.977763,-0.356073,6.977763,-0.356073,-179.999863,-180.0,168.859558,76.673424,970.476807,296.043457,105.603661,0.06182,0.032265,872.704651,0.006262,0.138849,0.047379,0.0,1.0,2652.290771,
92.622375,-178.119202,-176.925766,6.999671,-0.277738,6.999671,-0.277738,-179.999863,-180.0,172.104416,76.913795,976.190857,296.062927,105.523842,0.066932,0.033745,872.704651,0.005087,0.139555,0.04281,0.0,1.0,2652.69043,
92.705635,-173.246902,-172.053467,7.024155,-0.187911,7.024155,-0.187911,-169.999863,-170.0,177.142761,77.277046,984.254944,296.014313,105.404694,0.070477,0.022793,872.704651,0.003968,0.139993,0.041837,0.0,1.0,2653.291504,
92.760956,-170.061172,-168.867722,7.038885,-0.173843,7.038885,-0.173843,-169.999863,-170.0,180.431763,77.508026,988.912659,295.949371,105.331062,0.068591,0.010531,872.704651,0.002684,0.140483,0.044267,0.0,1.0,2653.675293,
92.833244,-165.250412,-164.056976,7.057377,-0.233932,7.057377,-0.233932,-169.999863,-170.0,185.39296,77.847893,995.264709,295.85849,105.226616,0.060852,-0.005998,872.704651,0.002483,0.140778,0.047514,0.0,1.0,2654.246826,
92.914085,-160.39827,-159.204819,7.079995,-0.347259,7.079995,-0.347259,-159.999863,-160.0,190.384689,78.180061,1001.265625,295.829254,105.129295,0.051963,-0.011382,872.704651,0.003342,0.141148,0.052058,0.0,1.0,2654.81543,
92.963455,-157.143188,-155.949738,7.098528,-0.417086,7.098528,-0.417086,-159.999863,-160.0,193.72934,78.397308,1005.397644,295.857056,105.068581,0.048182,-0.006918,872.704651,0.004961,0.1416,0.05352,0.0,1.0,2655.191406,
93.030624,-152.367828,-151.174377,7.126426,-0.459221,7.126426,-0.459221,-149.999863,-150.0,198.632294,78.708153,1011.668152,295.946991,104.987251,0.04795,0.007663,872.704651,0.005958,0.141971,0.05213,0.0,1.0,2655.730469,
93.07164,-149.214798,-148.021347,7.147551,-0.442003,7.147551,-0.442003,-149.999863,-150.0,201.871063,78.908539,1015.952698,296.015289,104.939659,0.050601,0.018344,872.704651,0.00656,0.142529,0.047633,0.0,1.0,2656.075928,
93.129227,-143.975204,-142.781754,7.175873,-0.352576,7.175873,-0.352576,-139.999863,-140.0,207.252579,79.232872,1023.105835,296.087646,104.874046,0.059009,0.028477,872.704651,0.006314,0.142951,0.044218,0.0,1.0,2656.628906,
93.162842,-140.7854,-139.591949,7.191007,-0.286795,7.191007,-0.286795,-139.999863,-140.0,210.527695,79.425117,1027.207764,296.091187,104.843498,0.063099,0.027668,872.704651,0.005037,0.143517,0.040601,0.0,1.0,2656.953369,
93.216621,-135.909042,-134.715591,7.20589,-0.22353,7.20589,-0.22353,-139.999863,-140.0,215.535477,79.711906,1032.800537,296.037628,104.811363,0.065078,0.016579,872.704651,0.004097,0.14382,0.040424,0.0,1.0,2657.4375,
93.25489,-132.405411,-131.211975,7.215326,-0.22224,7.215326,-0.22224,-129.999863,-130.0,219.127853,79.912613,1036.231689,295.975037,104.798851,0.062497,0.005025,872.704651,0.003193,0.144118,0.043102,0.0,1.0,2657.779541,
93.317978,-127.190178,-125.996735,7.22875,-0.291802,7.22875,-0.291802,-129.999863,-130.0,224.465302,80.203575,1040.840088,295.899506,104.794876,0.054965,-0.008446,872.704651,0.003175,0.144307,0.046231,0.0,1.0,2658.283936,
93.377808,-122.233948,-121.040497,7.245523,-0.391795,7.245523,-0.391795,-119.999855,-120.0,229.535492,80.472328,1045.092529,295.888489,104.805069,0.047524,-0.01047,872.704651,0.004169,0.144575,0.050008,0.0,1.0,2658.76001,
93.413719,-118.67659,-117.483147,7.260502,-0.449744,7.260502,-0.449744,-119.999855,-120.0,233.169998,80.660492,1048.300903,295.923737,104.819778,0.044992,-0.004653,872.704651,0.005597,0.14491,0.050558,0.0,1.0,2659.097656,
93.464653,-113.534454,-112.341011,7.282928,-0.469848,7.282928,-0.469848,-109.999855,-110.0,238.424011,80.925926,1053.20105,296.012024,104.851585,0.046288,0.009704,872.704651,0.006425,0.14521,0.048796,0.0,1.0,2659.575439,
93.489929,-110.086777,-108.893333,7.299086,-0.440396,7.299086,-0.440396,-109.999855,-110.0,241.940536,81.099251,1056.607422,296.070862,104.880074,0.050021,0.018839,872.704651,0.006712,0.145659,0.044382,0.0,1.0,2659.88623,
93.529999,-104.905403,-103.71196,7.317516,-0.355096,7.317516,-0.355096,-109.999855,-110.0,247.236679,81.353783,1061.631348,296.113983,104.934486,0.056959,0.024424,872.704651,0.006291,0.145982,0.04144,0.0,1.0,2660.338623,
93.554733,-101.432526,-100.239082,7.327721,-0.297675,7.327721,-0.297675,-99.999855,-100.0,250.780823,81.519882,1064.702881,296.103088,104.978706,0.059968,0.021436,872.704651,0.005073,0.14635,0.039284,0.0,1.0,2660.632813,
93.596687,-96.205223,-95.01178,7.337326,-0.258747,7.337326,-0.258747,-99.999855,-100.0,256.115051,81.763786,1068.739258,296.039246,105.05616,0.060113,0.009157,872.704651,0.004252,0.146554,0.039829,0.0,1.0,2661.067871,
93.628662,-92.710762,-91.517319,7.343177,-0.27266,7.343177,-0.27266,-89.999855,-90.0,259.681549,81.923012,1071.037964,295.985229,105.114113,0.057029,-5.19E-4,872.704651,0.003696,0.146747,0.043021,0.0,1.0,2661.356201,
93.66935,-87.592369,-86.398926,7.352073,-0.342867,7.352073,-0.342867,-89.999855,-90.0,264.895813,82.150543,1074.124023,295.933136,105.205284,0.049882,-0.009568,872.704651,0.003895,0.146864,0.045721,0.0,1.0,2661.777344,
93.714821,-82.158775,-80.965332,7.365744,-0.431895,7.365744,-0.431895,-79.999855,-80.0,270.424164,82.385223,1077.412842,295.942566,105.307213,0.044195,-0.00793,872.704651,0.004898,0.147041,0.048326,0.0,1.0,2662.222412,
93.738365,-78.625603,-77.432159,7.377445,-0.469302,7.377445,-0.469302,-79.999855,-80.0,274.019562,82.534286,1079.755615,295.983002,105.375198,0.043063,-0.001211,872.704651,0.00617,0.147315,0.047855,0.0,1.0,2662.508789,
93.775452,-73.605919,-72.412476,7.393936,-0.466877,7.393936,-0.466877,-69.999855,-70.0,279.126984,82.741188,1083.311157,296.058441,105.473358,0.045309,0.011032,872.704651,0.006704,0.147549,0.045833,0.0,1.0,2662.907959,
93.794006,-69.756485,-68.563042,7.406882,-0.427384,7.406882,-0.427384,-69.999855,-70.0,283.044159,82.896027,1086.126953,296.106659,105.549889,0.04954,0.018397,872.704651,0.00667,0.147879,0.042061,0.0,1.0,2663.205811,
93.827309,-64.4142,-63.220753,7.419848,-0.349112,7.419848,-0.349112,-59.999859,-60.0,288.48468,83.105614,1089.899658,296.125946,105.65802,0.055293,0.020209,872.704651,0.006105,0.148138,0.03965,0.0,1.0,2663.607666,
93.846062,-60.838421,-59.644978,7.426127,-0.305936,7.426127,-0.305936,-59.999859,-60.0,292.121613,83.242294,1092.134033,296.104279,105.731262,0.057129,0.015644,872.704651,0.004987,0.148397,0.038686,0.0,1.0,2663.870361,
93.897507,-55.463078,-54.269634,7.431594,-0.291169,7.431594,-0.291169,-59.999859,-60.0,297.589813,83.442886,1094.957153,296.039795,105.841599,0.055746,0.003713,872.704651,0.004371,0.148523,0.039769,0.0,1.0,2664.26123,
93.908325,-50.221561,-49.028118,7.437236,-0.335419,7.437236,-0.335419,-49.999859,-50.0,302.918335,83.633018,1097.252686,295.97998,105.947052,0.050297,-0.006742,872.704651,0.00416,0.148632,0.042993,0.0,1.0,2664.641113,
93.934517,-46.619846,-45.426399,7.44254,-0.386894,7.44254,-0.386894,-49.999859,-50.0,306.578491,83.760712,1098.776367,295.962067,106.016869,0.046153,-0.00974,872.704651,0.004792,0.148745,0.045984,0.0,1.0,2664.902832,
93.966011,-41.202049,-40.008606,7.45296,-0.456577,7.45296,-0.456577,-39.999859,-40.0,312.078491,83.94825,1101.195923,295.985626,106.115997,0.042006,-0.005572,872.704651,0.005527,0.148851,0.04688,0.0,1.0,2665.295166,
93.987465,-37.585312,-36.391865,7.462524,-0.479709,7.462524,-0.479709,-39.999859,-40.0,315.752197,84.070633,1102.997559,296.027985,106.177811,0.041992,0.001482,872.704651,0.006523,0.149059,0.045702,0.0,1.0,2665.554688,
94.010651,-31.99367,-30.800226,7.476915,-0.458094,7.476915,-0.458094,-29.999857,-30.0,321.428375,84.255165,1106.046265,296.099792,106.266426,0.045681,0.013019,872.704651,0.006853,0.14925,0.043584,0.0,1.0,2665.94751,
94.023918,-28.361727,-27.168282,7.485723,-0.416689,7.485723,-0.416689,-29.999857,-30.0,325.118683,84.372162,1108.073242,296.130829,106.319901,0.049337,0.017576,872.704651,0.006544,0.149538,0.039993,0.0,1.0,2666.196289,
94.044739,-23.054291,-21.860847,7.493673,-0.349226,7.493673,-0.349226,-19.999857,-20.0,330.512177,84.53904,1110.806641,296.131165,106.392754,0.053928,0.016432,872.704651,0.005953,0.149714,0.038441,0.0,1.0,2666.551758,
94.068054,-17.581657,-16.388212,7.498589,-0.311562,7.498589,-0.311562,-19.999857,-20.0,336.072327,84.706146,1113.11145,296.082611,106.46125,0.054364,0.00727,872.704651,0.004989,0.149873,0.038425,0.0,1.0,2666.911621,
94.08403,-14.078179,-12.884735,7.50077,-0.317918,7.50077,-0.317918,-9.999858,-10.0,339.630188,84.8106,1114.342407,296.040924,106.501114,0.052616,-1.0E-4,872.704651,0.004451,0.149972,0.040852,0.0,1.0,2667.12915,
94.114639,-8.434734,-7.24129,7.504311,-0.372983,7.504311,-0.372983,-9.999858,-10.0,345.361298,84.975014,1116.061768,295.993744,106.557587,0.046566,-0.008146,872.704651,0.004542,0.150015,0.042937,0.0,1.0,2667.452881,
94.138176,-4.76993,-3.576486,7.50859,-0.421291,7.50859,-0.421291,-9.999858,-10.0,349.083405,85.079346,1117.161865,295.989349,106.58847,0.043226,-0.008794,872.704651,0.005328,0.150086,0.045296,0.0,1.0,2667.651855,
94.152176,0.836879,2.030323,7.517823,-0.473365,7.517823,-0.473365,1.42E-4,0.0,354.673889,85.232483,1119.036621,296.025818,106.625732,0.040829,-0.002461,872.704651,0.006018,0.150172,0.045515,0.0,1.0,2667.938232,
Command: turn_+45
94.166435,4.861095,6.054539,7.526509,-0.491835,7.526509,-0.491835,1.42E-4,0.0,358.562134,85.336464,1120.571411,296.083801,106.645439,0.033846,0.007631,872.704651,0.002254,0.150356,0.1,0.0,1.0,2668.12915,
94.171623,10.501539,11.694984,7.548114,-0.513047,7.548114,-0.513047,10.000142,10.0,364.015381,85.478661,1123.09729,296.383087,106.666306,0.031987,0.05532,872.704651,0.002342,0.15053,0.1,0.0,1.0,2668.378662,
94.158684,14.533071,15.726515,7.574372,-0.409647,7.574372,-0.409647,10.000142,10.0,367.919464,85.577644,1125.718994,296.702759,106.679192,0.045042,0.103866,872.704651,0.002443,0.150962,0.1,0.0,1.0,2668.532715,
94.112816,20.192787,21.386232,7.607749,-0.049738,7.607749,-0.049738,20.000143,20.0,373.403625,85.712181,1130.625977,297.152588,106.701775,0.07866,0.167853,872.704651,0.001951,0.151487,0.1,0.0,1.0,2668.698486,
94.053398,26.187902,27.381346,7.624622,0.525644,7.624622,0.525644,30.000143,30.0,379.228058,85.848824,1135.899414,297.490936,106.742561,0.116422,0.20808,872.704651,2.37E-4,0.152155,0.1,0.0,1.0,2668.808105,
94.010216,30.09273,31.286173,7.624455,0.932105,7.624455,0.932105,30.000143,30.0,383.019104,85.934296,1138.49646,297.601959,106.783752,0.137162,0.214571,872.704651,-0.002503,0.152492,0.1,0.0,1.0,2668.852539,
93.959633,35.793453,36.986897,7.614831,1.454563,7.614831,1.454563,40.000141,40.0,388.559357,86.054611,1140.484009,297.63147,106.86982,0.155729,0.200934,872.704651,-0.004439,0.152489,0.1,0.0,1.0,2668.900391,
93.940559,39.552334,40.745777,7.607505,1.721582,7.607505,1.721582,40.000141,40.0,392.203064,86.131042,1140.657959,297.599976,106.944481,0.158834,0.183601,872.704651,-0.006926,0.152297,0.1,0.0,1.0,2668.931152,
93.913925,45.760403,46.95385,7.598338,1.994376,7.598338,1.994376,50.000141,50.0,398.221069,86.253174,1139.682251,297.545441,107.09919,0.152663,0.154903,872.704651,-0.008198,0.15215,0.1,0.0,1.0,2668.993652,
93.901924,49.696285,50.889729,7.592491,2.078565,7.592491,2.078565,50.000141,50.0,402.018188,86.327896,1138.589478,297.551422,107.215904,0.144529,0.143716,872.704651,-0.009497,0.151967,0.1,0.0,1.0,2669.043457,
93.896919,55.59082,56.784267,7.585102,2.127122,7.585102,2.127122,50.000141,50.0,407.706421,86.43676,1136.76001,297.658691,107.416061,0.132404,0.142727,872.704651,-0.009898,0.15185,0.1,0.0,1.0,2669.131836,
93.87841,59.364105,60.557549,7.58084,2.146689,7.58084,2.146689,60.000141,60.0,411.335968,86.504387,1135.713013,297.79071,107.558571,0.127123,0.151891,872.704651,-0.010129,0.151702,0.1,0.0,1.0,2669.194092,
93.860054,65.266068,66.459511,7.577007,2.209693,7.577007,2.209693,60.000141,60.0,417.01123,86.607285,1134.550415,298.071686,107.803459,0.125601,0.176646,872.704651,-0.010222,0.151617,0.1,0.0,1.0,2669.292969,
93.842972,69.362312,70.555756,7.575304,2.294383,7.575304,2.294383,70.000145,70.0,420.94986,86.676605,1134.146973,298.294189,107.98922,0.128635,0.196739,872.704651,-0.010522,0.15154,0.1,0.0,1.0,2669.358398,
93.813744,75.25975,76.453201,7.573385,2.474198,7.573385,2.474198,70.000145,70.0,426.619965,86.773285,1133.970215,298.610779,108.280197,0.137029,0.222587,872.704651,-0.010926,0.151506,0.1,0.0,1.0,2669.443359,
93.796761,79.185806,80.379257,7.571367,2.620503,7.571367,2.620503,80.000145,80.0,430.399841,86.83567,1133.941284,298.801483,108.490196,0.143349,0.23502,872.704651,-0.011782,0.151468,0.1,0.0,1.0,2669.493164,
93.761566,85.075935,86.269379,7.56696,2.844101,7.56696,2.844101,80.000145,80.0,436.069092,86.926178,1133.697632,299.045319,108.829918,0.151146,0.244924,872.704651,-0.012479,0.151427,0.1,0.0,1.0,2669.561523,
93.732918,90.802368,91.995811,7.561065,3.036351,7.561065,3.036351,90.000145,90.0,441.578552,87.010742,1132.986816,299.242126,109.188377,0.154904,0.246527,872.704651,-0.013543,0.151339,0.1,0.0,1.0,2669.625732,
93.743736,94.886063,96.079506,7.556184,3.144722,7.556184,3.144722,90.000145,90.0,445.511108,87.069191,1132.156128,299.37149,109.460602,0.154964,0.245232,872.704651,-0.014459,0.151221,0.1,0.0,1.0,2669.673828,
93.703979,100.771393,101.964836,7.549338,3.251656,7.549338,3.251656,100.000145,100.0,451.16806,87.150665,1130.620361,299.564026,109.874062,0.152422,0.243644,872.704651,-0.014975,0.151124,0.1,0.0,1.0,2669.748779,
93.693695,104.694168,105.887611,7.544086,3.299191,7.544086,3.299191,100.000145,100.0,454.934814,87.203316,1129.470581,299.707001,110.162148,0.149907,0.244544,872.704651,-0.015484,0.150987,0.1,0.0,1.0,2669.803467,
93.681679,110.406036,111.59948,7.537175,3.346366,7.537175,3.346366,110.000145,110.0,460.421021,87.277847,1127.776245,299.944702,110.597343,0.146521,0.249848,872.704651,-0.01571,0.150882,0.1,0.0,1.0,2669.888672,
93.67672,114.482536,115.67598,7.532001,3.377594,7.532001,3.377594,110.000145,110.0,464.334869,87.329498,1126.645874,300.134979,110.917412,0.145204,0.256323,872.704651,-0.015935,0.150743,0.1,0.0,1.0,2669.952393,
93.651634,120.347198,121.540642,7.52589,3.43129,7.52589,3.43129,120.000145,120.0,469.964294,87.401627,1125.218872,300.430176,111.389267,0.145096,0.26795,872.704651,-0.016084,0.15064,0.1,0.0,1.0,2670.046387,
93.641373,124.087959,125.281403,7.521993,3.475124,7.521993,3.475124,120.000145,120.0,473.557434,87.446335,1124.445923,300.625061,111.696342,0.146119,0.275653,872.704651,-0.016339,0.150518,0.1,0.0,1.0,2670.106201,
93.64521,130.099808,131.293243,7.516792,3.558724,7.516792,3.558724,130.000137,130.0,479.332886,87.51606,1123.354248,300.937073,112.197632,0.148604,0.286559,872.704651,-0.016548,0.15044,0.1,0.0,1.0,2670.201904,
93.607544,135.784821,136.978271,7.511775,3.645838,7.511775,3.645838,140.000137,140.0,484.79126,87.579567,1122.393188,301.222168,112.678223,0.151154,0.293985,872.704651,-0.016946,0.150336,0.1,0.0,1.0,2670.291504,
93.604889,139.833008,141.026459,7.508195,3.706236,7.508195,3.706236,140.000137,140.0,488.687164,87.623512,1121.674683,301.418457,113.024147,0.152408,0.297461,872.704651,-0.017361,0.150236,0.1,0.0,1.0,2670.355469,
93.581024,145.502213,146.695663,7.503643,3.779535,7.503643,3.779535,140.000137,140.0,494.137115,87.683128,1120.610352,301.686035,113.510399,0.153284,0.300409,872.704651,-0.017649,0.150164,0.1,0.0,1.0,2670.446777,
93.575249,149.546051,150.739502,7.499915,3.822623,7.499915,3.822623,150.000137,150.0,498.026672,87.724403,1119.79126,301.87558,113.857941,0.153206,0.301837,872.704651,-0.017998,0.150073,0.1,0.0,1.0,2670.513428,
93.560234,155.206665,156.400116,7.494907,3.868526,7.494907,3.868526,150.000137,150.0,503.467072,87.780434,1118.567749,302.144562,114.342819,0.152428,0.30389,872.704651,-0.018203,0.149998,0.1,0.0,1.0,2670.610107,
93.551064,159.242661,160.436096,7.491017,3.893875,7.491017,3.893875,160.000137,160.0,507.349396,87.819267,1117.675415,302.342041,114.686714,0.151738,0.305877,872.704651,-0.018422,0.149898,0.1,0.0,1.0,2670.681152,
93.54525,165.047943,166.241394,7.486019,3.923739,7.486019,3.923739,160.000137,160.0,512.934509,87.873512,1116.417725,302.636139,115.176392,0.150873,0.309773,872.704651,-0.018542,0.14982,0.1,0.0,1.0,2670.786865,
93.534241,170.69072,171.884155,7.481165,3.950158,7.481165,3.950158,170.000137,170.0,518.358643,87.924431,1115.276855,302.932587,115.644279,0.150199,0.314604,872.704651,-0.018684,0.14972,0.1,0.0,1.0,2670.894531,
93.538399,174.71431,175.907761,7.47777,3.968788,7.47777,3.968788,170.000137,170.0,522.229736,87.959747,1114.515503,303.149933,115.972588,0.14998,0.318515,872.704651,-0.01881,0.149623,0.1,0.0,1.0,2670.974121,
93.5186,180.187393,181.380844,7.473998,3.995592,7.473998,3.995592,180.000137,180.0,527.490417,88.006401,1113.58667,303.450745,116.410202,0.150061,0.324046,872.704651,-0.018899,0.149555,0.1,0.0,1.0,2671.085205,
93.515892,184.364304,185.557755,7.471173,4.018262,7.471173,4.018262,180.000137,180.0,531.510559,88.041039,1112.959229,303.68277,116.73745,0.150433,0.328112,872.704651,-0.019027,0.14948,0.1,0.0,1.0,2671.171387,
93.529526,190.133316,191.326767,7.467774,4.051747,7.467774,4.051747,190.000137,190.0,537.073242,88.087547,1112.164917,304.003906,117.179413,0.15114,0.333067,872.704651,-0.019135,0.149423,0.1,0.0,1.0,2671.292236,
93.504646,193.66658,194.860016,7.465689,4.072749,7.465689,4.072749,190.000137,190.0,540.470825,88.115158,1111.710571,304.199127,117.442955,0.151522,0.335592,872.704651,-0.019294,0.149355,0.1,0.0,1.0,2671.366943,
93.497795,199.750793,200.944229,7.462547,4.107249,7.462547,4.107249,200.000137,200.0,546.336121,88.161461,1110.953491,304.534149,117.886292,0.152116,0.339049,872.704651,-0.019394,0.149314,0.1,0.0,1.0,2671.49707,
93.490433,205.195969,206.389404,7.459641,4.133997,7.459641,4.133997,200.000137,200.0,551.580627,88.201439,1110.28064,304.832367,118.270149,0.152304,0.341403,872.704651,-0.019558,0.149251,0.1,0.0,1.0,2671.615234,
93.491699,209.35228,210.545731,7.457451,4.151572,7.457451,4.151572,210.000137,210.0,555.588989,88.231117,1109.758301,305.060516,118.555542,0.152285,0.342944,872.704651,-0.019686,0.149193,0.1,0.0,1.0,2671.706787,
93.483734,214.947311,216.140762,7.454884,4.170859,7.454884,4.170859,210.000137,210.0,560.981934,88.269913,1109.074097,305.369232,118.928719,0.152092,0.344931,872.704651,-0.019769,0.149149,0.1,0.0,1.0,2671.831787,
93.488228,218.934357,220.127792,7.452987,4.182424,7.452987,4.182424,220.000137,220.0,564.832031,88.296829,1108.602661,305.591461,119.187698,0.151944,0.346407,872.704651,-0.019861,0.149098,0.1,0.0,1.0,2671.922119,
93.474831,224.523544,225.71698,7.450535,4.196603,7.450535,4.196603,220.000137,220.0,570.219482,88.333443,1107.975952,305.905304,119.540009,0.151757,0.348611,872.704651,-0.019916,0.14906,0.1,0.0,1.0,2672.050049,
93.481506,228.508987,229.702438,7.448705,4.206309,7.448705,4.206309,230.000137,230.0,574.065857,88.358849,1107.550171,306.131195,119.78463,0.151718,0.350257,872.704651,-0.019984,0.149011,0.1,0.0,1.0,2672.142578,
93.467812,234.253738,235.447174,7.446474,4.220279,7.446474,4.220279,230.000137,230.0,579.602112,88.394394,1106.973267,306.458221,120.127243,0.15178,0.352609,872.704651,-0.02003,0.148974,0.1,0.0,1.0,2672.276611,
93.460197,239.823196,241.016632,7.444375,4.234375,7.444375,4.234375,240.000137,240.0,584.981934,88.427803,1106.459717,306.777039,120.450287,0.151961,0.354716,872.704651,-0.020097,0.148929,0.1,0.0,1.0,2672.407959,
93.461006,243.802795,244.996231,7.442943,4.244557,7.442943,4.244557,240.000137,240.0,588.823181,88.450996,1106.110474,307.004761,120.675568,0.152099,0.356041,872.704651,-0.020164,0.148888,0.1,0.0,1.0,2672.502441,
93.457314,249.529968,250.723419,7.441223,4.258577,7.441223,4.258577,250.000137,250.0,594.352539,88.483437,1105.638916,307.332336,120.992889,0.152294,0.357651,872.704651,-0.020212,0.148859,0.1,0.0,1.0,2672.63916,
93.458626,253.34697,254.540421,7.440011,4.267354,7.440011,4.267354,250.000137,250.0,598.037476,88.504463,1105.338379,307.550476,121.200371,0.152382,0.358544,872.704651,-0.020279,0.148824,0.1,0.0,1.0,2672.730957,
93.451843,258.906067,260.099518,7.438421,4.278683,7.438421,4.278683,260.000153,260.0,603.409546,88.534279,1104.908447,307.8685,121.498024,0.152435,0.359655,872.704651,-0.020321,0.1488,0.1,0.0,1.0,2672.865479,
93.449219,262.719086,263.912506,7.437253,4.285556,7.437253,4.285556,260.000153,260.0,607.092102,88.554169,1104.619873,308.086761,121.69931,0.152426,0.360336,872.704651,-0.020375,0.148768,0.1,0.0,1.0,2672.958496,
93.448036,268.589905,269.783356,7.435658,4.294604,7.435658,4.294604,270.000153,270.0,612.767456,88.583977,1104.182617,308.42392,122.006119,0.152376,0.361336,872.704651,-0.020407,0.148745,0.1,0.0,1.0,2673.102783,
93.443329,272.240631,273.434082,7.434632,4.299582,7.434632,4.299582,270.000153,270.0,616.29425,88.601997,1103.922485,308.634064,122.195229,0.152337,0.361956,872.704651,-0.02045,0.148713,0.1,0.0,1.0,2673.193115,
93.442245,277.943909,279.137329,7.433254,4.306585,7.433254,4.306585,280.000153,280.0,621.812866,88.629448,1103.531006,308.963867,122.489662,0.1523,0.362937,872.704651,-0.020474,0.148693,0.1,0.0,1.0,2673.334961,
93.437592,283.804962,284.998413,7.431817,4.313406,7.431817,4.313406,280.000153,280.0,627.482788,88.656738,1103.157593,309.303741,122.791389,0.152302,0.363934,872.704651,-0.020508,0.148665,0.1,0.0,1.0,2673.481934,
93.445862,287.603882,288.797333,7.430914,4.317749,7.430914,4.317749,290.000153,290.0,631.159546,88.673958,1102.924805,309.524536,122.987221,0.152328,0.364553,872.704651,-0.02054,0.148636,0.1,0.0,1.0,2673.577881,
93.435043,293.146515,294.339966,7.429868,4.3239,7.429868,4.3239,290.000153,290.0,636.520203,88.698402,1102.608398,309.846802,123.273758,0.152389,0.365385,872.704651,-0.020561,0.148618,0.1,0.0,1.0,2673.718018,
93.437805,297.103424,298.296875,7.42908,4.328218,7.42908,4.328218,300.000153,300.0,640.348328,88.715393,1102.399048,310.077026,123.479584,0.152432,0.365913,872.704651,-0.02059,0.148597,0.1,0.0,1.0,2673.818848,
93.433014,302.642944,303.836395,7.428092,4.333915,7.428092,4.333915,300.000153,300.0,645.706482,88.738548,1102.117432,310.399353,123.770035,0.152487,0.366554,872.704651,-0.020611,0.148582,0.1,0.0,1.0,2673.960449,
Command_Fault: set /instrumentation/vertical-speed-indicator/serviceable true
93.435326,306.589539,307.78299,7.427382,4.337721,7.427382,4.337721,310.000153,310.0,649.532959,88.754654,1101.922852,310.629547,123.97953,0.15252,0.366948,8125.970703,-0.020638,0.148562,0.1,0.0,1.0,2674.061768,
93.438362,312.277893,313.471344,7.426491,4.342627,7.426491,4.342627,310.000153,310.0,655.04187,88.777222,1101.656128,310.96106,124.284737,0.152548,0.367442,7850.701172,-0.020656,0.148548,0.1,0.0,1.0,2674.208252,
93.429375,316.070221,317.263672,7.425862,4.345572,7.425862,4.345572,320.000153,320.0,658.713745,88.791878,1101.486572,311.182159,124.490807,0.152545,0.367738,7668.097168,-0.020679,0.14853,0.1,0.0,1.0,2674.306641,
93.427422,321.600159,322.793579,7.425056,4.349349,7.425056,4.349349,320.000153,320.0,664.067627,88.812698,1101.245728,311.504822,124.79541,0.152534,0.368145,7403.174316,-0.020693,0.148517,0.1,0.0,1.0,2674.450439,
93.426315,327.282043,328.475464,7.424233,4.352796,7.424233,4.352796,330.000153,330.0,669.573242,88.833466,1101.010986,311.837036,125.114136,0.152526,0.368548,7132.43457,-0.020711,0.148501,0.1,0.0,1.0,2674.598877,
93.427094,331.227081,332.420502,7.423674,4.355017,7.423674,4.355017,330.000153,330.0,673.395874,88.847511,1100.854492,312.067932,125.33886,0.152524,0.36882,6945.555664,-0.020728,0.148485,0.1,0.0,1.0,2674.702148,
