airspeed_indicator_indicated_speed_kt,altimeter_indicated_altitude_ft,altimeter_pressure_alt_ft,attitude_indicator_indicated_pitch_deg,attitude_indicator_indicated_roll_deg,attitude_indicator_internal_pitch_deg,attitude_indicator_internal_roll_deg,encoder_indicated_altitude_ft,encoder_pressure_alt_ft,gps_indicated_altitude_ft,gps_indicated_ground_speed_kt,gps_indicated_vertical_speed,indicated_heading_deg,magnetic_compass_indicated_heading_deg,slip_skid_ball_indicated_slip_skid,turn_indicator_indicated_turn_rate,vertical_speed_indicator_indicated_speed_fpm,flight_aileron,flight_elevator,flight_rudder,flight_flaps,engine_throttle,engine_rpm,Command_fault,Command
24.963696,-195.587967,-194.394531,3.052943,1.369381,2.696928,0.182663,-189.999863,-190.0,18.855431,1.87E-4,0.001407,297.86792,15.572486,-0.046955,-0.047912,-1665.244507,-0.0,0.0,0.0,0.0,0.0,601.908264,, takeoff
24.923403,-205.170685,-203.977249,3.012069,1.236206,2.696063,0.182853,-199.999863,-200.0,18.855436,1.81E-4,-0.003551,297.866455,14.863614,-0.04699,-0.040201,-1671.722778,-0.019563,0.053939,0.0,0.0,1.0,610.104919,, takeoff
24.95685,-213.241608,-212.048172,2.79183,0.556295,2.679645,0.182345,-209.999863,-210.0,18.855373,2.42E-4,-0.022978,297.865082,14.253551,-0.04719,-0.034634,-1671.369995,-0.01766,0.053921,7.3E-5,0.0,1.0,726.592102,, takeoff
24.971523,-218.62915,-217.435715,2.674346,0.263698,2.649309,0.180243,-209.999863,-210.0,18.855257,3.85E-4,-0.047263,297.864014,13.851204,-0.047345,-0.031431,-1671.395752,-0.007947,0.053593,1.42E-4,0.0,1.0,857.564636,, takeoff
24.994652,-226.718445,-225.524994,2.595095,0.173156,2.595095,0.173156,-219.999863,-220.0,18.855108,0.001346,0.006833,297.862122,13.261476,-0.046252,-0.027314,-1671.674683,-0.003767,0.052986,1.95E-4,0.0,1.0,1093.633789,, takeoff
25.01446,-232.115463,-230.922028,2.584375,0.16573,2.584375,0.16573,-229.999863,-230.0,18.855249,0.00363,0.079118,297.860809,12.88136,-0.043333,-0.024967,-1671.955811,-0.002474,0.051902,2.9E-4,0.0,1.0,1258.095093,, takeoff
25.051044,-240.224655,-239.031204,2.596351,0.151784,2.596351,0.151784,-239.999863,-240.0,18.855963,0.012052,0.208212,297.858673,12.336885,-0.042652,-0.021945,-1672.743042,-0.002368,0.051688,3.56E-4,0.0,1.0,1491.373413,, takeoff
25.088387,-245.627197,-244.433746,2.612342,0.141441,2.612342,0.141441,-239.999863,-240.0,18.856827,0.022605,0.307829,297.85672,11.994328,-0.048052,-0.020297,-1673.03418,-0.002168,0.051927,4.62E-4,0.0,1.0,1629.418823,, takeoff
25.165245,-253.731293,-252.537842,2.63785,0.125479,2.63785,0.125479,-249.999863,-250.0,18.858818,0.048544,0.486396,297.849854,11.51617,-0.055265,-0.018762,-1673.373657,-0.002021,0.052247,5.6E-4,0.0,1.0,1803.75708,, takeoff
25.231964,-259.135651,-257.9422,2.653257,0.115072,2.653257,0.115072,-259.999847,-260.0,18.860682,0.073996,0.623563,297.841888,11.223717,-0.06217,-0.018377,-1673.593872,-0.001793,0.052757,9.03E-4,0.0,1.0,1897.848511,, takeoff
25.358736,-267.243805,-266.050354,2.671305,0.101392,2.671305,0.101392,-259.999847,-260.0,18.864403,0.126442,0.86105,297.822449,10.828086,-0.059463,-0.019059,-1673.887939,-0.001644,0.053065,0.001302,0.0,1.0,2008.790771,, takeoff
24.801138,-272.574921,-271.38147,2.680397,0.09356,2.680397,0.09356,-269.999847,-270.0,18.867573,0.171844,1.035397,297.803772,10.594635,-0.05451,-0.020311,-1671.079102,-0.001448,0.053426,0.002274,0.0,1.0,2065.377441,, takeoff
21.728704,-279.062683,-277.869232,2.689833,0.084012,2.689833,0.084012,-279.999847,-280.0,18.873457,0.256751,1.314989,297.769867,10.291842,-0.048549,-0.022819,-1610.234497,-0.001337,0.053608,0.003207,0.0,1.0,2129.43457,, takeoff
20.012608,-282.419128,-281.225677,2.694306,0.078978,2.694306,0.078978,-279.999847,-280.0,18.878187,0.325008,1.514425,297.743622,10.122227,-0.045413,-0.024832,-1536.305176,-0.0012,0.053797,0.004903,0.0,1.0,2160.984375,, takeoff
17.912336,-286.341827,-285.148376,2.698869,0.073132,2.698869,0.073132,-279.999847,-280.0,18.886557,0.445322,1.826842,297.702148,9.916558,-0.041777,-0.027752,-1390.073608,-0.001128,0.053886,0.006215,0.0,1.0,2195.545166,, takeoff
16.812099,-288.37027,-287.176819,2.701116,0.070108,2.701116,0.070108,-289.999847,-290.0,18.893017,0.537602,2.040078,297.673706,9.811766,-0.039873,-0.029559,-1274.954468,-0.001045,0.053977,0.008289,0.0,1.0,2211.969727,, takeoff
15.5825,-290.73938,-289.545929,2.703617,0.06653,2.703617,0.06653,-289.999847,-290.0,18.904068,0.694132,2.370015,297.634247,9.702131,-0.03764,-0.031389,-1083.450684,-0.001002,0.054022,0.009711,0.0,1.0,2229.248779,, takeoff
15.023131,-291.963348,-290.769897,2.70505,0.064568,2.70505,0.064568,-289.999847,-290.0,18.912357,0.810477,2.594606,297.610809,9.659888,-0.036346,-0.031998,-946.841248,-9.5E-4,0.054072,0.011684,0.0,1.0,2237.018555,, takeoff
14.532649,-293.391083,-292.197632,2.706962,0.061978,2.706962,0.061978,-289.999847,-290.0,18.926195,1.002733,2.932313,297.583649,9.640865,-0.034565,-0.031509,-734.212219,-9.22E-4,0.054101,0.012856,0.0,1.0,2244.557373,, takeoff
14.405907,-294.12738,-292.93396,2.708247,0.060394,2.708247,0.060394,-289.999847,-290.0,18.936361,1.142537,3.158144,297.571228,9.656395,-0.033315,-0.030325,-590.946838,-8.85E-4,0.054139,0.014214,0.0,1.0,2247.503174,, takeoff
14.439864,-294.984222,-293.790771,2.710572,0.058497,2.710572,0.058497,-289.999847,-290.0,18.953018,1.36931,3.494981,297.562286,9.719379,-0.031212,-0.027222,-382.569366,-8.63E-4,0.054165,0.014835,0.0,1.0,2249.705566,, takeoff
14.599432,-295.424622,-294.231201,2.712579,0.057707,2.712579,0.057707,-289.999847,-290.0,18.965061,1.531623,3.721146,297.561737,9.78613,-0.029744,-0.024553,-257.231049,-8.36E-4,0.054211,0.015282,0.0,1.0,2250.063721,, takeoff
14.998438,-295.934814,-294.741364,2.71907,0.056415,2.71907,0.056415,-289.999847,-290.0,18.984713,1.791336,4.213639,297.567047,9.920238,-0.027932,-0.020089,-121.550117,-8.24E-4,0.054252,0.015309,0.0,1.0,2249.388428,, takeoff
15.347378,-296.195313,-295.001862,2.726668,0.049812,2.726668,0.049812,-289.999847,-290.0,18.999166,1.975029,4.446235,297.573273,10.030334,-0.027016,-0.017192,-81.27739,-8.06E-4,0.054381,0.015044,0.0,1.0,2248.715576,, takeoff
15.964096,-296.494263,-295.300812,2.734971,0.04282,2.734971,0.04282,-299.999847,-300.0,19.0226,2.265917,4.907242,297.584137,10.223164,-0.023939,-0.013064,-55.097115,-7.12E-4,0.054533,0.014732,0.0,1.0,2249.110596,, takeoff
16.423395,-296.644897,-295.451447,2.736797,0.043151,2.736797,0.043151,-299.999847,-300.0,19.039362,2.469809,5.139269,297.590881,10.368074,-0.02246,-0.010618,-43.369553,-6.12E-4,0.054699,0.014189,0.0,1.0,2249.985596,, takeoff
17.166149,-296.814636,-295.621185,2.739372,0.044462,2.739372,0.044462,-299.999847,-300.0,19.065968,2.790179,5.492887,297.597717,10.606008,-0.021296,-0.007897,-29.995855,-6.16E-4,0.054736,0.013852,0.0,1.0,2251.811035,, takeoff
17.688725,-296.897949,-295.704498,2.741656,0.045407,2.741656,0.045407,-299.999847,-300.0,19.084692,3.013218,5.73091,297.599426,10.775943,-0.02103,-0.006752,-23.168941,-6.35E-4,0.054787,0.01351,0.0,1.0,2253.227295,, takeoff
18.502693,-296.988281,-295.794861,2.745586,0.046927,2.745586,0.046927,-299.999847,-300.0,19.114265,3.361582,6.087242,297.596924,11.043632,-0.021271,-0.006027,-20.999823,-6.49E-4,0.054833,0.013425,0.0,1.0,2255.501709,, takeoff
19.060581,-297.03006,-295.836609,2.748478,0.047969,2.748478,0.047969,-299.999847,-300.0,19.134972,3.602812,6.325734,297.592041,11.228163,-0.021785,-0.0061,-17.857893,-6.7E-4,0.054912,0.01355,0.0,1.0,2257.067871,, takeoff
19.914047,-297.071198,-295.877747,2.752971,0.04953,2.752971,0.04953,-299.999847,-300.0,19.167522,3.97778,6.684711,297.581177,11.509893,-0.022928,-0.006737,-12.587029,-6.85E-4,0.05497,0.013794,0.0,1.0,2259.442627,, takeoff
20.491398,-297.087036,-295.893585,2.756163,0.050516,2.756163,0.050516,-299.999847,-300.0,19.19022,4.2363,6.924576,297.572357,11.698629,-0.023787,-0.007352,-9.920425,-7.08E-4,0.055059,0.014337,0.0,1.0,2261.027344,, takeoff
21.366486,-297.097168,-295.903717,2.761069,0.051787,2.761069,0.051787,-299.999847,-300.0,19.22576,4.636549,7.281846,297.559082,11.979201,-0.024998,-0.008153,-6.877197,-7.22E-4,0.055123,0.014778,0.0,1.0,2263.393799,, takeoff
21.954391,-297.096527,-295.903107,2.764536,0.052489,2.764536,0.052489,-299.999847,-300.0,19.250452,4.911495,7.523319,297.551056,12.162421,-0.025611,-0.008492,6.162446,-7.4E-4,0.055221,0.015442,0.0,1.0,2264.960938,, takeoff
22.841059,-297.086731,-295.893311,2.769798,0.053225,2.769798,0.053225,-299.999847,-300.0,19.288982,5.335754,7.879483,297.542114,12.428125,-0.026074,-0.008437,17.110682,-7.5E-4,0.055291,0.015843,0.0,1.0,2267.29541,, takeoff
23.434513,-297.075348,-295.881897,2.773505,0.053578,2.773505,0.053578,-299.999847,-300.0,19.315664,5.626297,8.120755,297.538635,12.597398,-0.026033,-0.008024,19.61857,-7.6E-4,0.055396,0.01629,0.0,1.0,2268.841309,, takeoff
24.327099,-297.052307,-295.858856,2.779095,0.053892,2.779095,0.053892,-299.999847,-300.0,19.357178,6.073348,8.477321,297.537415,12.836823,-0.025449,-0.006847,15.595056,-7.65E-4,0.05547,0.016464,0.0,1.0,2271.147217,, takeoff
24.923292,-297.0336,-295.840149,2.782982,0.054071,2.782982,0.054071,-299.999847,-300.0,19.385845,6.37869,8.713736,297.53894,12.98543,-0.024793,-0.005798,13.680402,-7.7E-4,0.055582,0.016525,0.0,1.0,2272.677002,, takeoff
25.821465,-297.001587,-295.808136,2.759734,0.054521,2.759734,0.054521,-299.999847,-300.0,19.427086,6.847382,7.826292,297.543823,13.18984,-0.023575,-0.004001,13.237218,-7.72E-4,0.05566,0.016449,0.0,1.0,2274.963867,, takeoff
26.422182,-296.978577,-295.785126,2.761553,0.054797,2.761553,0.054797,-299.999847,-300.0,19.453598,7.166817,8.065621,297.548096,13.312789,-0.022723,-0.002804,14.39564,-7.79E-4,0.055195,0.016205,0.0,1.0,2276.485596,, takeoff
27.322765,-296.941986,-295.748566,2.770851,0.055522,2.770851,0.055522,-299.999847,-300.0,19.494781,7.65614,8.392844,297.553192,13.475949,-0.021739,-0.001436,14.113785,-7.83E-4,0.055231,0.015991,0.0,1.0,2278.764404,, takeoff
27.922869,-296.916351,-295.7229,2.77687,0.056227,2.77687,0.056227,-299.999847,-300.0,19.523169,7.988966,8.681246,297.55484,13.570011,-0.021426,-9.1E-4,17.551706,-7.93E-4,0.055417,0.015736,0.0,1.0,2280.282227,, takeoff
28.820862,-296.875854,-295.682404,2.795137,0.052798,2.795137,0.052798,-299.999847,-300.0,19.569088,8.497821,9.483074,297.553345,13.688429,-0.021819,-9.53E-4,22.520748,-8.03E-4,0.055537,0.015654,0.0,1.0,2282.556641,, takeoff
29.418882,-296.847382,-295.653931,2.799721,0.053696,2.799721,0.053696,-299.999847,-300.0,19.601059,8.843297,9.691085,297.549622,13.752122,-0.022153,-0.001326,14.567325,-7.54E-4,0.055903,0.015729,0.0,1.0,2284.071777,, takeoff
30.315456,-296.802612,-295.609161,2.8047,0.055507,2.8047,0.055507,-299.999847,-300.0,19.650347,9.370598,10.016265,297.540649,13.824675,-0.023398,-0.002329,18.913851,-7.67E-4,0.055994,0.015915,0.0,1.0,2286.343994,, takeoff
30.912981,-296.771515,-295.578064,2.802228,0.05685,2.802228,0.05685,-299.999847,-300.0,19.683828,9.728034,10.006517,297.53299,13.857787,-0.024582,-0.003174,14.201619,-7.93E-4,0.056094,0.016364,0.0,1.0,2287.858887,, takeoff
31.812622,-296.723877,-295.530426,2.789654,0.058615,2.789654,0.058615,-299.999847,-300.0,19.730099,10.272821,9.296905,297.521423,13.884904,-0.026251,-0.004284,14.39021,-8.12E-4,0.056045,0.016747,0.0,1.0,2290.133057,, takeoff
32.410877,-296.691742,-295.498322,2.794593,0.059566,2.794593,0.059566,-299.999847,-300.0,19.761465,10.64163,9.511078,297.51416,13.888306,-0.027224,-0.004867,14.714987,-8.37E-4,0.055793,0.017325,0.0,1.0,2291.650391,, takeoff
33.30756,-296.642914,-295.449463,2.803452,0.060605,2.803452,0.060605,-299.999847,-300.0,19.809814,11.203014,9.815692,297.505463,13.872364,-0.028188,-0.005292,15.081581,-8.51E-4,0.055892,0.017688,0.0,1.0,2293.928467,, takeoff
33.904453,-296.609833,-295.416382,2.80881,0.06113,2.80881,0.06113,-299.999847,-300.0,19.842901,11.582573,10.18656,297.501556,13.848436,-0.028412,-0.005245,15.368657,-8.66E-4,0.056069,0.018123,0.0,1.0,2295.448242,, takeoff
34.796619,-296.559052,-295.365601,2.828644,0.054245,2.828644,0.054245,-299.999847,-300.0,19.896469,12.159605,11.063956,297.498962,13.79414,-0.028519,-0.004843,16.109917,-8.73E-4,0.056176,0.018318,0.0,1.0,2297.72876,, takeoff
35.390186,-296.524048,-295.330597,2.83371,0.054123,2.83371,0.054123,-299.999847,-300.0,19.93368,12.549273,11.254616,297.499359,13.746787,-0.02751,-0.004167,16.693027,-7.75E-4,0.056573,0.018448,0.0,1.0,2299.249512,, takeoff
36.279465,-296.46991,-295.276459,2.839097,0.054252,2.839097,0.054252,-299.999847,-300.0,19.990723,13.141011,11.555076,297.502441,13.660934,-0.025755,-0.002894,17.512451,-7.73E-4,0.056674,0.018428,0.0,1.0,2301.53125,, takeoff
36.872688,-296.432861,-295.23941,2.823801,0.057441,2.823801,0.057441,-299.999847,-300.0,20.027439,13.540202,10.164856,297.505524,13.594971,-0.023887,-0.001908,17.885632,-7.75E-4,0.056782,0.018274,0.0,1.0,2303.053223,, takeoff
37.764118,-296.377228,-295.183807,2.824136,0.058644,2.824136,0.058644,-299.999847,-300.0,20.079067,14.145861,10.481963,297.510223,13.484854,-0.022597,-7.09E-4,17.815908,-8.21E-4,0.056476,0.01812,0.0,1.0,2305.338867,, takeoff
38.356945,-296.340149,-295.146698,2.830269,0.059264,2.830269,0.059264,-299.999847,-300.0,20.114349,14.554087,10.677245,297.512207,13.405184,-0.02196,-1.96E-4,17.869076,-8.38E-4,0.056483,0.017885,0.0,1.0,2306.864014,, takeoff
39.243233,-296.284027,-295.090576,2.850127,0.053418,2.850127,0.053418,-299.999847,-300.0,20.170546,15.17288,11.81715,297.51181,13.278411,-0.021944,-2.23E-4,18.245996,-8.47E-4,0.056605,0.017786,0.0,1.0,2309.153076,, takeoff
39.832142,-296.245758,-295.052338,2.856754,0.053927,2.856754,0.053927,-299.999847,-300.0,20.210245,15.589574,11.994578,297.509064,13.190348,-0.021936,-5.2E-4,18.732712,-7.63E-4,0.057003,0.017805,0.0,1.0,2310.679199,, takeoff
40.714245,-296.186981,-294.993561,2.862319,0.055576,2.862319,0.055576,-299.999847,-300.0,20.270922,16.220654,12.271558,297.501526,13.054943,-0.022814,-0.001423,21.520559,-7.7E-4,0.057135,0.017943,0.0,1.0,2312.96875,, takeoff
41.301304,-296.146912,-294.953461,2.866324,0.056873,2.866324,0.056873,-289.999847,-290.0,20.312155,16.645281,12.46138,297.494629,12.963533,-0.023866,-0.002232,15.588959,-7.94E-4,0.057246,0.01832,0.0,1.0,2314.495605,, takeoff
42.180191,-296.085938,-294.892487,2.857622,0.058896,2.857622,0.058896,-289.999847,-290.0,20.371994,17.287895,11.555882,297.483398,12.826419,-0.025763,-0.003425,21.720373,-8.12E-4,0.057326,0.018665,0.0,1.0,2316.782227,, takeoff
42.7649,-296.045654,-294.852203,2.860651,0.060034,2.860651,0.060034,-289.999847,-290.0,20.410858,17.719988,11.679817,297.476166,12.735932,-0.027018,-0.004083,18.296562,-8.41E-4,0.057152,0.019226,0.0,1.0,2318.299561,, takeoff
43.63929,-295.985504,-294.792053,2.869126,0.06144,2.869126,0.06144,-289.999847,-290.0,20.470362,18.373459,12.046867,297.467255,12.60314,-0.028494,-0.004646,18.832531,-8.58E-4,0.057213,0.019588,0.0,1.0,2320.643555,, takeoff
44.220417,-295.945435,-294.751984,2.874266,0.062211,2.874266,0.062211,-289.999847,-290.0,20.510822,18.812544,12.222118,297.463043,12.51745,-0.02905,-0.004703,22.951475,-8.78E-4,0.057383,0.020033,0.0,1.0,2322.882568,, takeoff
45.090252,-295.88504,-294.691589,2.88113,0.063099,2.88113,0.063099,-289.999847,-290.0,20.572601,19.476139,12.482953,297.460114,12.394602,-0.029097,-0.004252,17.397575,-8.89E-4,0.057485,0.020244,0.0,1.0,2327.242188,, takeoff
45.669388,-295.844482,-294.651062,2.880435,0.061189,2.880435,0.061189,-289.999847,-290.0,20.614149,19.921757,11.568544,297.460175,12.317267,-0.028806,-0.003736,23.90136,-9.01E-4,0.057623,0.02039,0.0,1.0,2330.571045,, takeoff
46.5396,-295.783813,-294.590363,2.880563,0.061218,2.880563,0.061218,-289.999847,-290.0,20.673269,20.594887,11.951941,297.462921,12.209347,-0.027314,-0.00257,18.958714,-8.74E-4,0.057609,0.020387,0.0,1.0,2335.942871,, takeoff
47.11908,-295.7435,-294.550049,2.885558,0.06151,2.885558,0.06151,-289.999847,-290.0,20.713409,21.046698,12.124043,297.465546,12.143413,-0.026127,-0.001771,17.352459,-8.75E-4,0.057611,0.02025,0.0,1.0,2339.684326,, takeoff
47.987694,-295.682953,-294.489502,2.893211,0.062138,2.893211,0.062138,-289.999847,-290.0,20.774679,21.728876,12.373322,297.468781,12.054446,-0.024399,-8.35E-4,23.022209,-8.79E-4,0.057711,0.020119,0.0,1.0,2345.440186,, takeoff
48.566425,-295.642426,-294.448975,2.898254,0.062349,2.898254,0.062349,-289.999847,-290.0,20.816221,22.18656,12.663699,297.469666,12.00218,-0.023739,-5.09E-4,19.115261,-8.88E-4,0.057864,0.019957,0.0,1.0,2349.339355,, takeoff
49.439751,-295.582397,-294.388947,2.870524,0.060175,2.870524,0.060175,-289.999847,-290.0,20.867783,22.877369,9.912132,297.468475,11.934825,-0.02251,-4.91E-4,21.29793,-8.91E-4,0.057965,0.019913,0.0,1.0,2355.250488,, takeoff
50.02198,-295.543915,-294.350464,2.875125,0.061123,2.875125,0.061123,-289.999847,-290.0,20.901134,23.340714,10.088322,297.46579,11.897421,-0.022434,-7.42E-4,23.603399,-8.6E-4,0.05741,0.019972,0.0,1.0,2359.222412,, takeoff
50.894211,-295.487732,-294.294312,2.885633,0.062803,2.885633,0.062803,-289.999847,-290.0,20.952179,24.039824,10.316162,297.458405,11.852634,-0.0231,-0.001589,22.934135,-8.73E-4,0.057503,0.020107,0.0,1.0,2365.210205,, takeoff
51.475262,-295.450989,-294.257538,2.891351,0.064012,2.891351,0.064012,-289.999847,-290.0,20.986799,24.50856,10.451118,297.45166,11.830265,-0.023991,-0.002368,22.650606,-8.97E-4,0.057713,0.020476,0.0,1.0,2369.217041,, takeoff
52.346317,-295.396454,-294.203003,2.898177,0.06575,2.898177,0.06575,-289.999847,-290.0,21.039555,25.215546,10.645697,297.440521,11.807664,-0.025719,-0.003536,22.410351,-9.14E-4,0.057827,0.020813,0.0,1.0,2375.244629,, takeoff
52.926651,-295.360321,-294.16687,2.902647,0.066852,2.902647,0.066852,-289.999847,-290.0,21.075268,25.689392,10.776432,297.433228,11.799654,-0.026937,-0.004192,22.346457,-9.39E-4,0.057964,0.02137,0.0,1.0,2379.272949,, takeoff
53.796612,-295.306122,-294.112671,2.90911,0.068185,2.90911,0.068185,-289.999847,-290.0,21.129654,26.403841,10.971915,297.424438,11.797707,-0.028455,-0.004721,22.360867,-9.55E-4,0.058053,0.021735,0.0,1.0,2385.328125,, takeoff
54.376198,-295.269897,-294.076477,2.913592,0.06892,2.913592,0.06892,-289.999847,-290.0,21.166456,26.882532,11.102283,297.420441,11.80278,-0.029098,-0.004735,22.428568,-9.74E-4,0.058182,0.022174,0.0,1.0,2389.372803,, takeoff
55.245007,-295.215271,-294.02182,2.920403,0.065212,2.920403,0.065212,-289.999847,-290.0,21.223017,27.604046,11.845192,297.417847,11.819321,-0.029724,-0.004381,22.624538,-9.85E-4,0.058272,0.022374,0.0,1.0,2395.450684,, takeoff
55.822559,-295.178284,-293.984863,2.933457,0.050748,2.933457,0.050748,-289.999847,-290.0,21.263535,28.087305,12.414223,297.417938,11.836007,-0.028826,-0.004102,23.02491,-9.32E-4,0.058408,0.022504,0.0,1.0,2399.508545,, takeoff
56.688271,-295.121399,-293.927948,2.940656,0.050872,2.940656,0.050872,-289.999847,-290.0,21.326067,28.815454,12.596174,297.420471,11.869206,-0.027132,-0.00293,23.733437,-7.25E-4,0.058669,0.022499,0.0,1.0,2405.602783,, takeoff
57.265175,-295.08255,-293.889099,2.944374,0.051164,2.944374,0.051164,-289.999847,-290.0,21.368277,29.303003,12.725469,297.422577,11.896358,-0.02575,-0.002179,18.800594,-7.27E-4,0.058813,0.022372,0.0,1.0,2409.671387,, takeoff
58.130016,-295.023071,-293.82962,2.950126,0.051705,2.950126,0.051705,-289.999847,-290.0,21.432425,30.037401,12.928489,297.424744,11.943785,-0.023659,-0.001355,18.271315,-7.31E-4,0.058887,0.022267,0.0,1.0,2415.782715,, takeoff
58.706207,-294.982666,-293.789215,2.954284,0.052159,2.954284,0.052159,-289.999847,-290.0,21.475761,30.528994,13.067029,297.424805,11.979345,-0.022448,-0.001093,23.896271,-7.39E-4,0.059003,0.022159,0.0,1.0,2419.862793,, takeoff
59.569958,-294.920959,-293.727509,2.96031,0.052987,2.96031,0.052987,-289.999847,-290.0,21.541628,31.269278,13.274805,297.422028,12.037633,-0.021143,-0.001196,22.183136,-7.45E-4,0.059086,0.022156,0.0,1.0,2425.991943,, takeoff
60.14542,-294.87912,-293.685699,2.964423,0.053613,2.964423,0.053613,-289.999847,-290.0,21.586119,31.764679,13.413479,297.418213,12.079186,-0.020679,-0.001562,15.977085,-7.57E-4,0.059206,0.022295,0.0,1.0,2430.08374,, takeoff
61.00806,-294.815399,-293.621948,2.970272,0.054584,2.970272,0.054584,-289.999847,-290.0,21.653721,32.510506,13.621691,297.410339,12.144483,-0.020552,-0.002372,22.533022,-7.66E-4,0.059288,0.022485,0.0,1.0,2436.236084,, takeoff
61.584309,-294.772491,-293.579041,2.947574,0.055656,2.947574,0.055656,-289.999847,-290.0,21.693209,33.009502,9.150336,297.404266,12.189345,-0.020149,-0.002958,16.270576,-7.8E-4,0.059405,0.022879,0.0,1.0,2440.389404,, takeoff
62.454308,-294.711395,-293.517944,2.940013,0.056428,2.940013,0.056428,-289.999847,-290.0,21.739433,33.760662,9.365281,297.396301,12.257431,-0.020737,-0.003555,22.653145,-7.95E-4,0.058951,0.023183,0.0,1.0,2446.708252,, takeoff
63.032719,-294.672821,-293.47937,2.945281,0.056968,2.945281,0.056968,-289.999847,-290.0,21.770903,34.263165,9.506199,297.391937,12.302714,-0.021097,-0.003758,23.584679,-8.06E-4,0.0588,0.023581,0.0,1.0,2450.959961,, takeoff
63.898968,-294.617188,-293.423737,2.953272,0.057579,2.953272,0.057579,-289.999847,-290.0,21.818893,35.019424,9.678905,297.387604,12.369563,-0.021273,-0.003675,22.589828,-8.14E-4,0.058906,0.023799,0.0,1.0,2457.375244,, takeoff
64.475327,-294.581116,-293.387665,2.963424,0.050101,2.963424,0.050101,-289.999847,-290.0,21.852783,35.525215,10.702612,297.386108,12.412945,-0.021086,-0.003604,22.229843,-8.23E-4,0.059065,0.024016,0.0,1.0,2461.669922,, takeoff
65.337952,-294.527252,-293.333801,2.971236,0.053795,2.971236,0.053795,-289.999847,-290.0,21.906744,36.286236,10.857866,297.363861,12.475669,-0.021975,-0.006981,22.224983,-7.16E-4,0.059268,0.0,0.0,1.0,2468.128906,, fly_strait
65.913406,-294.491272,-293.297821,2.973706,0.055243,2.973706,0.055243,-289.999847,-290.0,21.943102,36.795101,10.95457,297.292969,12.515243,-0.025521,-0.017995,22.270103,-7.68E-4,0.059425,0.001112,0.0,1.0,2472.445557,, fly_strait
66.777557,-294.437103,-293.243652,2.976418,0.052083,2.976418,0.052083,-289.999847,-290.0,21.99828,37.560638,11.116757,297.121002,12.569108,-0.037175,-0.042591,22.391403,-7.89E-4,0.059474,0.004657,0.0,1.0,2478.939209,, fly_strait
67.354576,-294.401276,-293.207825,2.942715,0.039816,2.942715,0.039816,-289.999847,-290.0,22.025839,38.072468,6.154451,296.98587,12.5998,-0.047166,-0.060194,21.745714,-7.44E-4,0.059528,0.013255,0.0,1.0,2483.278809,, fly_strait
68.218987,-294.352051,-293.1586,2.945315,0.036469,2.945315,0.036469,-289.999847,-290.0,22.057449,38.842319,6.51229,296.806,12.635385,-0.065902,-0.07907,19.449865,-5.69E-4,0.058854,0.020012,0.0,1.0,2489.800781,, fly_strait
68.792282,-294.321686,-293.128265,2.947274,0.016546,2.947274,0.016546,-289.999847,-290.0,22.080538,39.356865,7.399634,296.723419,12.650935,-0.077719,-0.084562,22.691523,-5.21E-4,0.058906,0.029005,0.0,1.0,2494.149414,, fly_strait
69.653297,-294.277863,-293.084442,2.895786,-0.115344,2.895786,-0.115344,-289.999847,-290.0,22.121044,40.130516,8.612962,296.691956,12.661852,-0.08917,-0.079505,18.739658,-2.36E-4,0.058945,0.033134,0.0,1.0,2500.679199,, fly_strait
70.229736,-294.248871,-293.05545,2.834605,-0.251368,2.834605,-0.251368,-289.999847,-290.0,22.150206,40.647484,8.77237,296.738403,12.662611,-0.089966,-0.067022,20.6884,0.001648,0.057916,0.034708,0.0,1.0,2505.045898,, fly_strait
71.097717,-294.205353,-293.011902,2.754212,-0.44647,2.754212,-0.44647,-289.999847,-290.0,22.193356,41.42477,8.461058,296.888763,12.659392,-0.080037,-0.037949,14.675185,0.003591,0.056692,0.032385,0.0,1.0,2511.625732,, fly_strait
71.676453,-294.176453,-292.983032,2.715525,-0.552495,2.715525,-0.552495,-289.999847,-290.0,22.221313,41.944221,8.275959,297.0159,12.657901,-0.067038,-0.016432,18.607637,0.006378,0.055084,0.024867,0.0,1.0,2516.031982,, fly_strait
72.536873,-294.133514,-292.940063,2.691279,-0.676232,2.691279,-0.676232,-289.999847,-290.0,22.263424,42.725178,9.089545,297.177917,12.662161,-0.042245,0.007663,22.339836,0.007893,0.054311,0.01851,0.0,1.0,2522.648438,, fly_strait
73.106773,-294.104706,-292.911255,2.671065,-0.757337,2.671065,-0.757337,-289.999847,-290.0,22.294554,43.246895,9.496355,297.235504,12.671767,-0.026286,0.013572,14.664678,0.00966,0.053826,0.01041,0.0,1.0,2527.053467,, fly_strait
73.961792,-294.060455,-292.867035,2.613182,-0.916758,2.613182,-0.916758,-289.999847,-290.0,22.343185,44.03096,9.940379,297.208923,12.699092,-0.006413,0.002613,13.733934,0.010819,0.053421,0.00753,0.0,1.0,2533.656738,, fly_strait
74.533424,-294.030182,-292.836761,2.561052,-1.053334,2.561052,-1.053334,-289.999847,-290.0,22.376829,44.554634,10.186776,297.116211,12.726842,0.002246,-0.016221,13.765996,0.013097,0.052264,0.008859,0.0,1.0,2538.063477,, fly_strait
75.392998,-293.983459,-292.790009,2.496455,-1.292303,2.496455,-1.292303,-289.999847,-290.0,22.429731,45.341591,11.311976,296.898804,12.783454,0.006941,-0.053757,14.360744,0.015048,0.051221,0.013495,0.0,1.0,2544.692383,, fly_strait
75.963921,-293.950867,-292.757416,2.507269,-1.504525,2.507269,-1.504525,-289.999847,-290.0,22.470982,45.867199,13.723558,296.729218,12.831396,0.004668,-0.080667,15.341678,0.018461,0.049929,0.024365,0.0,1.0,2549.122314,, fly_strait
76.8097,-293.895782,-292.702332,2.613171,-1.909333,2.613171,-1.909333,-289.999847,-290.0,22.569361,46.656967,27.508595,296.50351,12.920464,-0.001462,-0.113067,23.300859,0.021493,0.050145,0.032844,0.0,1.0,2555.767334,, fly_strait
77.360138,-293.847809,-292.654358,2.711518,-2.183806,2.711518,-2.183806,-289.999847,-290.0,22.687061,47.1842,43.155842,296.397766,12.993623,-0.005062,-0.124882,25.315857,0.027276,0.052263,0.04413,0.0,1.0,2560.183594,, fly_strait
78.157013,-293.740387,-292.546936,2.864137,-2.503245,2.864137,-2.503245,-289.999847,-290.0,22.974222,47.975624,71.515587,296.333008,13.12866,-0.007398,-0.123491,27.122797,0.031197,0.05423,0.049417,0.0,1.0,2566.755615,, fly_strait
78.665047,-293.633728,-292.440277,2.982823,-2.627032,2.982823,-2.627032,-289.999847,-290.0,23.247902,48.503262,92.107086,296.341461,13.23767,-0.005296,-0.112652,36.669239,0.035761,0.057283,0.052655,0.0,1.0,2571.077393,, fly_strait
79.388458,-293.40329,-292.209839,3.161677,-2.641796,3.161677,-2.641796,-289.999847,-290.0,23.79084,49.294033,124.208504,296.389282,13.431068,0.003125,-0.089289,54.40575,0.037529,0.059656,0.052232,0.0,1.0,2577.426025,, fly_strait
79.84362,-293.193939,-292.000488,3.288494,-2.5514,3.288494,-2.5514,-289.999847,-290.0,24.241999,49.820274,145.694214,296.41275,13.578841,0.011228,-0.074921,68.071854,0.03774,0.063234,0.049841,0.0,1.0,2581.543701,, fly_strait
80.491142,-292.784546,-291.591095,3.448318,-2.316417,3.448318,-2.316417,-289.999847,-290.0,25.051035,50.607403,176.468323,296.390106,13.82348,0.02415,-0.063023,90.6436,0.036449,0.06577,0.048668,0.0,1.0,2587.521729,, fly_strait
80.903236,-292.443481,-291.250031,3.544983,-2.131032,3.544983,-2.131032,-289.999847,-290.0,25.672514,51.130238,195.746307,296.325104,13.997068,0.030996,-0.063305,106.553101,0.033092,0.068966,0.0498,0.0,1.0,2591.220703,, fly_strait
81.498192,-291.825226,-290.631775,3.662858,-1.889249,3.662858,-1.889249,-289.999847,-290.0,26.724049,51.911003,223.666016,296.168732,14.263244,0.036649,-0.073488,131.170486,0.030443,0.0709,0.05305,0.0,1.0,2595.678467,, fly_strait
81.879539,-291.340607,-290.147186,3.745357,-1.767776,3.745357,-1.767776,-289.999847,-290.0,27.500101,52.428879,241.280426,296.046295,14.438807,0.037036,-0.082986,147.83049,0.026989,0.073257,0.060869,0.0,1.0,2598.122803,, fly_strait
82.430557,-290.504608,-289.311157,3.864526,-1.664455,3.864526,-1.664455,-289.999847,-290.0,28.773516,53.201275,267.15329,295.893066,14.690948,0.034206,-0.092062,172.896255,0.025254,0.074907,0.066991,0.0,1.0,2601.263916,, fly_strait
82.782249,-289.874695,-288.681244,3.951003,-1.623249,3.951003,-1.623249,-289.999847,-290.0,29.693047,53.71299,283.909027,295.833557,14.848128,0.032184,-0.09111,189.564789,0.023778,0.077291,0.074652,0.0,1.0,2603.10791,, fly_strait
83.284683,-288.82196,-287.62851,4.07108,-1.561186,4.07108,-1.561186,-289.999847,-290.0,31.17613,54.47522,308.801575,295.830688,15.063839,0.03177,-0.076198,214.392456,0.023189,0.07902,0.077628,0.0,1.0,2605.609863,, fly_strait
83.602394,-288.048676,-286.855225,4.159015,-1.489071,4.159015,-1.489071,-289.999847,-290.0,32.237061,54.9795,327.392609,295.877106,15.193004,0.034799,-0.059281,230.858841,0.022303,0.081422,0.077771,0.0,1.0,2607.143311,, fly_strait
84.049744,-286.779449,-285.585999,4.300535,-1.314123,4.300535,-1.314123,-289.999847,-290.0,33.952576,55.729523,358.480347,295.976746,15.362933,0.044088,-0.031119,255.916412,0.021272,0.08318,0.07545,0.0,1.0,2609.287354,, fly_strait
84.327057,-285.857697,-284.664246,4.412483,-1.154665,4.412483,-1.154665,-289.999847,-290.0,35.184425,56.224922,379.414307,296.034485,15.458924,0.052326,-0.015269,273.129944,0.018773,0.086011,0.070468,0.0,1.0,2610.628906,, fly_strait
84.718758,-284.358246,-283.164795,4.546651,-0.893334,4.546651,-0.893334,-279.999847,-280.0,37.151844,56.960594,405.609985,296.065491,15.573495,0.064932,-0.002811,299.570618,0.016495,0.08825,0.067581,0.0,1.0,2612.529541,, fly_strait
84.969963,-283.28183,-282.088379,4.60866,-0.727947,4.60866,-0.727947,-279.999847,-280.0,38.528149,57.445896,419.520203,296.042572,15.627683,0.071165,-0.00258,317.134033,0.012762,0.090933,0.066031,0.0,1.0,2613.733398,, fly_strait
85.340523,-281.558228,-280.364777,4.659762,-0.552451,4.659762,-0.552451,-279.999847,-280.0,40.675907,58.165951,438.510651,295.960144,15.671126,0.075512,-0.011229,342.624725,0.010399,0.092173,0.067177,0.0,1.0,2615.464844,, fly_strait
85.583038,-280.340668,-279.147217,4.700065,-0.488467,4.700065,-0.488467,-279.999847,-280.0,42.157425,58.640682,449.928864,295.894501,15.672982,0.075011,-0.018966,358.842041,0.007892,0.093195,0.071298,0.0,1.0,2616.578857,, fly_strait
85.938042,-278.418732,-277.225281,4.77631,-0.471756,4.77631,-0.471756,-279.999847,-280.0,44.451752,59.344769,467.455505,295.826752,15.634217,0.071188,-0.025789,381.892365,0.006978,0.094001,0.07458,0.0,1.0,2618.197998, set /controls/flight/elevator/serviceable false, fly_strait
86.166603,-277.076843,-275.883392,4.840095,-0.487214,4.840095,-0.487214,-279.999847,-280.0,46.031235,59.80875,479.923553,295.819031,15.581788,0.068682,-0.02437,396.512146,0.006739,0.094001,0.077968,0.0,1.0,2619.245361, set /controls/flight/elevator/serviceable false, fly_strait
86.492676,-274.975952,-273.782501,4.965338,-0.504592,4.965338,-0.504592,-269.999847,-270.0,48.484791,60.49641,501.555023,295.870605,15.467327,0.067441,-0.012498,417.686218,0.00696,0.094001,0.078354,0.0,1.0,2620.767334, set /controls/flight/elevator/serviceable false, fly_strait
86.696205,-273.516388,-272.322937,5.065842,-0.490099,5.065842,-0.490099,-269.999847,-270.0,50.18499,60.949139,518.153137,295.934967,15.370202,0.069363,-3.8E-4,431.611725,0.007208,0.094001,0.075775,0.0,1.0,2621.747314, set /controls/flight/elevator/serviceable false, fly_strait
86.978996,-271.235016,-270.041565,5.234521,-0.413633,5.234521,-0.413633,-269.999847,-270.0,52.846062,61.619324,546.097595,296.034637,15.198486,0.075623,0.016986,452.781036,0.007001,0.094001,0.072557,0.0,1.0,2623.162109, set /controls/flight/elevator/serviceable false, fly_strait
87.152473,-269.649353,-268.455933,5.356386,-0.336004,5.356386,-0.336004,-269.999847,-270.0,54.701794,62.059963,566.732727,296.081604,15.069117,0.08058,0.024514,467.368805,0.005909,0.094001,0.067574,0.0,1.0,2624.067627, set /controls/flight/elevator/serviceable false, fly_strait
87.391029,-267.166412,-265.972992,5.552319,-0.219237,5.552319,-0.219237,-269.999847,-270.0,57.62022,62.711346,600.11969,296.09552,14.855805,0.08661,0.025434,490.354431,0.0048,0.094001,0.065225,0.0,1.0,2625.369873, set /controls/flight/elevator/serviceable false, fly_strait
87.536156,-265.436707,-264.243256,5.690559,-0.163033,5.690559,-0.163033,-269.999847,-270.0,59.661167,63.139038,623.636292,296.06842,14.702159,0.088036,0.019815,506.562408,0.003132,0.094001,0.064529,0.0,1.0,2626.202148, set /controls/flight/elevator/serviceable false, fly_strait
87.732765,-262.722778,-261.529358,5.909042,-0.144337,5.909042,-0.144337,-259.999847,-260.0,62.874233,63.770454,660.942932,295.999023,14.457162,0.085868,0.006669,532.285522,0.002329,0.094001,0.065884,0.0,1.0,2627.398438, set /controls/flight/elevator/serviceable false, fly_strait
87.848816,-260.828186,-259.634735,6.063807,-0.173619,6.063807,-0.173619,-259.999847,-260.0,65.122452,64.184494,687.066101,295.954773,14.286377,0.082192,-0.001456,550.494995,0.002062,0.094001,0.069354,0.0,1.0,2628.161133, set /controls/flight/elevator/serviceable false, fly_strait
87.997314,-257.850616,-256.657166,6.311543,-0.256864,6.311543,-0.256864,-259.999847,-260.0,68.662331,64.794891,728.122192,295.928101,14.024431,0.075706,-0.006593,579.323425,0.00248,0.094001,0.071567,0.0,1.0,2629.251221, set /controls/flight/elevator/serviceable false, fly_strait
88.074753,-255.771072,-254.577621,6.487401,-0.314994,6.487401,-0.314994,-259.999847,-260.0,71.138863,65.194504,756.77832,295.945068,13.849965,0.072584,-0.004152,599.486755,0.003669,0.094001,0.0729,0.0,1.0,2629.938721, set /controls/flight/elevator/serviceable false, fly_strait
88.168343,-252.406738,-251.213303,6.774202,-0.364182,6.774202,-0.364182,-249.999863,-250.0,75.148712,65.79863,802.959473,296.015991,13.589112,0.071194,0.006923,632.201172,0.0045,0.094001,0.072052,0.0,1.0,2630.929932, set /controls/flight/elevator/serviceable false, fly_strait
88.203445,-250.212555,-249.019119,6.960676,-0.362034,6.960676,-0.362034,-249.999863,-250.0,77.76326,66.166595,832.81012,296.072113,13.435778,0.072704,0.015442,653.65863,0.005203,0.094001,0.068506,0.0,1.0,2631.500732, set /controls/flight/elevator/serviceable false, fly_strait
88.227837,-246.614716,-245.42128,7.261413,-0.311381,7.261413,-0.311381,-249.999863,-250.0,82.050438,66.730377,880.977417,296.140106,13.214746,0.077091,0.024856,688.599976,0.005172,0.094001,0.0657,0.0,1.0,2632.319336, set /controls/flight/elevator/serviceable false, fly_strait
88.224052,-244.100296,-242.90686,7.465672,-0.264028,7.465672,-0.264028,-239.999863,-240.0,85.043877,67.097717,913.79071,296.158325,13.082335,0.079825,0.026307,712.848694,0.004448,0.094001,0.0623,0.0,1.0,2632.813477, set /controls/flight/elevator/serviceable false, fly_strait
88.190674,-240.147736,-238.954285,7.775143,-0.211747,7.775143,-0.211747,-239.999863,-240.0,89.740501,67.635498,963.537659,296.136719,12.908293,0.08173,0.020127,750.572266,0.003772,0.094001,0.061389,0.0,1.0,2633.478271, set /controls/flight/elevator/serviceable false, fly_strait
88.15078,-237.389435,-236.195999,7.982745,-0.204716,7.982745,-0.204716,-239.999863,-240.0,93.010025,67.985001,996.785889,296.098846,12.809493,0.080654,0.012295,776.486206,0.003025,0.094001,0.062469,0.0,1.0,2633.871826, set /controls/flight/elevator/serviceable false, fly_strait
88.065186,-233.05928,-231.865845,8.296025,-0.246929,8.296025,-0.246929,-229.999863,-230.0,98.121773,68.495392,1046.477661,296.038635,12.688809,0.076141,5.11E-4,816.55542,0.002925,0.094001,0.064363,0.0,1.0,2634.389404, set /controls/flight/elevator/serviceable false, fly_strait
87.990448,-230.043076,-228.849625,8.506406,-0.299832,8.506406,-0.299832,-229.999863,-230.0,101.667236,68.826241,1079.395508,296.013367,12.628189,0.072319,-0.004459,843.861511,0.003528,0.094001,0.067374,0.0,1.0,2634.685791, set /controls/flight/elevator/serviceable false, fly_strait
87.850525,-225.322113,-224.128662,8.824511,-0.382958,8.824511,-0.382958,-229.999863,-230.0,107.1903,69.308075,1128.387451,296.018433,12.570429,0.067445,-0.004261,885.530457,0.004283,0.094001,0.068637,0.0,1.0,2635.056152, set /controls/flight/elevator/serviceable false, fly_strait
87.734627,-221.905807,-220.712372,9.046894,-0.424396,9.046894,-0.424396,-219.999863,-220.0,111.169266,69.632263,1162.098511,296.050934,12.556075,0.066045,7.39E-4,914.72522,0.005471,0.094001,0.068384,0.0,1.0,2635.259033, set /controls/flight/elevator/serviceable false, fly_strait
87.540154,-216.926086,-215.732651,9.358247,-0.436263,9.358247,-0.436263,-219.999863,-220.0,116.935242,70.071442,1208.729858,296.115601,12.574517,0.067063,0.010735,956.277039,0.006063,0.094001,0.066759,0.0,1.0,2635.464844, set /controls/flight/elevator/serviceable false, fly_strait
87.309471,-211.569901,-210.376465,9.674641,-0.400951,9.674641,-0.400951,-209.999863,-210.0,123.100052,70.504875,1255.674194,296.17218,12.642166,0.070593,0.018784,999.243652,0.006232,0.094001,0.063525,0.0,1.0,2635.57959, set /controls/flight/elevator/serviceable false, fly_strait
87.139214,-207.867386,-206.67395,9.881155,-0.364857,9.881155,-0.364857,-209.999863,-210.0,127.338737,70.783325,1286.137939,296.188629,12.714487,0.073105,0.020324,1027.958618,0.005728,0.094001,0.060696,0.0,1.0,2635.602295, set /controls/flight/elevator/serviceable false, fly_strait
86.957336,-204.060425,-202.866974,10.082873,-0.334026,10.082873,-0.334026,-199.999863,-200.0,131.677505,71.053261,1315.73291,296.182648,12.807705,0.074878,0.017992,1056.662231,0.005212,0.094001,0.059874,0.0,1.0,2635.583252, set /controls/flight/elevator/serviceable false, fly_strait
86.665039,-198.158066,-196.964615,10.375102,-0.320932,10.375102,-0.320932,-199.999863,-200.0,138.366226,71.442085,1358.151611,296.139893,12.984297,0.074881,0.008999,1099.497803,0.004772,0.094001,0.060173,0.0,1.0,2635.480469, set /controls/flight/elevator/serviceable false, fly_strait
86.349564,-192.029129,-190.835693,10.654492,-0.357276,10.654492,-0.357276,-189.999863,-190.0,145.260239,71.811539,1397.883301,296.084442,13.201745,0.071773,-0.001502,1141.945801,0.004585,0.094001,0.062311,0.0,1.0,2635.294922, set /controls/flight/elevator/serviceable false, fly_strait
86.13195,-187.820023,-186.626587,10.833828,-0.403039,10.833828,-0.403039,-189.999863,-190.0,149.96344,72.047066,1422.789795,296.058105,13.368032,0.068838,-0.006331,1169.961792,0.005104,0.094001,0.065083,0.0,1.0,2635.127441, set /controls/flight/elevator/serviceable false, fly_strait
85.785645,-181.330307,-180.136871,11.092828,-0.476543,11.092828,-0.476543,-179.999863,-180.0,157.168427,72.384201,1457.752441,296.05423,13.648278,0.064963,-0.007112,1211.260132,0.005758,0.094001,0.0664,0.0,1.0,2634.812744, set /controls/flight/elevator/serviceable false, fly_strait
85.543762,-176.890945,-175.697495,11.2587,-0.513795,11.2587,-0.513795,-179.999863,-180.0,162.065659,72.59819,1479.463989,296.075775,13.855226,0.063865,-0.003533,1238.213989,0.006808,0.094001,0.066594,0.0,1.0,2634.561279, set /controls/flight/elevator/serviceable false, fly_strait
85.165245,-170.070877,-168.877426,11.495814,-0.530521,11.495814,-0.530521,-169.999863,-170.0,169.541626,72.903038,1509.59314,296.128662,14.194749,0.06487,0.005137,1277.628296,0.00734,0.094001,0.065517,0.0,1.0,2634.121338, set /controls/flight/elevator/serviceable false, fly_strait
84.903572,-165.422028,-164.228592,11.644651,-0.517479,11.644651,-0.517479,-169.999863,-170.0,174.605927,73.09552,1527.979492,296.164368,14.439224,0.067001,0.010703,1303.147827,0.007579,0.094001,0.062872,0.0,1.0,2633.787354, set /controls/flight/elevator/serviceable false, fly_strait
84.500244,-158.305023,-157.111572,11.851235,-0.476583,11.851235,-0.476583,-159.999863,-160.0,182.31102,73.368233,1552.796387,296.19397,14.829524,0.07099,0.014596,1340.165405,0.007393,0.094001,0.061087,0.0,1.0,2633.228271, set /controls/flight/elevator/serviceable false, fly_strait
84.226273,-153.470398,-152.276962,11.976455,-0.450103,11.976455,-0.450103,-149.999863,-150.0,187.512741,73.539452,1567.34729,296.19165,15.102568,0.073007,0.013345,1363.930176,0.006808,0.094001,0.059607,0.0,1.0,2632.820313, set /controls/flight/elevator/serviceable false, fly_strait
83.811035,-146.094376,-144.900925,12.144338,-0.436245,12.144338,-0.436245,-149.999863,-150.0,195.398941,73.780655,1585.955811,296.158081,15.525777,0.074059,0.006465,1398.07959,0.00643,0.094001,0.059723,0.0,1.0,2632.161865, set /controls/flight/elevator/serviceable false, fly_strait
83.53289,-141.101044,-139.907593,12.242824,-0.449707,12.242824,-0.449707,-139.999863,-140.0,200.703629,73.931221,1596.135742,296.124969,15.81379,0.073196,3.34E-4,1419.77002,0.006232,0.094001,0.061401,0.0,1.0,2631.696045, set /controls/flight/elevator/serviceable false, fly_strait
83.115364,-133.509354,-132.315903,12.370948,-0.500247,12.370948,-0.500247,-129.999863,-130.0,208.716583,74.14212,1608.04248,296.082916,16.249846,0.070358,-0.007061,1450.556274,0.006424,0.094001,0.063057,0.0,1.0,2630.962891, set /controls/flight/elevator/serviceable false, fly_strait
82.837456,-128.387939,-127.194496,12.443767,-0.543812,12.443767,-0.543812,-129.999863,-130.0,214.087158,74.272987,1613.780029,296.069824,16.541069,0.068385,-0.009187,1469.83667,0.007146,0.094001,0.06516,0.0,1.0,2630.454346, set /controls/flight/elevator/serviceable false, fly_strait
82.42202,-120.628632,-119.435188,12.534523,-0.599133,12.534523,-0.599133,-119.999855,-120.0,222.171555,74.455101,1619.198975,296.080811,16.975769,0.066585,-0.006926,1496.767212,0.007769,0.094001,0.065814,0.0,1.0,2629.665527, set /controls/flight/elevator/serviceable false, fly_strait
82.146599,-115.412148,-114.218704,12.582584,-0.620286,12.582584,-0.620286,-119.999855,-120.0,227.572037,74.567307,1620.751953,296.104889,17.262609,0.06683,-0.002666,1513.328857,0.008559,0.094001,0.065265,0.0,1.0,2629.124023, set /controls/flight/elevator/serviceable false, fly_strait
81.737541,-107.535492,-106.342049,12.634825,-0.619194,12.634825,-0.619194,-109.999855,-110.0,235.675507,74.722237,1620.054321,296.148743,17.685465,0.06924,0.004747,1535.986694,0.008861,0.094001,0.064061,0.0,1.0,2628.291748, set /controls/flight/elevator/serviceable false, fly_strait
81.469063,-102.257629,-101.064186,12.655438,-0.602131,12.655438,-0.602131,-99.999855,-100.0,241.071838,74.816887,1617.56958,296.172424,17.960217,0.071674,0.008487,1549.586304,0.008846,0.094001,0.061868,0.0,1.0,2627.726074, set /controls/flight/elevator/serviceable false, fly_strait
81.070229,-94.104752,-92.911308,12.663342,-0.568047,12.663342,-0.568047,-99.999855,-100.0,249.367432,74.949799,1610.5177,296.183441,18.367712,0.075335,0.009627,1567.635132,0.008602,0.094001,0.060684,0.0,1.0,2626.843262, set /controls/flight/elevator/serviceable false, fly_strait
80.820717,-89.017365,-87.823921,12.653162,-0.552952,12.653162,-0.552952,-89.999855,-90.0,254.501907,75.024796,1604.133423,296.172913,18.608311,0.07691,0.007371,1577.792847,0.008115,0.094001,0.060133,0.0,1.0,2626.291748, set /controls/flight/elevator/serviceable false, fly_strait
80.455254,-81.055458,-79.862015,12.614144,-0.554156,12.614144,-0.554156,-79.999855,-80.0,262.490509,75.13105,1591.0448,296.137238,18.960367,0.077469,7.79E-4,1591.146851,0.007899,0.094001,0.06066,0.0,1.0,2625.431885, set /controls/flight/elevator/serviceable false, fly_strait
80.222786,-75.754936,-74.561493,12.573009,-0.572849,12.573009,-0.572849,-79.999855,-80.0,267.775726,75.19474,1580.258179,296.109009,19.175934,0.076681,-0.004103,1598.337891,0.007917,0.094001,0.062443,0.0,1.0,2624.864746, set /controls/flight/elevator/serviceable false, fly_strait
79.89212,-67.828781,-66.63533,12.490016,-0.619867,12.490016,-0.619867,-69.999855,-70.0,275.629303,75.280243,1561.132568,296.078339,19.467287,0.07459,-0.009001,1606.504395,0.008184,0.094001,0.063855,0.0,1.0,2624.030029, set /controls/flight/elevator/serviceable false, fly_strait
79.684189,-62.568886,-61.375443,12.421363,-0.654909,12.421363,-0.654909,-59.999859,-60.0,280.808136,75.330971,1546.539185,296.07193,19.638947,0.073403,-0.009697,1610.172852,0.008855,0.094001,0.065388,0.0,1.0,2623.487061, set /controls/flight/elevator/serviceable false, fly_strait
79.391708,-54.728466,-53.535023,12.299453,-0.694109,12.299453,-0.694109,-59.999859,-60.0,288.479279,75.398331,1522.109741,296.086273,19.861269,0.072825,-0.00657,1612.970459,0.009356,0.094001,0.065709,0.0,1.0,2622.696777, set /controls/flight/elevator/serviceable false, fly_strait
79.210175,-49.541859,-48.348412,12.20586,-0.705828,12.20586,-0.705828,-49.999859,-50.0,293.522308,75.43782,1504.253906,296.1073,19.985495,0.073632,-0.002655,1613.014526,0.009916,0.094001,0.064992,0.0,1.0,2622.187988, set /controls/flight/elevator/serviceable false, fly_strait
78.959412,-41.834595,-40.641151,12.046862,-0.697895,12.046862,-0.697895,-39.999859,-40.0,300.970215,75.489601,1475.282471,296.141144,20.13484,0.076339,0.003314,1610.332397,0.010083,0.094001,0.06394,0.0,1.0,2621.456543, set /controls/flight/elevator/serviceable false, fly_strait
78.807686,-36.75161,-35.558167,11.928249,-0.680974,11.928249,-0.680974,-39.999859,-40.0,305.852173,75.519554,1454.576416,296.157104,20.208933,0.078618,0.005967,1606.709473,0.00997,0.094001,0.062248,0.0,1.0,2620.992188, set /controls/flight/elevator/serviceable false, fly_strait
78.60537,-29.220966,-28.027521,11.731359,-0.652307,11.731359,-0.652307,-29.999857,-30.0,313.041107,75.558342,1421.511108,296.160461,20.280174,0.081765,0.006246,1598.528198,0.009728,0.094001,0.06145,0.0,1.0,2620.336182, set /controls/flight/elevator/serviceable false, fly_strait
78.488464,-24.269238,-23.075792,11.587763,-0.63927,11.587763,-0.63927,-29.999857,-30.0,317.739227,75.580521,1398.175781,296.148468,20.30006,0.083039,0.004037,1591.25,0.009319,0.094001,0.061282,0.0,1.0,2619.929443, set /controls/flight/elevator/serviceable false, fly_strait
78.341438,-16.954769,-15.761325,11.355242,-0.639813,11.355242,-0.639813,-19.999857,-20.0,324.636383,75.609047,1361.350952,296.116638,20.287167,0.083416,-0.001414,1577.613159,0.009132,0.094001,0.061882,0.0,1.0,2619.342285, set /controls/flight/elevator/serviceable false, fly_strait
78.262756,-12.159474,-10.96603,11.189949,-0.653741,11.189949,-0.653741,-9.999858,-10.0,329.129883,75.625336,1335.687744,296.093231,20.249807,0.082761,-0.005193,1566.721436,0.00914,0.094001,0.063474,0.0,1.0,2618.967041, set /controls/flight/elevator/serviceable false, fly_strait
78.173813,-5.097131,-3.903687,10.928878,-0.68816,10.928878,-0.68816,-9.999858,-10.0,335.70639,75.646431,1295.753906,296.068909,20.151165,0.081127,-0.008684,1547.71106,0.009339,0.094001,0.064644,0.0,1.0,2618.445313, set /controls/flight/elevator/serviceable false, fly_strait
78.133728,-0.445863,0.747581,10.747414,-0.712984,10.747414,-0.712984,1.42E-4,0.0,339.978119,75.658691,1268.331421,296.064362,20.05792,0.080256,-0.008907,1533.277588,0.009831,0.094001,0.06586,0.0,1.0,2618.127441, set /controls/flight/elevator/serviceable false, fly_strait
78.101814,6.66608,7.859524,10.465984,-0.738814,10.465984,-0.738814,10.000142,10.0,346.212128,75.675087,1226.275391,296.076324,19.879135,0.079943,-0.006003,1509.039185,0.010185,0.094001,0.066087,0.0,1.0,2617.555176, set /controls/flight/elevator/serviceable false, fly_strait
78.099022,11.301232,12.494677,10.273046,-0.744207,10.273046,-0.744207,10.000142,10.0,350.250305,75.685074,1197.774536,296.093048,19.735556,0.080672,-0.002705,1491.194458,0.010554,0.094001,0.065489,0.0,1.0,2617.14624, set /controls/flight/elevator/serviceable false, fly_strait
78.122498,18.088428,19.281874,9.976557,-0.731824,9.976557,-0.731824,20.000143,20.0,356.128296,75.699265,1154.547607,296.119202,19.486267,0.082897,0.002182,1461.985474,0.010632,0.094001,0.064653,0.0,1.0,2616.584229, set /controls/flight/elevator/serviceable false, fly_strait
78.156754,22.499725,23.693171,9.774589,-0.71387,9.774589,-0.71387,20.000143,20.0,359.926422,75.708557,1125.51355,296.131042,19.298876,0.084698,0.004327,1440.945435,0.010455,0.094001,0.063345,0.0,1.0,2616.277588, set /controls/flight/elevator/serviceable false, fly_strait
78.236473,28.941912,30.135357,9.466105,-0.683618,9.466105,-0.683618,30.000143,30.0,365.441681,75.722878,1081.779907,296.132172,18.988184,0.087088,0.004581,1407.154297,0.010198,0.094001,0.062753,0.0,1.0,2615.95752, set /controls/flight/elevator/serviceable false, fly_strait
78.308662,33.11805,34.311497,9.257557,-0.667573,9.257557,-0.667573,30.000143,30.0,368.996918,75.733017,1052.580933,296.121521,18.762558,0.087966,0.002851,1383.217163,0.009766,0.094001,0.062697,0.0,1.0,2615.852295, set /controls/flight/elevator/serviceable false, fly_strait
78.445335,39.201382,40.394825,8.942377,-0.659068,8.942377,-0.659068,40.000141,40.0,374.147461,75.749741,1008.877991,296.094727,18.39872,0.087987,-0.001417,1345.341675,0.009537,0.094001,0.063229,0.0,1.0,2615.874023, set /controls/flight/elevator/serviceable false, fly_strait
78.554985,43.135094,44.328541,8.732071,-0.66396,8.732071,-0.66396,40.000141,40.0,377.460052,75.762245,979.924866,296.075226,18.140884,0.087238,-0.004358,1318.869507,0.009415,0.094001,0.064569,0.0,1.0,2616.013916, set /controls/flight/elevator/serviceable false, fly_strait
78.745987,48.851551,50.044994,8.418898,-0.682701,8.418898,-0.682701,50.000141,50.0,382.249115,75.783577,937.014038,296.054901,17.734674,0.085554,-0.007011,1277.498535,0.009485,0.094001,0.065544,0.0,1.0,2616.41748, set /controls/flight/elevator/serviceable false, fly_strait
78.890083,52.539474,53.732918,8.213086,-0.696951,8.213086,-0.696951,50.000141,50.0,385.323578,75.799843,908.913696,296.050903,17.453259,0.084588,-0.007079,1248.918945,0.009753,0.094001,0.06656,0.0,1.0,2616.787842, set /controls/flight/elevator/serviceable false, fly_strait
79.129387,57.887199,59.080643,7.91089,-0.7099,7.91089,-0.7099,60.000141,60.0,389.761932,75.827766,867.798218,296.060333,17.019629,0.083923,-0.004566,1204.760132,0.009956,0.094001,0.06676,0.0,1.0,2617.328125, set /controls/flight/elevator/serviceable false, fly_strait
79.303268,61.330376,62.523819,7.714706,-0.708998,7.714706,-0.708998,60.000141,60.0,392.608246,75.848991,841.225403,296.073792,16.725473,0.084228,-0.00178,1174.597656,0.010141,0.094001,0.066289,0.0,1.0,2617.691406, set /controls/flight/elevator/serviceable false, fly_strait
79.584015,66.314568,67.508011,7.429422,-0.690915,7.429422,-0.690915,70.000145,70.0,396.714966,75.885132,802.833557,296.095032,16.280863,0.085587,0.002353,1128.528687,0.010129,0.094001,0.065616,0.0,1.0,2618.264404, set /controls/flight/elevator/serviceable false, fly_strait
79.783699,69.518936,70.712379,7.245706,-0.670478,7.245706,-0.670478,70.000145,70.0,399.348267,75.9123,778.311584,296.104675,15.984402,0.086734,0.004209,1097.432007,0.00987,0.094001,0.064554,0.0,1.0,2618.673828, set /controls/flight/elevator/serviceable false, fly_strait
80.100868,74.152122,75.345573,6.980732,-0.636708,6.980732,-0.636708,70.000145,70.0,403.148865,75.957985,743.26416,296.105591,15.542927,0.088173,0.004567,1050.516479,0.009578,0.094001,0.064072,0.0,1.0,2619.338623, set /controls/flight/elevator/serviceable false, fly_strait
80.323326,77.128326,78.32177,6.811815,-0.617245,6.811815,-0.617245,80.000145,80.0,405.587708,75.991905,721.120911,296.096954,15.252462,0.088524,0.00326,1019.247192,0.009096,0.094001,0.064026,0.0,1.0,2619.818604, set /controls/flight/elevator/serviceable false, fly_strait
80.671974,81.429604,82.623047,6.571567,-0.601318,6.571567,-0.601318,80.000145,80.0,409.111969,76.048248,689.862793,296.075378,14.825315,0.087966,-5.9E-5,972.687805,0.008818,0.094001,0.064458,0.0,1.0,2620.59668, set /controls/flight/elevator/serviceable false, fly_strait
80.913239,84.192276,85.385719,6.421173,-0.599676,6.421173,-0.599676,80.000145,80.0,411.377441,76.0896,670.417236,296.059998,14.547904,0.086963,-0.002322,942.076294,0.00859,0.094001,0.065536,0.0,1.0,2621.154053, set /controls/flight/elevator/serviceable false, fly_strait
81.286041,88.186287,89.37973,6.212022,-0.607686,6.212022,-0.607686,90.000145,90.0,414.659241,76.157494,643.520142,296.0448,14.145811,0.085016,-0.004234,897.14563,0.008567,0.094001,0.066306,0.0,1.0,2622.047119, set /controls/flight/elevator/serviceable false, fly_strait
81.540352,90.753624,91.947075,6.084482,-0.614844,6.084482,-0.614844,90.000145,90.0,416.775635,76.206764,627.218079,296.042847,13.888939,0.08387,-0.00409,868.052185,0.008681,0.094001,0.067065,0.0,1.0,2622.678223, set /controls/flight/elevator/serviceable false, fly_strait
81.92791,94.47036,95.663803,5.912141,-0.619071,5.912141,-0.619071,90.000145,90.0,419.854309,76.286766,605.398071,296.052704,13.523558,0.082837,-0.001758,826.050659,0.008783,0.094001,0.067163,0.0,1.0,2623.674805, set /controls/flight/elevator/serviceable false, fly_strait
82.188934,96.864197,98.057648,5.810277,-0.613972,5.810277,-0.613972,100.000145,100.0,421.849823,76.3442,592.698975,296.064972,13.294943,0.082775,6.56E-4,799.343689,0.008844,0.094001,0.06667,0.0,1.0,2624.369141, set /controls/flight/elevator/serviceable false, fly_strait
82.582367,100.339211,101.532654,5.67719,-0.592752,5.67719,-0.592752,100.000145,100.0,424.770325,76.43647,576.531128,296.083435,12.976904,0.083411,0.004081,761.56012,0.008771,0.094001,0.066057,0.0,1.0,2625.450439, set /controls/flight/elevator/serviceable false, fly_strait
82.844902,102.585075,103.778519,5.601557,-0.57197,5.601557,-0.57197,100.000145,100.0,426.676331,76.502045,567.706238,296.091431,12.78252,0.083998,0.005527,738.073425,0.008468,0.094001,0.065134,0.0,1.0,2626.194824, set /controls/flight/elevator/serviceable false, fly_strait
83.237518,105.859138,107.052582,5.507704,-0.539569,5.507704,-0.539569,110.000145,110.0,429.486969,76.606415,557.418457,296.091797,12.518595,0.084584,0.005612,705.680725,0.008171,0.094001,0.064734,0.0,1.0,2627.341797, set /controls/flight/elevator/serviceable false, fly_strait
83.497269,107.985664,109.179108,5.458415,-0.528887,5.458415,-0.528887,110.000145,110.0,431.33609,76.679932,552.537354,296.091858,12.361463,0.080292,0.005819,686.117432,0.002569,0.094001,0.1,0.0,1.0,2628.124023, set /controls/flight/elevator/serviceable false, turn_+45
83.876289,111.103531,112.296974,5.411174,-0.573667,5.411174,-0.573667,110.000145,110.0,434.086182,76.795929,548.262451,296.211517,12.155118,0.076168,0.024152,660.009949,0.002519,0.094001,0.1,0.0,1.0,2629.315186, set /controls/flight/elevator/serviceable false, turn_+45
84.117966,113.141586,114.33503,5.400221,-0.570382,5.400221,-0.570382,110.000145,110.0,435.912323,76.8769,547.777832,296.359192,12.039268,0.079846,0.046093,644.84845,0.002732,0.094001,0.1,0.0,1.0,2630.113281, set /controls/flight/elevator/serviceable false, turn_+45
84.460632,116.151466,117.34491,5.410156,-0.45765,5.410156,-0.45765,120.000145,120.0,438.657471,77.003365,550.979431,296.617889,11.901422,0.092694,0.082844,625.610535,0.002716,0.094001,0.1,0.0,1.0,2631.302002, set /controls/flight/elevator/serviceable false, turn_+45
84.676041,118.135048,119.328491,5.430351,-0.311225,5.430351,-0.311225,120.000145,120.0,440.501648,77.090729,555.65918,296.779266,11.834035,0.104006,0.103994,615.203796,0.002179,0.094001,0.1,0.0,1.0,2632.082764, set /controls/flight/elevator/serviceable false, turn_+45
84.982399,121.091087,122.284531,5.475955,-0.022178,5.475955,-0.022178,120.000145,120.0,443.305084,77.225838,566.042358,296.961914,11.767561,0.120996,0.12398,603.328491,0.001482,0.094001,0.1,0.0,1.0,2633.232666, set /controls/flight/elevator/serviceable false, turn_+45
85.177345,123.057777,124.251221,5.515274,0.189086,5.515274,0.189086,120.000145,120.0,445.206818,77.318359,574.875977,297.034027,11.743452,0.130164,0.128257,597.918884,1.06E-4,0.094001,0.1,0.0,1.0,2633.984863, set /controls/flight/elevator/serviceable false, turn_+45
85.457794,126.016602,127.210045,5.587699,0.478544,5.587699,0.478544,130.000137,130.0,448.120239,77.460403,590.489685,297.075409,11.730982,0.138473,0.122981,593.49176,-9.0E-4,0.094001,0.1,0.0,1.0,2635.094482, set /controls/flight/elevator/serviceable false, turn_+45
85.636871,128.003143,129.196579,5.645646,0.635398,5.645646,0.635398,130.000137,130.0,450.108704,77.557076,602.282837,297.073883,11.734407,0.140012,0.114631,592.898071,-0.002279,0.094001,0.1,0.0,1.0,2635.823242, set /controls/flight/elevator/serviceable false, turn_+45
85.892372,131.016891,132.210327,5.748171,0.795729,5.748171,0.795729,130.000137,130.0,453.169647,77.704742,621.925476,297.062347,11.751095,0.137327,0.100722,595.304565,-0.003026,0.094001,0.1,0.0,1.0,2636.899658, set /controls/flight/elevator/serviceable false, turn_+45
86.052635,133.055756,134.249191,5.827318,0.858223,5.827318,0.858223,130.000137,130.0,455.267426,77.804771,636.338745,297.067566,11.767426,0.133394,0.093741,598.95166,-0.003789,0.094001,0.1,0.0,1.0,2637.60498, set /controls/flight/elevator/serviceable false, turn_+45
86.275215,136.170013,137.363464,5.962437,0.903429,5.962437,0.903429,140.000137,140.0,458.508972,77.956818,660.040894,297.11734,11.797506,0.12667,0.09011,607.232544,-0.004087,0.094001,0.1,0.0,1.0,2638.639404, set /controls/flight/elevator/serviceable false, turn_+45
86.410065,138.289932,139.483383,6.063377,0.918886,6.063377,0.918886,140.000137,140.0,460.738739,78.059273,677.287781,297.183685,11.821078,0.122882,0.092894,614.499146,-0.004302,0.094001,0.1,0.0,1.0,2639.309814, set /controls/flight/elevator/serviceable false, turn_+45
86.589478,141.546234,142.73967,6.230508,0.946687,6.230508,0.946687,140.000137,140.0,464.196228,78.214096,705.370239,297.328247,11.862605,0.119588,0.103657,627.842407,-0.004376,0.094001,0.1,0.0,1.0,2640.278809, set /controls/flight/elevator/serviceable false, turn_+45
86.692764,143.774231,144.967682,6.351754,0.980049,6.351754,0.980049,140.000137,140.0,466.582153,78.317757,725.538025,297.446198,11.895231,0.11923,0.113627,638.286255,-0.004508,0.094001,0.1,0.0,1.0,2640.895996, set /controls/flight/elevator/serviceable false, turn_+45
86.82235,147.212418,148.405853,6.546712,1.060187,6.546712,1.060187,150.000137,150.0,470.291809,78.47332,757.807556,297.636749,11.952829,0.121022,0.129473,656.160339,-0.004667,0.094001,0.1,0.0,1.0,2641.772461, set /controls/flight/elevator/serviceable false, turn_+45
86.891884,149.574615,150.768066,6.684291,1.132554,6.684291,1.132554,150.000137,150.0,472.857025,78.576721,780.522827,297.762604,11.997364,0.123167,0.138939,669.486694,-0.005049,0.094001,0.1,0.0,1.0,2642.320801, set /controls/flight/elevator/serviceable false, turn_+45
86.971634,153.232773,154.426224,6.90022,1.256932,6.90022,1.256932,150.000137,150.0,476.850342,78.730774,816.091431,297.937653,12.073198,0.12664,0.149596,691.478943,-0.005393,0.094001,0.1,0.0,1.0,2643.086426, set /controls/flight/elevator/serviceable false, turn_+45
87.008949,155.753448,156.946899,7.049633,1.342967,7.049633,1.342967,160.000137,160.0,479.613068,78.832443,840.609619,298.042542,12.129283,0.128497,0.15405,707.400513,-0.005985,0.094001,0.1,0.0,1.0,2643.558105, set /controls/flight/elevator/serviceable false, turn_+45
87.041931,159.665604,160.859055,7.280678,1.460595,7.280678,1.460595,160.000137,160.0,483.912537,78.982834,878.287903,298.184631,12.220488,0.129975,0.157343,733.02478,-0.006395,0.094001,0.1,0.0,1.0,2644.206543, set /controls/flight/elevator/serviceable false, turn_+45
87.048836,162.365448,163.558899,7.438726,1.527391,7.438726,1.527391,160.000137,160.0,486.88446,79.081398,903.853943,298.273651,12.285321,0.129987,0.158158,751.172668,-0.006955,0.094001,0.1,0.0,1.0,2644.599609, set /controls/flight/elevator/serviceable false, turn_+45
87.036652,166.559235,167.752686,7.680872,1.604743,7.680872,1.604743,170.000137,170.0,491.503265,79.226181,942.661926,298.408051,12.387798,0.128835,0.158941,779.816345,-0.007273,0.094001,0.1,0.0,1.0,2645.129395, set /controls/flight/elevator/serviceable false, turn_+45
87.01342,169.4543,170.647736,7.845151,1.643712,7.845151,1.643712,170.000137,170.0,494.690704,79.320389,968.738464,298.503326,12.459474,0.127608,0.160048,799.755676,-0.007642,0.094001,0.1,0.0,1.0,2645.442139, set /controls/flight/elevator/serviceable false, turn_+45
86.955666,173.950211,175.143646,8.094869,1.688412,8.094869,1.688412,170.000137,170.0,499.635254,79.457748,1008.007507,298.660217,12.572424,0.125716,0.16343,830.754211,-0.007827,0.094001,0.1,0.0,1.0,2645.849609, set /controls/flight/elevator/serviceable false, turn_+45
86.901802,177.051849,178.245285,8.262942,1.714444,8.262942,1.714444,180.000137,180.0,503.040771,79.54641,1034.200195,298.775146,12.651901,0.124731,0.166959,852.047852,-0.00804,0.094001,0.1,0.0,1.0,2646.078857, set /controls/flight/elevator/serviceable false, turn_+45
86.79805,181.863708,183.057159,8.516296,1.754248,8.516296,1.754248,180.000137,180.0,508.312469,79.674576,1073.342285,298.960999,12.778638,0.123987,0.173731,884.769897,-0.008164,0.094001,0.1,0.0,1.0,2646.358154, set /controls/flight/elevator/serviceable false, turn_+45
