airspeed_indicator_indicated_speed_kt,altimeter_indicated_altitude_ft,altimeter_pressure_alt_ft,attitude_indicator_indicated_pitch_deg,attitude_indicator_indicated_roll_deg,attitude_indicator_internal_pitch_deg,attitude_indicator_internal_roll_deg,encoder_indicated_altitude_ft,encoder_pressure_alt_ft,gps_indicated_altitude_ft,gps_indicated_ground_speed_kt,gps_indicated_vertical_speed,indicated_heading_deg,magnetic_compass_indicated_heading_deg,slip_skid_ball_indicated_slip_skid,turn_indicator_indicated_turn_rate,vertical_speed_indicator_indicated_speed_fpm,flight_aileron,flight_elevator,flight_rudder,flight_flaps,engine_throttle,engine_rpm,Command_fault,Command
6.526477,-87.938629,-86.745186,2.968813,1.352346,2.590972,0.092876,-89.999855,-90.0,2.286516,0.0,0.007671,297.867188,278.051666,0.012382,-0.045977,-10.5671,-0.0,0.0,0.0,0.0,0.0,600.213318,, takeoff
6.56432,-87.948753,-86.75531,2.974434,1.36999,2.591251,0.092714,-89.999855,-90.0,2.286542,0.0,0.007068,297.866333,280.335541,0.012432,-0.041596,-19.88113,-0.0,0.0,0.0,0.0,0.0,600.2453,, takeoff
6.620661,-87.960098,-86.766655,2.783576,0.755934,2.584524,0.092428,-89.999855,-90.0,2.28654,2.9E-5,-0.010484,297.865112,283.518219,0.012375,-0.036111,-13.262695,-0.019571,0.051825,4.3E-5,0.0,1.0,665.355896,, takeoff
6.668838,-87.966911,-86.773468,2.634733,0.332265,2.562403,0.091166,-89.999855,-90.0,2.286464,1.41E-4,-0.033094,297.864075,285.884583,0.012243,-0.032458,-7.18216,-0.010799,0.05169,1.04E-4,0.0,1.0,784.570923,, takeoff
6.769592,-87.974319,-86.780876,2.510336,0.086091,2.510336,0.086091,-89.999855,-90.0,2.286285,7.41E-4,-0.020098,297.862366,289.026733,0.011964,-0.028128,-18.685669,-0.004747,0.051248,1.56E-4,0.0,1.0,1004.679199,, takeoff
6.888258,-87.978233,-86.78479,2.493017,0.080011,2.493017,0.080011,-89.999855,-90.0,2.286289,0.002337,0.020801,297.861084,291.015594,0.011777,-0.025663,-13.561708,-0.00123,0.050207,2.41E-4,0.0,1.0,1165.307007,, takeoff
7.162852,-87.982857,-86.789413,2.495497,0.067635,2.495497,0.067635,-89.999855,-90.0,2.286552,0.008776,0.080089,297.858521,293.811707,0.010855,-0.022585,-10.612982,-0.001143,0.04986,3.05E-4,0.0,1.0,1401.226318,, takeoff
7.416332,-87.985252,-86.791809,2.507127,0.057936,2.507127,0.057936,-89.999855,-90.0,2.286889,0.017258,0.117739,297.855743,295.536499,0.009287,-0.020984,-9.642868,-9.66E-4,0.04991,4.33E-4,0.0,1.0,1544.902954,, takeoff
7.90252,-87.988007,-86.794563,2.530173,0.042673,2.530173,0.042673,-89.999855,-90.0,2.287627,0.038871,0.172907,297.848663,297.893707,0.006454,-0.019361,-10.953023,-8.28E-4,0.050143,5.72E-4,0.0,1.0,1730.518433,, takeoff
8.292541,-87.989365,-86.795921,2.546625,0.032673,2.546625,0.032673,-89.999855,-90.0,2.288277,0.060631,0.21203,297.841003,299.301788,0.006226,-0.018875,-17.389826,-6.1E-4,0.050603,9.26E-4,0.0,1.0,1832.69397,, takeoff
8.729234,-87.990402,-86.796959,2.562221,0.023384,2.562221,0.023384,-89.999855,-90.0,2.289055,0.08927,0.248943,297.83017,300.572632,0.003455,-0.018925,-10.004444,-4.67E-4,0.050933,0.001309,0.0,1.0,1918.203857,, takeoff
8.729234,-87.990402,-86.796959,2.562221,0.023384,2.562221,0.023384,-89.999855,-90.0,2.289055,0.08927,0.248943,297.83017,300.572632,0.003455,-0.018925,-10.004444,-4.67E-4,0.050933,0.001309,0.0,1.0,1918.203857,, takeoff
10.23386,-87.992149,-86.798706,2.600542,0.002616,2.600542,0.002616,-89.999855,-90.0,2.292187,0.220487,0.38075,297.776428,303.493622,0.012224,-0.022181,-18.30508,-3.34E-4,0.051244,0.001851,0.0,1.0,2089.260498,, takeoff
10.819472,-87.992119,-86.798676,2.611093,-0.002457,2.611093,-0.002457,-89.999855,-90.0,2.293602,0.284785,0.430692,297.748474,304.217041,0.014841,-0.024432,-18.175909,-3.7E-5,0.052011,0.004538,0.0,1.0,2127.019531,, takeoff
11.696222,-87.991684,-86.798241,2.621837,-0.007612,2.621837,-0.007612,-89.999855,-90.0,2.295946,0.394843,0.50502,297.705963,304.97934,0.017838,-0.027555,-16.510454,3.5E-5,0.052222,0.005936,0.0,1.0,2166.871582,, takeoff
12.297012,-87.991158,-86.797714,2.627928,-0.009902,2.627928,-0.009902,-89.999855,-90.0,2.297724,0.479835,0.557977,297.676025,305.306732,0.019352,-0.029617,-14.211637,1.09E-4,0.052437,0.008061,0.0,1.0,2186.001465,, takeoff
13.215044,-87.990021,-86.796577,2.635706,-0.011973,2.635706,-0.011973,-89.999855,-90.0,2.300725,0.624817,0.639272,297.631775,305.534027,0.020984,-0.032184,-7.008848,1.41E-4,0.052559,0.009558,0.0,1.0,2206.369141,, takeoff
13.834858,-87.989029,-86.795586,2.640388,-0.012637,2.640388,-0.012637,-89.999855,-90.0,2.302954,0.733078,0.694039,297.602844,305.515717,0.021824,-0.033582,9.145505,1.71E-4,0.052714,0.011771,0.0,1.0,2215.799561,, takeoff
14.745758,-87.987259,-86.793816,2.646394,-0.012595,2.646394,-0.012595,-89.999855,-90.0,2.306535,0.907394,0.775769,297.564728,305.257874,0.022781,-0.034691,17.916954,1.81E-4,0.052808,0.013217,0.0,1.0,2226.822266,, takeoff
15.373951,-87.985825,-86.792381,2.650339,-0.012052,2.650339,-0.012052,-89.999855,-90.0,2.309223,1.038031,0.832712,297.541443,304.931427,0.023316,-0.034902,13.155007,1.8E-4,0.052928,0.015123,0.0,1.0,2233.067871,, takeoff
16.346615,-87.983253,-86.78981,2.65615,-0.010812,2.65615,-0.010812,-89.999855,-90.0,2.313739,1.256796,0.921309,297.512238,304.20816,0.024063,-0.034117,13.268943,1.72E-4,0.053007,0.016287,0.0,1.0,2241.06543,, takeoff
16.952991,-87.98143,-86.787987,2.65983,-0.009846,2.65983,-0.009846,-89.999855,-90.0,2.316776,1.403207,0.976544,297.49762,303.635132,0.024621,-0.033139,8.734278,1.54E-4,0.053123,0.017748,0.0,1.0,2245.241211,, takeoff
17.930254,-87.978149,-86.784706,2.66562,-0.008117,2.66562,-0.008117,-89.999855,-90.0,2.322033,1.655127,1.065744,297.480255,302.536865,0.025474,-0.030775,13.107312,1.41E-4,0.053197,0.018478,0.0,1.0,2250.978516,, takeoff
18.538773,-87.975891,-86.782448,2.669325,-0.00687,2.669325,-0.00687,-89.999855,-90.0,2.325533,1.821704,1.122286,297.472321,301.756958,0.026076,-0.029039,11.411302,1.16E-4,0.053312,0.019347,0.0,1.0,2254.062012,, takeoff
19.491179,-87.972015,-86.778572,2.675004,-0.004728,2.675004,-0.004728,-89.999855,-90.0,2.331366,2.097412,1.208036,297.463379,300.409729,0.026911,-0.026092,17.467463,9.8E-5,0.053386,0.019743,0.0,1.0,2258.32251,, takeoff
20.126472,-87.9692,-86.775757,2.678931,-0.003085,2.678931,-0.003085,-89.999855,-90.0,2.335498,2.291148,1.266285,297.458527,299.439697,0.02738,-0.024201,18.40041,6.8E-5,0.0535,0.02019,0.0,1.0,2260.860352,, takeoff
21.105373,-87.964485,-86.771042,2.684893,-2.66E-4,2.684893,-2.66E-4,-89.999855,-90.0,2.342246,2.604975,1.355653,297.450928,297.857178,0.027807,-0.021656,16.803848,4.4E-5,0.053579,0.020433,0.0,1.0,2264.415283,, takeoff
21.740068,-87.961197,-86.767754,2.688883,0.001796,2.688883,0.001796,-89.999855,-90.0,2.34687,2.818134,1.414037,297.444794,296.788727,0.027856,-0.0204,6.047499,4.0E-6,0.053698,0.020813,0.0,1.0,2266.540039,, takeoff
22.665195,-87.956062,-86.762619,2.694634,0.005085,2.694634,0.005085,-89.999855,-90.0,2.35396,3.142152,1.49915,297.433136,295.194122,0.027493,-0.019204,6.298469,-2.6E-5,0.053778,0.02112,0.0,1.0,2269.446533,, takeoff
23.325193,-87.952156,-86.758713,2.69888,0.007644,2.69888,0.007644,-89.999855,-90.0,2.359277,3.382921,1.560012,297.422211,294.042633,0.026955,-0.018862,14.730556,-7.3E-5,0.053893,0.021703,0.0,1.0,2271.413574,, takeoff
24.221537,-87.94651,-86.753067,2.704638,0.011305,2.704638,0.011305,-89.999855,-90.0,2.366845,3.722496,1.641642,297.404053,292.480042,0.025896,-0.01896,16.697828,-1.09E-4,0.053978,0.022249,0.0,1.0,2273.978516,, takeoff
24.853453,-87.942307,-86.748863,2.708862,0.014027,2.708862,0.014027,-89.999855,-90.0,2.372423,3.970403,1.7015,297.388855,291.391083,0.024861,-0.01939,12.133175,-1.61E-4,0.054093,0.023157,0.0,1.0,2275.729736,, takeoff
25.852938,-87.935265,-86.741821,2.715557,0.01835,2.715557,0.01835,-89.999855,-90.0,2.381649,4.376413,1.791906,297.362305,289.712097,0.022897,-0.020361,7.333675,-2.0E-4,0.054177,0.023917,0.0,1.0,2278.426514,, takeoff
26.456791,-87.930779,-86.737328,2.72017,0.02097,2.72017,0.02097,-89.999855,-90.0,2.387497,4.62998,1.881541,297.345062,288.733154,0.02169,-0.021057,17.675493,-2.62E-4,0.054311,0.025244,0.0,1.0,2280.023926,, takeoff
27.425814,-87.923103,-86.72966,2.732421,0.03105,2.732421,0.03105,-89.999855,-90.0,2.397955,5.049891,2.155137,297.317749,287.234497,0.020233,-0.021824,17.513905,-3.0E-4,0.054403,0.026106,0.0,1.0,2282.55249,, takeoff
28.05327,-87.91777,-86.724327,2.737501,0.034271,2.737501,0.034271,-89.999855,-90.0,2.405248,5.329966,2.215798,297.300232,286.321228,0.018761,-0.02231,18.156002,-4.44E-4,0.054648,0.027472,0.0,1.0,2284.171631,, takeoff
28.994078,-87.909203,-86.715752,2.74367,0.038126,2.74367,0.038126,-89.999855,-90.0,2.416566,5.761093,2.309453,297.276428,285.050964,0.017266,-0.022575,9.897216,-4.9E-4,0.05475,0.028348,0.0,1.0,2286.583008,, takeoff
29.620625,-87.903099,-86.709656,2.748137,0.040606,2.748137,0.040606,-89.999855,-90.0,2.424377,6.055658,2.372594,297.261841,284.276917,0.016613,-0.022532,15.136981,-5.45E-4,0.054873,0.029538,0.0,1.0,2288.186523,, takeoff
30.558777,-87.893417,-86.699974,2.75503,0.044196,2.75503,0.044196,-89.999855,-90.0,2.436494,6.507902,2.468694,297.242523,283.233978,0.016027,-0.022078,11.530409,-5.8E-4,0.054963,0.030267,0.0,1.0,2290.585449,, takeoff
31.18486,-87.886658,-86.693214,2.759858,0.046699,2.759858,0.046699,-89.999855,-90.0,2.444842,6.816141,2.536557,297.23053,282.621521,0.015797,-0.021677,18.250624,-6.31E-4,0.055101,0.031233,0.0,1.0,2292.181885,, takeoff
32.091682,-87.876297,-86.682854,2.766817,0.05043,2.766817,0.05043,-89.999855,-90.0,2.457397,7.275027,2.626427,297.213806,281.851959,0.015528,-0.021046,17.860357,-6.67E-4,0.055197,0.031833,0.0,1.0,2294.504395,, takeoff
32.739426,-87.868584,-86.67514,2.771931,0.053301,2.771931,0.053301,-89.999855,-90.0,2.466645,7.609424,2.69362,297.201294,281.393982,0.015265,-0.020748,17.746042,-7.2E-4,0.055336,0.032669,0.0,1.0,2296.160889,, takeoff
33.618595,-87.857681,-86.664238,2.778723,0.057362,2.778723,0.057362,-89.999855,-90.0,2.479591,8.072783,2.783925,297.182831,280.894897,0.014694,-0.020616,19.354612,-7.61E-4,0.055439,0.033295,0.0,1.0,2298.410645,, takeoff
34.264332,-87.84938,-86.655937,2.78401,0.060592,2.78401,0.060592,-89.999855,-90.0,2.489406,8.419618,2.913321,297.167389,280.618683,0.013873,-0.020827,8.963135,-8.19E-4,0.055574,0.034218,0.0,1.0,2300.063232,, takeoff
35.215469,-87.83651,-86.643059,2.79831,0.065505,2.79831,0.065505,-89.999855,-90.0,2.505599,8.94215,3.289548,297.14151,280.34848,0.012277,-0.021568,8.122765,-8.66E-4,0.05568,0.03499,0.0,1.0,2302.506592,, takeoff
35.779762,-87.828415,-86.634972,2.802928,0.068616,2.802928,0.068616,-89.999855,-90.0,2.515748,9.257906,3.35098,297.124023,280.26416,0.011198,-0.022291,11.121861,-9.36E-4,0.055966,0.036284,0.0,1.0,2303.958008,, takeoff
36.727901,-87.81414,-86.620689,2.809541,0.073749,2.809541,0.073749,-89.999855,-90.0,2.533229,9.797177,3.450966,297.092682,280.245331,0.008728,-0.023641,16.032267,-9.8E-4,0.056059,0.037158,0.0,1.0,2306.397949,, takeoff
37.340851,-87.804451,-86.611008,2.814249,0.077184,2.814249,0.077184,-89.999855,-90.0,2.544859,10.152332,3.520839,297.071014,280.311615,0.00712,-0.024628,12.321409,-0.001054,0.056191,0.038725,0.0,1.0,2307.979248,, takeoff
38.258972,-87.789345,-86.595901,2.821424,0.082008,2.821424,0.082008,-89.999855,-90.0,2.562744,10.692698,3.630505,297.038513,280.518951,0.004811,-0.025913,8.96139,-0.001103,0.056285,0.039809,0.0,1.0,2310.350098,, takeoff
38.894176,-87.778473,-86.58503,2.826622,0.085331,2.826622,0.085331,-89.999855,-90.0,2.575476,11.073175,3.701952,297.016205,280.73349,0.003427,-0.026658,12.141844,-0.001172,0.056428,0.041434,0.0,1.0,2311.995605,, takeoff
39.806648,-87.762276,-86.568832,2.83408,0.089754,2.83408,0.089754,-89.999855,-90.0,2.594278,11.628322,3.826959,296.986267,281.133972,0.001837,-0.02725,12.983809,-0.001219,0.056532,0.042549,0.0,1.0,2314.363525,, takeoff
40.388016,-87.751617,-86.558174,2.846702,0.094192,2.846702,0.094192,-89.999855,-90.0,2.606535,11.987343,3.838884,296.968048,281.440613,0.001362,-0.027411,13.091311,-0.001282,0.056682,0.044046,0.0,1.0,2315.875488,, takeoff
41.294651,-87.734276,-86.540833,2.856678,0.10126,2.856678,0.10126,-89.999855,-90.0,2.628015,12.555837,4.397799,296.94165,281.989197,4.93E-4,-0.027293,19.541656,-0.001346,0.056934,0.044957,0.0,1.0,2318.240234,, takeoff
41.922497,-87.721619,-86.528175,2.859754,0.104314,2.859754,0.104314,-89.999855,-90.0,2.643427,12.955171,4.473869,296.924194,282.412415,8.0E-5,-0.027137,17.746855,-0.001447,0.057134,0.046277,0.0,1.0,2319.880859,, takeoff
42.798985,-87.70314,-86.509697,2.865127,0.108347,2.865127,0.108347,-89.999855,-90.0,2.665461,13.520268,4.585344,296.90097,283.051849,-2.08E-4,-0.026763,18.038429,-0.00149,0.057195,0.04715,0.0,1.0,2322.17627,, takeoff
43.398205,-87.69001,-86.496567,2.869694,0.111318,2.869694,0.111318,-89.999855,-90.0,2.680889,13.911694,4.663356,296.884857,283.515411,-3.47E-4,-0.02657,16.479153,-0.001548,0.057303,0.048311,0.0,1.0,2324.204834,, takeoff
44.294571,-87.669662,-86.476212,2.87682,0.115972,2.87682,0.115972,-89.999855,-90.0,2.704516,14.504599,4.779822,296.859802,284.237518,-6.78E-4,-0.026456,10.88079,-0.00159,0.057394,0.049117,0.0,1.0,2328.446289,, takeoff
44.915413,-87.655067,-86.461624,2.886941,0.11939,2.886941,0.11939,-89.999855,-90.0,2.721861,14.920279,5.308122,296.840607,284.750854,-0.001129,-0.026677,16.92696,-0.001657,0.057536,0.050369,0.0,1.0,2331.930908,, takeoff
45.758038,-87.634323,-86.44088,2.89622,0.1257,2.89622,0.1257,-89.999855,-90.0,2.747389,15.490602,5.477411,296.812012,285.454346,-0.002098,-0.027293,14.313699,-0.001706,0.057739,0.051329,0.0,1.0,2337.09668,, takeoff
46.401497,-87.617714,-86.424271,2.901297,0.129599,2.901297,0.129599,-89.999855,-90.0,2.76733,15.930506,5.565573,296.787689,285.989655,-0.003472,-0.028121,19.239885,-0.001796,0.057924,0.052759,0.0,1.0,2341.257324,, takeoff
47.292545,-87.593803,-86.40036,2.907946,0.134739,2.907946,0.134739,-89.999855,-90.0,2.795462,16.544836,5.684451,296.75177,286.716766,-0.005624,-0.029464,20.057922,-0.001851,0.058026,0.053975,0.0,1.0,2347.200439,, takeoff
47.885483,-87.577324,-86.383881,2.912711,0.138196,2.912711,0.138196,-89.999855,-90.0,2.814566,16.95767,5.774187,296.726593,287.186798,-0.007216,-0.030446,20.592705,-0.001925,0.058159,0.055771,0.0,1.0,2351.237061,, takeoff
48.775032,-87.551872,-86.358429,2.91985,0.143034,2.91985,0.143034,-89.999855,-90.0,2.843752,17.581692,5.896447,296.689209,287.861084,-0.009525,-0.031672,10.653548,-0.001974,0.058254,0.05703,0.0,1.0,2357.361084,, takeoff
49.367302,-87.534447,-86.341003,2.926254,0.146511,2.926254,0.146511,-89.999855,-90.0,2.863749,18.000797,6.196706,296.664459,288.285553,-0.010489,-0.032344,16.062578,-0.002043,0.058397,0.058899,0.0,1.0,2361.473877,, takeoff
50.253033,-87.507202,-86.313759,2.942831,0.160801,2.942831,0.160801,-89.999855,-90.0,2.897601,18.633934,6.927657,296.629608,288.877655,-0.012343,-0.032704,16.469545,-0.002093,0.058525,0.060136,0.0,1.0,2367.669678,, takeoff
50.843029,-87.488121,-86.294678,2.947593,0.16383,2.947593,0.16383,-89.999855,-90.0,2.920848,19.058924,7.012067,296.607147,289.238983,-0.01328,-0.032939,16.888559,-0.002297,0.058857,0.061879,0.0,1.0,2371.812256,, takeoff
51.727528,-87.458321,-86.264877,2.953423,0.167667,2.953423,0.167667,-89.999855,-90.0,2.956264,19.700613,7.150071,296.576202,289.725891,-0.013941,-0.032819,18.875744,-0.00234,0.058952,0.063002,0.0,1.0,2378.039795,, takeoff
52.291641,-87.438606,-86.245155,2.957714,0.170124,2.957714,0.170124,-89.999855,-90.0,2.979257,20.113152,7.239103,296.557343,290.000214,-0.013997,-0.032622,11.932212,-0.002395,0.059068,0.064549,0.0,1.0,2382.024658,, takeoff
53.198326,-87.405891,-86.212448,2.964767,0.173793,2.964767,0.173793,-89.999855,-90.0,3.016858,20.780867,7.389266,296.528229,290.378174,-0.01358,-0.032162,16.781683,-0.00243,0.059154,0.065492,0.0,1.0,2388.442871,, takeoff
53.786095,-87.384079,-86.190636,2.969526,0.17626,2.969526,0.17626,-89.999855,-90.0,3.041655,21.216581,7.482285,296.508728,290.580322,-0.013179,-0.032012,17.191523,-0.002483,0.059295,0.066948,0.0,1.0,2392.611084,, takeoff
54.666576,-87.350563,-86.15712,2.976278,0.179813,2.976278,0.179813,-89.999855,-90.0,3.079449,21.873867,7.625112,296.47821,290.819,-0.012561,-0.032012,17.783005,-0.002518,0.059391,0.067923,0.0,1.0,2398.870605,, takeoff
55.252949,-87.327721,-86.13427,2.980871,0.182315,2.980871,0.182315,-89.999855,-90.0,3.105045,22.314457,7.721179,296.456055,290.934845,-0.012314,-0.032306,18.154245,-0.002569,0.059526,0.069449,0.0,1.0,2403.048096,, takeoff
56.131596,-87.292732,-86.099289,2.987445,0.185897,2.987445,0.185897,-89.999855,-90.0,3.144034,22.978819,7.863705,296.420654,291.044342,-0.012223,-0.033029,18.684252,-0.002604,0.059617,0.070557,0.0,1.0,2409.321045,, takeoff
56.716713,-87.268951,-86.075508,2.992025,0.188363,2.992025,0.188363,-89.999855,-90.0,3.170421,23.423975,7.958867,296.395142,291.075195,-0.012403,-0.033755,21.257692,-0.002656,0.059749,0.072327,0.0,1.0,2413.507813,, takeoff
57.593472,-87.232651,-86.039207,2.997475,0.192929,2.997475,0.192929,-89.999855,-90.0,3.210231,24.094963,7.993737,296.355835,291.060425,-0.012779,-0.034841,19.025448,-0.002691,0.059841,0.073602,0.0,1.0,2419.794678,, takeoff
58.177277,-87.208092,-86.014648,3.001952,0.195147,3.001952,0.195147,-89.999855,-90.0,3.23706,24.544392,8.092181,296.328857,291.011414,-0.013133,-0.035618,17.323589,-0.002756,0.059949,0.075568,0.0,1.0,2423.990479,, takeoff
59.027473,-87.171776,-85.978333,3.008364,0.197837,3.008364,0.197837,-89.999855,-90.0,3.276761,25.202713,8.231727,296.290649,290.886963,-0.013362,-0.036434,18.588524,-0.002788,0.060039,0.076917,0.0,1.0,2430.115723,, takeoff
59.633526,-87.14537,-85.951927,3.017172,0.197871,3.017172,0.197871,-89.999855,-90.0,3.306537,25.674982,8.784813,296.26416,290.761963,-0.013459,-0.036873,12.667046,-0.002826,0.060167,0.078827,0.0,1.0,2434.494141,, takeoff
60.504543,-87.106346,-85.912903,3.027444,0.199674,3.027444,0.199674,-89.999855,-90.0,3.351153,26.35792,10.174163,296.228638,290.533539,-0.012765,-0.036958,14.999398,-0.002827,0.060343,0.080151,0.0,1.0,2440.838379,, takeoff
61.083324,-87.07943,-85.885986,3.036933,0.200954,3.036933,0.200954,-89.999855,-90.0,3.383913,26.81502,9.895242,296.20636,290.352325,-0.011668,-0.0368,22.282038,-0.002852,0.060549,0.081928,0.0,1.0,2445.124268,, takeoff
61.950638,-87.037361,-85.843918,3.042369,0.202036,3.042369,0.202036,-89.999855,-90.0,3.433752,27.503271,10.032944,296.17514,290.042175,-0.008961,-0.036257,22.404318,-0.002871,0.060739,0.083041,0.0,1.0,2451.60791,, takeoff
62.528187,-87.008347,-85.814903,3.045957,0.202698,3.045957,0.202698,-89.999855,-90.0,3.467384,27.963783,10.13561,296.154846,289.81311,-0.006741,-0.035868,16.344616,-0.002886,0.060847,0.084602,0.0,1.0,2455.954834,, takeoff
63.393459,-86.96357,-85.770119,3.051643,0.203226,3.051643,0.203226,-89.999855,-90.0,3.518484,28.656971,10.293744,296.125031,289.441711,-0.002828,-0.03527,19.205496,-0.002896,0.060919,0.085617,0.0,1.0,2462.499512,, takeoff
63.96944,-86.932938,-85.739494,3.059078,0.207558,3.059078,0.207558,-89.999855,-90.0,3.553655,29.120655,10.989525,296.104645,289.179016,1.26E-4,-0.034905,19.198973,-0.002903,0.061033,0.087108,0.0,1.0,2466.874023,, takeoff
64.831711,-86.885506,-85.692062,3.066812,0.208505,3.066812,0.208505,-89.999855,-90.0,3.608907,29.818419,11.123878,296.072906,288.767944,0.004788,-0.03476,19.959888,-0.002965,0.061182,0.088127,0.0,1.0,2473.447266,, fly_strait
65.406998,-86.852928,-85.659485,3.070222,0.214462,3.070222,0.214462,-89.999855,-90.0,3.646184,30.285042,11.231467,296.033234,288.485901,0.006099,-0.038596,20.406368,-0.002979,0.061336,0.0,0.0,1.0,2477.836182,, fly_strait
66.282433,-86.802811,-85.609367,3.071137,0.22401,3.071137,0.22401,-89.999855,-90.0,3.702747,30.987137,11.379553,295.666748,288.055359,-0.007697,-0.093422,20.998072,-0.003064,0.061404,0.001984,0.0,1.0,2484.454102,, fly_strait
66.874069,-86.768661,-85.575218,3.069278,0.213832,3.069278,0.213832,-89.999855,-90.0,3.740867,31.456656,11.482855,295.231293,287.763977,-0.031835,-0.15533,21.348717,-0.0032,0.061423,0.020308,0.0,1.0,2488.908203,, fly_strait
67.765709,-86.715912,-85.522469,3.078007,0.181266,3.078007,0.181266,-89.999855,-90.0,3.803726,32.163189,12.881718,294.45459,287.318359,-0.088681,-0.255112,22.282249,-0.003055,0.061386,0.042081,0.0,1.0,2495.657715,, fly_strait
68.362305,-86.679344,-85.485901,3.07745,0.154287,3.07745,0.154287,-89.999855,-90.0,3.846901,32.635777,13.012285,293.950348,287.01358,-0.130635,-0.310649,22.948156,-0.00259,0.06156,0.080916,0.0,1.0,2500.196289,, fly_strait
69.255409,-86.622604,-85.429153,3.075867,0.098095,3.075867,0.098095,-89.999855,-90.0,3.913604,33.347061,13.985782,293.411713,286.542664,-0.186799,-0.348655,23.890804,-0.002204,0.061549,0.106128,0.0,1.0,2507.049561,, fly_strait
69.848839,-86.583229,-85.389786,3.050697,0.010036,3.050697,0.010036,-89.999855,-90.0,3.962142,33.822731,15.070083,293.268036,286.219971,-0.213166,-0.33776,17.415525,-0.001401,0.061517,0.13306,0.0,1.0,2511.633545,, fly_strait
70.745293,-86.521065,-85.327621,2.968163,-0.190144,2.968163,-0.190144,-89.999855,-90.0,4.039135,34.538387,15.391076,293.448151,285.729004,-0.223353,-0.26268,18.368206,-1.43E-4,0.061014,0.140244,0.0,1.0,2518.540771,, fly_strait
71.337273,-86.477791,-85.284348,2.923029,-0.295358,2.923029,-0.295358,-89.999855,-90.0,4.08952,35.01696,14.743429,293.803833,285.404053,-0.206119,-0.181419,23.064373,0.002716,0.059363,0.131238,0.0,1.0,2523.16333,, fly_strait
72.193939,-86.411552,-85.218102,2.927496,-0.323698,2.927496,-0.323698,-89.999855,-90.0,4.160657,35.736759,13.882513,294.522583,284.934875,-0.146837,-0.043909,18.899309,0.004219,0.058461,0.113454,0.0,1.0,2530.041992,, fly_strait
72.745003,-86.367073,-85.17363,2.952758,-0.273376,2.952758,-0.273376,-89.999855,-90.0,4.208891,36.217667,15.525931,295.006683,284.642548,-0.093038,0.037911,20.343552,0.004624,0.05855,0.077516,0.0,1.0,2534.546631,, fly_strait
73.56382,-86.297981,-85.104538,2.875374,-0.025709,2.875374,-0.025709,-89.999855,-90.0,4.295836,36.940151,18.559637,295.507721,284.246857,-0.009841,0.113011,20.208767,0.003905,0.059055,0.053311,0.0,1.0,2541.181152,, fly_strait
74.118912,-86.249123,-85.055672,2.757106,0.218893,2.757106,0.218893,-89.999855,-90.0,4.356965,37.422405,17.782461,295.612427,284.017059,0.037251,0.122225,21.249926,3.67E-4,0.057507,0.028259,0.0,1.0,2545.569092,, fly_strait
74.972763,-86.173279,-84.979836,2.660877,0.527174,2.660877,0.527174,-89.999855,-90.0,4.440631,38.147255,16.140148,295.375061,283.728027,0.084232,0.071216,21.501434,-0.003127,0.055142,0.023024,0.0,1.0,2552.181885,, fly_strait
75.554344,-86.122169,-84.928726,2.637632,0.586498,2.637632,0.586498,-79.999855,-80.0,4.495844,38.632969,17.351065,295.003082,283.571442,0.095346,0.004984,24.409863,-0.007531,0.053218,0.034892,0.0,1.0,2556.642578,, fly_strait
76.430626,-86.04287,-84.849426,2.655408,0.32677,2.655408,0.32677,-79.999855,-80.0,4.599354,39.36282,25.159969,294.3302,283.384491,0.084954,-0.106526,22.391476,-0.008379,0.052753,0.053491,0.0,1.0,2563.424316,, fly_strait
77.009453,-85.984177,-84.790733,2.705009,-0.059637,2.705009,-0.059637,-79.999855,-80.0,4.699344,39.850311,35.064018,293.931671,283.287537,0.066343,-0.167702,19.28451,-0.004668,0.053108,0.087135,0.0,1.0,2567.98877,, fly_strait
77.860847,-85.875351,-84.681908,2.822798,-0.804895,2.822798,-0.804895,-79.999855,-80.0,4.927245,40.582813,56.765251,293.621338,283.177399,0.034414,-0.20566,25.717457,8.52E-4,0.0541,0.107062,0.0,1.0,2574.861084,, fly_strait
78.409805,-85.779648,-84.586205,2.93586,-1.283011,2.93586,-1.283011,-79.999855,-80.0,5.147758,41.071732,75.325356,293.651825,283.125549,0.020464,-0.189865,32.479053,0.011498,0.056456,0.122578,0.0,1.0,2579.431396,, fly_strait
79.187706,-85.583221,-84.389778,3.140193,-1.714507,3.140193,-1.714507,-79.999855,-80.0,5.606164,41.805252,107.866447,294.011871,283.079559,0.018471,-0.113902,46.561726,0.018329,0.058717,0.121054,0.0,1.0,2586.194824, set /instrumentation/vertical-speed-indicator/serviceable false, fly_strait
79.665451,-85.40612,-84.212677,3.303982,-1.74522,3.303982,-1.74522,-79.999855,-80.0,6.00698,42.293789,132.039047,294.369751,283.070465,0.031786,-0.045932,52.271484,0.024493,0.062804,0.103052,0.0,1.0,2590.489502, set /instrumentation/vertical-speed-indicator/serviceable false, fly_strait
80.32238,-85.053284,-83.85984,3.523517,-1.381384,3.523517,-1.381384,-79.999855,-80.0,6.764853,43.024719,169.960785,294.850677,283.088806,0.067438,0.042491,52.271484,0.024932,0.06608,0.085158,0.0,1.0,2595.708008, set /instrumentation/vertical-speed-indicator/serviceable false, fly_strait
80.731461,-84.750862,-83.557419,3.649411,-0.955676,3.649411,-0.955676,-79.999855,-80.0,7.373758,43.510109,194.278763,295.027222,283.120544,0.093682,0.074922,52.271484,0.019734,0.07047,0.061111,0.0,1.0,2598.538574, set /instrumentation/vertical-speed-indicator/serviceable false, fly_strait
81.328423,-84.185753,-82.99231,3.766153,-0.286014,3.766153,-0.286014,-79.999855,-80.0,8.432011,44.23447,227.325012,294.963593,283.190918,0.124517,0.066426,52.271484,0.013653,0.072988,0.052284,0.0,1.0,2602.133545, set /instrumentation/vertical-speed-indicator/serviceable false, fly_strait
81.722275,-83.731667,-82.538223,3.827735,0.05523,3.827735,0.05523,-79.999855,-80.0,9.223499,44.714607,246.479004,294.720947,283.247711,0.131808,0.027907,52.271484,0.004086,0.075323,0.055466,0.0,1.0,2604.232178, set /instrumentation/vertical-speed-indicator/serviceable false, fly_strait
82.305252,-82.934448,-81.741005,3.915673,0.221778,3.915673,0.221778,-79.999855,-80.0,10.522011,45.430405,271.617584,294.212158,283.336853,0.121142,-0.051957,52.271484,-7.89E-4,0.076555,0.067598,0.0,1.0,2607.086914, set /instrumentation/vertical-speed-indicator/serviceable false, fly_strait
82.686287,-82.32756,-81.134117,3.984531,0.109935,3.984531,0.109935,-79.999855,-80.0,11.454191,45.90461,287.016693,293.891113,283.392792,0.103036,-0.09988,52.271484,-0.003168,0.078313,0.093037,0.0,1.0,2608.851074, set /instrumentation/vertical-speed-indicator/serviceable false, fly_strait
83.241219,-81.308685,-80.115242,4.088722,-0.285722,4.088722,-0.285722,-79.999855,-80.0,12.946936,46.611233,309.273224,293.641388,283.463287,0.071055,-0.130502,52.271484,-0.00157,0.079691,0.10909,0.0,1.0,2611.346924, set /instrumentation/vertical-speed-indicator/serviceable false, fly_strait
83.595284,-80.559647,-79.366203,4.169804,-0.575048,4.169804,-0.575048,-79.999855,-80.0,14.003544,47.078968,324.50354,293.679596,283.49884,0.056255,-0.116519,52.271484,0.004082,0.081774,0.121576,0.0,1.0,2612.928711, set /instrumentation/vertical-speed-indicator/serviceable false, fly_strait
84.09095,-79.333771,-78.14032,4.309465,-0.815923,4.309465,-0.815923,-79.999855,-80.0,15.69532,47.774929,352.335602,294.012726,283.534515,0.052167,-0.051055,52.271484,0.008215,0.083396,0.119666,0.0,1.0,2615.188477, set /instrumentation/vertical-speed-indicator/serviceable false, fly_strait
84.388916,-78.446899,-77.253456,4.433003,-0.780778,4.433003,-0.780778,-79.999855,-80.0,16.90699,48.234669,374.352112,294.335388,283.547729,0.063556,0.006683,52.271484,0.011656,0.086189,0.103009,0.0,1.0,2616.616943, set /instrumentation/vertical-speed-indicator/serviceable false, fly_strait
84.790077,-77.005737,-75.812294,4.616843,-0.4163,4.616843,-0.4163,-79.999855,-80.0,18.868206,48.917038,408.330444,294.754791,283.553497,0.095315,0.078108,52.271484,0.011154,0.08866,0.086876,0.0,1.0,2618.633789, set /instrumentation/vertical-speed-indicator/serviceable false, fly_strait
85.039345,-75.967613,-74.77417,4.718015,-0.046025,4.718015,-0.046025,-79.999855,-80.0,20.263966,49.366703,427.96344,294.898438,283.548035,0.118207,0.10071,52.271484,0.005947,0.092337,0.065906,0.0,1.0,2619.899902, set /instrumentation/vertical-speed-indicator/serviceable false, fly_strait
85.413048,-74.294388,-73.100945,4.780552,0.479468,4.780552,0.479468,-69.999855,-70.0,22.466902,50.032974,451.569,294.824738,283.523743,0.143081,0.084205,52.271484,6.58E-4,0.09436,0.058723,0.0,1.0,2621.709961, set /instrumentation/vertical-speed-indicator/serviceable false, fly_strait
85.797424,-72.48745,-71.294006,4.813212,0.755356,4.813212,0.755356,-69.999855,-70.0,24.773186,50.689419,469.737366,294.480743,283.476074,0.144095,0.023648,52.271484,-0.00685,0.095611,0.062408,0.0,1.0,2623.456055, set /instrumentation/vertical-speed-indicator/serviceable false, fly_strait
86.056572,-71.214432,-70.020988,4.847718,0.733252,4.847718,0.733252,-69.999855,-70.0,26.357401,51.121758,480.311768,294.203491,283.428467,0.131475,-0.023132,52.271484,-0.010791,0.096264,0.079608,0.0,1.0,2624.598877, set /instrumentation/vertical-speed-indicator/serviceable false, fly_strait
86.442245,-69.211166,-68.017723,4.915783,0.424144,4.915783,0.424144,-69.999855,-70.0,28.799856,51.762539,496.368256,293.916412,283.32962,0.101825,-0.0694,52.271484,-0.010475,0.096954,0.093471,0.0,1.0,2626.287598, set /instrumentation/vertical-speed-indicator/serviceable false, fly_strait
86.692902,-67.817154,-66.623711,4.972387,0.135915,4.972387,0.135915,-69.999855,-70.0,30.474476,52.184601,508.147278,293.881683,283.244659,0.083945,-0.073199,52.271484,-0.006059,0.098316,0.107825,0.0,1.0,2627.39502, set /instrumentation/vertical-speed-indicator/serviceable false, fly_strait
87.048264,-65.642273,-64.44883,5.066102,-0.201704,5.066102,-0.201704,-69.999855,-70.0,33.064697,52.809795,527.703613,294.092499,283.090576,0.070396,-0.034978,52.271484,-0.001942,0.099448,0.109561,0.0,1.0,2629.018799, set /instrumentation/vertical-speed-indicator/serviceable false, fly_strait
87.264763,-64.137154,-62.943707,5.144633,-0.280499,5.144633,-0.280499,-59.999859,-60.0,34.848137,53.221111,542.025818,294.354858,282.9729,0.074602,0.009254,52.271484,0.002881,0.101322,0.09902,0.0,1.0,2630.066406, set /instrumentation/vertical-speed-indicator/serviceable false, fly_strait
87.558998,-61.795773,-60.602329,5.257541,-0.107563,5.257541,-0.107563,-59.999859,-60.0,37.617722,53.829391,565.424194,294.751007,282.779755,0.097091,0.073095,52.271484,0.004007,0.102893,0.085902,0.0,1.0,2631.568604, set /instrumentation/vertical-speed-indicator/serviceable false, fly_strait
87.7416,-60.17762,-58.984177,5.329248,0.146159,5.329248,0.146159,-59.999859,-60.0,39.530632,54.228882,581.78186,294.92453,282.642761,0.116248,0.098584,52.271484,0.001537,0.105151,0.066095,0.0,1.0,2632.522461, set /instrumentation/vertical-speed-indicator/serviceable false, fly_strait
88.012733,-57.661697,-56.46825,5.406532,0.559715,5.406532,0.559715,-59.999859,-60.0,42.501472,54.818848,605.419312,294.937622,282.427673,0.139692,0.093633,52.271484,-0.002088,0.106585,0.057419,0.0,1.0,2633.897217, set /instrumentation/vertical-speed-indicator/serviceable false, fly_strait
88.197235,-55.924438,-54.730995,5.451904,0.755358,5.451904,0.755358,-59.999859,-60.0,44.544312,55.206028,619.585815,294.790924,282.278046,0.144438,0.064721,52.271484,-0.007996,0.108131,0.056764,0.0,1.0,2634.790771, set /instrumentation/vertical-speed-indicator/serviceable false, fly_strait
88.47979,-53.22958,-52.036137,5.511161,0.783989,5.511161,0.783989,-49.999859,-50.0,47.693012,55.777878,638.941345,294.457428,282.042694,0.133367,0.00397,52.271484,-0.010791,0.109038,0.064099,0.0,1.0,2636.115234, set /instrumentation/vertical-speed-indicator/serviceable false, fly_strait
88.669189,-51.375225,-50.181778,5.556224,0.634826,5.556224,0.634826,-49.999859,-50.0,49.84367,56.153358,650.957275,294.251953,281.877502,0.11682,-0.031898,52.271484,-0.0112,0.110223,0.080774,0.0,1.0,2636.992676, set /instrumentation/vertical-speed-indicator/serviceable false, fly_strait
88.948524,-48.510231,-47.316784,5.626894,0.260817,5.626894,0.260817,-49.999859,-50.0,53.144539,56.708168,668.902832,294.126373,281.61673,0.088872,-0.05293,52.271484,-0.009069,0.111124,0.091048,0.0,1.0,2638.300537, set /instrumentation/vertical-speed-indicator/serviceable false, fly_strait
89.126083,-46.546143,-45.352699,5.685953,0.012052,5.685953,0.012052,-49.999859,-50.0,55.395565,57.072441,681.364685,294.196503,281.435425,0.076579,-0.040894,52.271484,-0.003726,0.112538,0.097327,0.0,1.0,2639.161621, set /instrumentation/vertical-speed-indicator/serviceable false, fly_strait
89.369118,-43.520218,-42.326775,5.783185,-0.177178,5.783185,-0.177178,-39.999859,-40.0,58.853477,57.610249,701.481689,294.484955,281.156555,0.074053,0.007197,52.271484,-1.72E-4,0.113719,0.09382,0.0,1.0,2640.421387, set /instrumentation/vertical-speed-indicator/serviceable false, fly_strait
89.512405,-41.449589,-40.256145,5.858021,-0.145752,5.858021,-0.145752,-39.999859,-40.0,61.216496,57.962841,715.950439,294.725494,280.969391,0.083651,0.045755,52.271484,0.002531,0.115664,0.079398,0.0,1.0,2641.229248, set /instrumentation/vertical-speed-indicator/serviceable false, fly_strait
89.706993,-38.261997,-37.068554,5.952909,0.118053,5.952909,0.118053,-39.999859,-40.0,64.854271,58.482464,738.467896,294.988251,280.692017,0.107589,0.084858,52.271484,0.002082,0.11716,0.067371,0.0,1.0,2642.383057, set /instrumentation/vertical-speed-indicator/serviceable false, fly_strait
89.831367,-36.081326,-34.887882,6.008839,0.356134,6.008839,0.356134,-39.999859,-40.0,67.341171,58.82259,753.05249,295.037903,280.511475,0.122127,0.088981,52.271484,-0.001686,0.119058,0.054233,0.0,1.0,2643.11792, set /instrumentation/vertical-speed-indicator/serviceable false, fly_strait
90.021927,-32.72599,-31.532547,6.068112,0.626024,6.068112,0.626024,-29.999857,-30.0,71.159126,59.323395,773.003113,294.899017,280.248383,0.132734,0.059111,52.271484,-0.005088,0.120177,0.05175,0.0,1.0,2644.186035, set /instrumentation/vertical-speed-indicator/serviceable false, fly_strait
90.153526,-30.433496,-29.240053,6.105034,0.68175,6.105034,0.68175,-29.999857,-30.0,73.756134,59.651173,784.585876,294.710876,280.077667,0.128403,0.024328,52.271484,-0.008943,0.121362,0.058694,0.0,1.0,2644.886475, set /instrumentation/vertical-speed-indicator/serviceable false, fly_strait
90.355133,-26.914499,-25.721054,6.155197,0.527704,6.155197,0.527704,-29.999857,-30.0,77.719978,60.134068,800.182983,294.436188,279.826935,0.108232,-0.024479,52.271484,-0.009739,0.122101,0.068102,0.0,1.0,2645.931152, set /instrumentation/vertical-speed-indicator/serviceable false, fly_strait
90.489609,-24.517441,-23.323996,6.193708,0.317677,6.193708,0.317677,-19.999857,-20.0,80.404152,60.450329,809.92511,294.334229,279.66275,0.091581,-0.042086,52.271484,-0.007539,0.123104,0.081836,0.0,1.0,2646.624512, set /instrumentation/vertical-speed-indicator/serviceable false, fly_strait
90.683487,-20.849413,-19.655968,6.256949,-0.00657,6.256949,-0.00657,-19.999857,-20.0,84.491432,60.916332,824.631348,294.384705,279.421661,0.072079,-0.033249,52.271484,-0.004538,0.123874,0.086934,0.0,1.0,2647.655762, set /instrumentation/vertical-speed-indicator/serviceable false, fly_strait
90.80159,-18.357626,-17.164183,6.310727,-0.146954,6.310727,-0.146954,-19.999857,-20.0,87.257973,61.221363,835.025574,294.53952,279.265961,0.068766,-0.007581,52.271484,9.4E-5,0.125139,0.08441,0.0,1.0,2648.32959, set /instrumentation/vertical-speed-indicator/serviceable false, fly_strait
90.956749,-14.551964,-13.35852,6.392262,-0.135641,6.392262,-0.135641,-9.999858,-10.0,91.47583,61.670212,851.797791,294.840057,279.044037,0.078948,0.040934,52.271484,0.002099,0.126215,0.076669,0.0,1.0,2649.303467, set /instrumentation/vertical-speed-indicator/serviceable false, fly_strait
91.047646,-11.969661,-10.776217,6.447559,0.00134,6.447559,0.00134,-9.999858,-10.0,94.335243,61.963497,863.476746,295.008698,278.906067,0.092393,0.066574,52.271484,0.001938,0.127845,0.061642,0.0,1.0,2649.920898, set /instrumentation/vertical-speed-indicator/serviceable false, fly_strait
91.17749,-8.027986,-6.834541,6.507183,0.297581,6.507183,0.297581,-9.999858,-10.0,98.697212,62.394367,880.518066,295.093536,278.716675,0.113069,0.07533,52.271484,-1.9E-5,0.128951,0.05321,0.0,1.0,2650.782959, set /instrumentation/vertical-speed-indicator/serviceable false, fly_strait
91.265572,-5.35477,-4.161325,6.539437,0.470218,6.539437,0.470218,-9.999858,-10.0,101.650131,62.675625,890.696716,295.023926,278.602325,0.120111,0.060056,52.271484,-0.004251,0.130144,0.048969,0.0,1.0,2651.324951, set /instrumentation/vertical-speed-indicator/serviceable false, fly_strait
91.362305,-1.278551,-0.085107,6.57415,0.551675,6.57415,0.551675,1.42E-4,0.0,106.137962,63.088825,903.503723,294.793793,278.447083,0.116101,0.016938,52.271484,-0.006717,0.130789,0.052449,0.0,1.0,2652.081299, set /instrumentation/vertical-speed-indicator/serviceable false, fly_strait
91.430901,1.612576,2.80602,6.59664,0.472376,6.59664,0.472376,1.42E-4,0.0,109.162003,63.358746,910.526672,294.626801,278.352966,0.104363,-0.012773,52.271484,-0.007881,0.131483,0.063956,0.0,1.0,2652.551758, set /instrumentation/vertical-speed-indicator/serviceable false, fly_strait
91.537346,6.016728,7.210173,6.628144,0.203547,6.628144,0.203547,10.000142,10.0,113.739243,63.755676,919.920349,294.493622,278.223694,0.081234,-0.035981,52.271484,-0.006748,0.131933,0.072305,0.0,1.0,2653.227295, set /instrumentation/vertical-speed-indicator/serviceable false, fly_strait
91.60659,8.990583,10.184028,6.655131,0.001142,6.655131,0.001142,10.000142,10.0,116.816048,64.015114,925.959045,294.521118,278.14505,0.069309,-0.031573,52.271484,-0.002908,0.132563,0.078964,0.0,1.0,2653.661865, set /instrumentation/vertical-speed-indicator/serviceable false, fly_strait
91.699242,13.503652,14.697096,6.703678,-0.184599,6.703678,-0.184599,10.000142,10.0,121.470253,64.396507,935.588562,294.721497,278.039612,0.063425,0.001462,52.271484,-1.6E-5,0.133103,0.077589,0.0,1.0,2654.287598, set /instrumentation/vertical-speed-indicator/serviceable false, fly_strait
91.750168,16.545546,17.738989,6.743433,-0.191382,6.743433,-0.191382,20.000143,20.0,124.600929,64.645523,942.653442,294.908112,277.979065,0.069218,0.031214,52.271484,0.002637,0.134074,0.06757,0.0,1.0,2654.681641, set /instrumentation/vertical-speed-indicator/serviceable false, fly_strait
91.813446,21.156809,22.350252,6.794218,-0.020709,6.794218,-0.020709,20.000143,20.0,129.342911,65.010986,953.807739,295.130402,277.905212,0.087259,0.06444,52.271484,0.002734,0.134869,0.05824,0.0,1.0,2655.232178, set /instrumentation/vertical-speed-indicator/serviceable false, fly_strait
91.852615,24.262972,25.456417,6.82197,0.152938,6.82197,0.152938,20.000143,20.0,132.534775,65.249237,960.987488,295.186432,277.86795,0.09927,0.070343,52.271484,2.96E-4,0.135884,0.047125,0.0,1.0,2655.574463, set /instrumentation/vertical-speed-indicator/serviceable false, fly_strait
91.916824,28.969358,30.162804,6.844363,0.362353,6.844363,0.362353,30.000143,30.0,137.364716,65.59864,970.310486,295.098724,277.829285,0.109152,0.050036,52.271484,-0.002185,0.136439,0.044324,0.0,1.0,2656.064697, set /instrumentation/vertical-speed-indicator/serviceable false, fly_strait
91.965805,32.137196,33.330639,6.854297,0.410252,6.854297,0.410252,30.000143,30.0,140.607758,65.826462,975.186035,294.958221,277.813599,0.106458,0.02358,52.271484,-0.005176,0.136887,0.048709,0.0,1.0,2656.385254, set /instrumentation/vertical-speed-indicator/serviceable false, fly_strait
92.047607,36.93082,38.124268,6.865701,0.294437,6.865701,0.294437,40.000141,40.0,145.499359,66.160912,981.036682,294.742065,277.801788,0.090702,-0.015393,52.271484,-0.005861,0.137086,0.055734,0.0,1.0,2656.868164, set /instrumentation/vertical-speed-indicator/serviceable false, fly_strait
92.105423,40.152042,41.345486,6.876078,0.128892,6.876078,0.128892,40.000141,40.0,148.775391,66.379227,984.434631,294.656921,277.799988,0.077018,-0.030407,52.271484,-0.004206,0.137314,0.066542,0.0,1.0,2657.194092, set /instrumentation/vertical-speed-indicator/serviceable false, fly_strait
92.190292,45.017101,46.210545,6.899302,-0.133453,6.899302,-0.133453,40.000141,40.0,153.710968,66.699944,989.748047,294.688446,277.804718,0.060364,-0.025221,52.271484,-0.001841,0.137522,0.070799,0.0,1.0,2657.686523, set /instrumentation/vertical-speed-indicator/serviceable false, fly_strait
92.240845,48.282452,49.475899,6.923301,-0.251644,6.923301,-0.251644,50.000141,50.0,157.01712,66.909248,993.894714,294.806305,277.812744,0.057054,-0.005875,52.271484,0.001906,0.137986,0.069223,0.0,1.0,2658.011475, set /instrumentation/vertical-speed-indicator/serviceable false, fly_strait
92.302773,53.210712,54.404156,6.963395,-0.254135,6.963395,-0.254135,50.000141,50.0,162.00502,67.216354,1001.238037,295.039703,277.833221,0.064551,0.031612,52.271484,0.003595,0.138466,0.06333,0.0,1.0,2658.481201, set /instrumentation/vertical-speed-indicator/serviceable false, fly_strait
92.335976,56.51638,57.709824,6.990676,-0.153364,6.990676,-0.153364,60.000141,60.0,165.351776,67.416435,1006.661316,295.171051,277.853149,0.075135,0.051492,52.271484,0.003631,0.139268,0.05166,0.0,1.0,2658.777344, set /instrumentation/vertical-speed-indicator/serviceable false, fly_strait
92.382339,61.505833,62.699276,7.016523,0.070299,7.016523,0.070299,60.000141,60.0,170.40593,67.709534,1014.593689,295.234772,277.892639,0.091533,0.05784,52.271484,0.002191,0.139814,0.045093,0.0,1.0,2659.196289, set /instrumentation/vertical-speed-indicator/serviceable false, fly_strait
92.416008,64.852997,66.04644,7.027037,0.199251,7.027037,0.199251,60.000141,60.0,173.795883,67.90033,1019.094299,295.177216,277.924591,0.096958,0.045384,52.271484,-0.001004,0.14033,0.041907,0.0,1.0,2659.464844, set /instrumentation/vertical-speed-indicator/serviceable false, fly_strait
92.474579,69.904175,71.097618,7.033581,0.252869,7.033581,0.252869,70.000145,70.0,178.905716,68.179901,1024.369507,294.992737,277.978088,0.093505,0.011003,52.271484,-0.002846,0.140541,0.044785,0.0,1.0,2659.864258, set /instrumentation/vertical-speed-indicator/serviceable false, fly_strait
92.518616,73.290703,74.484146,7.037332,0.185514,7.037332,0.185514,70.000145,70.0,182.324997,68.362091,1027.023682,294.859772,278.015472,0.084082,-0.012475,52.271484,-0.003612,0.140672,0.054008,0.0,1.0,2660.133545, set /instrumentation/vertical-speed-indicator/serviceable false, fly_strait
92.588524,78.396255,79.589706,7.046836,-0.027564,7.046836,-0.027564,80.000145,80.0,187.469299,68.629379,1030.57373,294.753906,278.071106,0.065742,-0.030542,52.271484,-0.00265,0.140747,0.060657,0.0,1.0,2660.54541, set /instrumentation/vertical-speed-indicator/serviceable false, fly_strait
92.634148,81.815567,83.009018,7.059129,-0.183715,7.059129,-0.183715,80.000145,80.0,190.90889,68.80368,1033.13501,294.774536,278.106903,0.056504,-0.02692,52.271484,3.94E-4,0.140937,0.06595,0.0,1.0,2660.823486, set /instrumentation/vertical-speed-indicator/serviceable false, fly_strait
92.694084,86.966164,88.159607,7.086424,-0.319873,7.086424,-0.319873,90.000145,90.0,196.086166,69.059296,1037.83374,294.927765,278.158417,0.052422,-0.001092,52.271484,0.002625,0.141183,0.064919,0.0,1.0,2661.237061, set /instrumentation/vertical-speed-indicator/serviceable false, fly_strait
92.725792,90.413971,91.607414,7.110126,-0.317101,7.110126,-0.317101,90.000145,90.0,199.552109,69.225761,1041.688843,295.068237,278.191864,0.057447,0.021708,52.271484,0.00457,0.141728,0.057257,0.0,1.0,2661.503662, set /instrumentation/vertical-speed-indicator/serviceable false, fly_strait
92.763412,95.607361,96.800804,7.13979,-0.173731,7.13979,-0.173731,100.000145,100.0,204.776947,69.469429,1048.087646,295.228485,278.24173,0.072153,0.046174,52.271484,0.00453,0.142203,0.050233,0.0,1.0,2661.881836, set /instrumentation/vertical-speed-indicator/serviceable false, fly_strait
92.786102,99.084686,100.27813,7.154815,-0.034929,7.154815,-0.034929,100.000145,100.0,208.277817,69.627831,1052.240967,295.260834,278.274933,0.081624,0.049453,52.271484,0.002482,0.142796,0.042221,0.0,1.0,2662.119873, set /instrumentation/vertical-speed-indicator/serviceable false, fly_strait
92.823997,104.323891,105.517342,7.164033,0.125558,7.164033,0.125558,100.000145,100.0,213.553223,69.859497,1057.490234,295.17688,278.3237,0.088936,0.031977,52.271484,4.99E-4,0.143096,0.040604,0.0,1.0,2662.464355, set /instrumentation/vertical-speed-indicator/serviceable false, fly_strait
92.853973,107.831909,109.025352,7.166321,0.157799,7.166321,0.157799,110.000145,110.0,217.082809,70.010139,1060.057739,295.060883,278.354248,0.086374,0.010961,52.271484,-0.001794,0.143281,0.044801,0.0,1.0,2662.691895, set /instrumentation/vertical-speed-indicator/serviceable false, fly_strait
92.905304,113.113983,114.307426,7.168671,0.060725,7.168671,0.060725,110.000145,110.0,222.3909,70.230713,1062.944702,294.892487,278.394562,0.073567,-0.018363,52.271484,-0.002254,0.143326,0.050601,0.0,1.0,2663.03833, set /instrumentation/vertical-speed-indicator/serviceable false, fly_strait
92.942039,116.649071,117.842514,7.172865,-0.068198,7.172865,-0.068198,120.000145,120.0,225.936951,70.374329,1064.621094,294.831848,278.416504,0.063023,-0.028463,52.271484,-8.68E-4,0.143373,0.059021,0.0,1.0,2663.27417, set /instrumentation/vertical-speed-indicator/serviceable false, fly_strait
92.995232,121.968689,123.162132,7.186588,-0.260953,7.186588,-0.260953,120.000145,120.0,231.267151,70.58474,1067.493652,294.867706,278.441254,0.05105,-0.021677,52.271484,9.74E-4,0.143457,0.062053,0.0,1.0,2663.632813, set /instrumentation/vertical-speed-indicator/serviceable false, fly_strait
93.025688,125.525673,126.719116,7.202367,-0.338496,7.202367,-0.338496,130.000137,130.0,234.82959,70.72168,1069.960571,294.964508,278.452637,0.049555,-0.005293,52.271484,0.003728,0.143732,0.06026,0.0,1.0,2663.870117, set /instrumentation/vertical-speed-indicator/serviceable false, fly_strait
93.06073,130.87677,132.070221,7.229189,-0.315522,7.229189,-0.315522,130.000137,130.0,240.190872,70.921997,1074.561157,295.14325,278.463623,0.057063,0.024017,52.271484,0.004836,0.144047,0.05542,0.0,1.0,2664.213379, set /instrumentation/vertical-speed-indicator/serviceable false, fly_strait
93.078293,134.455002,135.648453,7.246787,-0.223349,7.246787,-0.223349,130.000137,130.0,243.778671,71.052078,1078.022217,295.23584,278.467804,0.065989,0.038294,52.271484,0.004507,0.144584,0.046483,0.0,1.0,2664.430176, set /instrumentation/vertical-speed-indicator/serviceable true, fly_strait
93.102554,139.839676,141.033112,7.261429,-0.042047,7.261429,-0.042047,140.000137,140.0,249.1819,71.242004,1082.976807,295.264374,278.470306,0.078808,0.040379,5212.591797,0.003191,0.144936,0.041853,0.0,1.0,2664.737793, set /instrumentation/vertical-speed-indicator/serviceable true, fly_strait
93.121086,143.44017,144.633621,7.265823,0.054129,7.265823,0.054129,140.000137,140.0,252.79657,71.365227,1085.631836,295.206024,278.46936,0.082437,0.028931,5042.69043,6.01E-4,0.145229,0.040427,0.0,1.0,2664.936035, set /instrumentation/vertical-speed-indicator/serviceable true, fly_strait
93.155251,148.859253,150.052704,7.266227,0.080317,7.266227,0.080317,150.000137,150.0,258.232697,71.545219,1088.506348,295.052429,278.462738,0.078487,0.001342,4790.997559,-7.73E-4,0.145316,0.043344,0.0,1.0,2665.232422, set /instrumentation/vertical-speed-indicator/serviceable true, fly_strait
93.182228,152.483704,153.677139,7.26616,0.017503,7.26616,0.017503,150.000137,150.0,261.863403,71.662148,1089.820313,294.951416,278.453979,0.070607,-0.015969,4625.450195,-0.001147,0.145325,0.051024,0.0,1.0,2665.433594, set /instrumentation/vertical-speed-indicator/serviceable true, fly_strait
93.225616,157.934448,159.127899,7.270511,-0.153018,7.270511,-0.153018,160.000137,160.0,267.316986,71.833183,1091.571167,294.884033,278.43335,0.056485,-0.026774,4380.729004,-2.5E-4,0.145323,0.056075,0.0,1.0,2665.74292, set /instrumentation/vertical-speed-indicator/serviceable true, fly_strait
93.253349,161.57666,162.770111,7.278542,-0.267812,7.278542,-0.267812,160.000137,160.0,270.957916,71.944359,1092.982544,294.912872,278.414612,0.050173,-0.021444,4220.142578,0.002186,0.14541,0.059444,0.0,1.0,2665.952148, set /instrumentation/vertical-speed-indicator/serviceable true, fly_strait
93.287743,167.051559,168.24501,7.297671,-0.35063,7.297671,-0.35063,170.000137,170.0,276.42981,72.106857,1095.863037,295.044128,278.380402,0.048993,0.001055,3983.419678,0.003826,0.145571,0.058002,0.0,1.0,2666.262939, set /instrumentation/vertical-speed-indicator/serviceable true, fly_strait
93.304359,170.709183,171.902634,7.313865,-0.329883,7.313865,-0.329883,170.000137,170.0,280.086914,72.212296,1098.359741,295.152618,278.354706,0.054135,0.018851,3828.584961,0.005009,0.145953,0.051439,0.0,1.0,2666.463135, set /instrumentation/vertical-speed-indicator/serviceable true, fly_strait
93.32254,176.207932,177.401382,7.33245,-0.198709,7.33245,-0.198709,180.000137,180.0,285.589325,72.366005,1102.487427,295.26178,278.313812,0.066565,0.035551,3601.213867,0.004713,0.146277,0.046014,0.0,1.0,2666.747314, set /instrumentation/vertical-speed-indicator/serviceable true, fly_strait
93.333633,179.882538,181.075989,7.340563,-0.087313,7.340563,-0.087313,180.000137,180.0,289.268799,72.465523,1105.05603,295.270844,278.285767,0.073715,0.035654,3453.150391,0.002839,0.146649,0.040556,0.0,1.0,2666.927002, set /instrumentation/vertical-speed-indicator/serviceable true, fly_strait
93.354164,185.408112,186.601547,7.343139,0.025425,7.343139,0.025425,180.000137,180.0,294.802399,72.610481,1108.072998,295.18454,278.242615,0.07804,0.019036,3236.81665,0.001247,0.146811,0.040103,0.0,1.0,2667.188965, set /instrumentation/vertical-speed-indicator/serviceable true, fly_strait
93.371956,189.100662,190.294113,7.342007,0.035747,7.342007,0.035747,190.000137,190.0,298.498352,72.704391,1109.374878,295.087891,278.212769,0.074949,0.002002,3096.732178,-3.63E-4,0.146863,0.044418,0.0,1.0,2667.363525, set /instrumentation/vertical-speed-indicator/serviceable true, fly_strait
93.403885,194.651459,195.844894,7.340776,-0.05953,7.340776,-0.05953,190.000137,190.0,304.048798,72.841385,1110.676636,294.963501,278.165344,0.063902,-0.019096,2893.343018,-5.11E-4,0.14684,0.049251,0.0,1.0,2667.631592, set /instrumentation/vertical-speed-indicator/serviceable true, fly_strait
93.426842,198.358948,199.552399,7.342638,-0.165235,7.342638,-0.165235,200.000137,200.0,307.75238,72.93026,1111.439209,294.929291,278.131714,0.055831,-0.024461,2762.567627,8.5E-4,0.146816,0.05547,0.0,1.0,2667.814941, set /instrumentation/vertical-speed-indicator/serviceable true, fly_strait
93.458923,203.92923,205.122665,7.352534,-0.305115,7.352534,-0.305115,200.000137,200.0,313.313232,73.059975,1112.987793,294.978729,278.078674,0.047937,-0.015252,2574.225342,0.00236,0.146853,0.057181,0.0,1.0,2668.09375, set /instrumentation/vertical-speed-indicator/serviceable true, fly_strait
93.475922,207.6483,208.841751,7.364093,-0.349429,7.364093,-0.349429,210.000137,210.0,317.025757,73.144035,1114.530029,295.063354,278.042419,0.048158,-8.45E-4,2454.248047,0.004359,0.147051,0.054709,0.0,1.0,2668.278076, set /instrumentation/vertical-speed-indicator/serviceable true, fly_strait
93.493355,213.235428,214.428864,7.382375,-0.304699,7.382375,-0.304699,210.000137,210.0,322.605865,73.266426,1117.530884,295.200531,277.988739,0.055843,0.02168,2283.329834,0.004992,0.147282,0.050478,0.0,1.0,2668.544189, set /instrumentation/vertical-speed-indicator/serviceable true, fly_strait
93.501205,216.966278,218.159729,7.393254,-0.220246,7.393254,-0.220246,220.000137,220.0,326.334808,73.345512,1119.754761,295.261047,277.954437,0.063268,0.030908,2175.817139,0.004353,0.147648,0.043619,0.0,1.0,2668.712402, set /instrumentation/vertical-speed-indicator/serviceable true, fly_strait
93.51265,222.572617,223.766068,7.40026,-0.078113,7.40026,-0.078113,220.000137,220.0,331.941681,73.460388,1122.767944,295.258972,277.90625,0.072622,0.028636,2024.862671,0.003146,0.147865,0.040593,0.0,1.0,2668.953125, set /instrumentation/vertical-speed-indicator/serviceable true, fly_strait
93.52282,226.317123,227.510574,7.400743,-0.013703,7.400743,-0.013703,230.000137,230.0,335.68689,73.534538,1124.220215,295.199341,277.876282,0.074345,0.017567,1931.449463,0.001116,0.148005,0.040697,0.0,1.0,2669.109619, set /instrumentation/vertical-speed-indicator/serviceable true, fly_strait
93.543671,231.943817,233.137268,7.39787,-0.017771,7.39787,-0.017771,230.000137,230.0,341.311859,73.642334,1125.569214,295.07254,277.83374,0.069416,-0.004677,1802.633789,1.96E-4,0.148015,0.043678,0.0,1.0,2669.346191, set /instrumentation/vertical-speed-indicator/serviceable true, fly_strait
93.560783,235.700867,236.894318,7.396194,-0.081309,7.396194,-0.081309,240.000137,240.0,345.064697,73.712044,1126.078369,295.000122,277.806458,0.062595,-0.016823,1724.471924,2.54E-4,0.147957,0.050018,0.0,1.0,2669.507813, set /instrumentation/vertical-speed-indicator/serviceable true, fly_strait
93.588051,241.343887,242.537323,7.398547,-0.220843,7.398547,-0.220843,240.000137,240.0,350.696869,73.813522,1126.818481,294.968475,277.76651,0.051859,-0.021403,1618.919922,0.001162,0.147924,0.053639,0.0,1.0,2669.756836, set /instrumentation/vertical-speed-indicator/serviceable true, fly_strait
93.604668,245.110153,246.303589,7.404498,-0.303072,7.404498,-0.303072,240.000137,240.0,354.454224,73.879166,1127.605347,295.006256,277.740753,0.047968,-0.014579,1556.29895,0.003155,0.147971,0.055222,0.0,1.0,2669.925293, set /instrumentation/vertical-speed-indicator/serviceable true, turn_+45
93.621475,250.765457,251.958893,7.419741,-0.369319,7.419741,-0.369319,250.000137,250.0,360.09668,73.974541,1129.461304,295.174164,277.704559,0.038725,0.014328,1473.708862,0.001443,0.14809,0.1,0.0,1.0,2670.174072, set /instrumentation/vertical-speed-indicator/serviceable true, turn_+45
93.62014,254.539749,255.733185,7.438562,-0.353522,7.438562,-0.353522,250.000137,250.0,363.864532,74.035957,1131.303589,295.420288,277.68338,0.042166,0.053833,1425.933594,0.001759,0.148395,0.1,0.0,1.0,2670.328857, set /instrumentation/vertical-speed-indicator/serviceable true, turn_+45
93.592598,260.208496,261.401947,7.473927,-0.120836,7.473927,-0.120836,260.000153,260.0,369.531158,74.124481,1135.489014,295.872192,277.659943,0.065683,0.122536,1364.55603,0.001683,0.148771,0.1,0.0,1.0,2670.52417, set /instrumentation/vertical-speed-indicator/serviceable true, turn_+45
93.560181,263.993835,265.187286,7.495711,0.173549,7.495711,0.173549,260.000153,260.0,373.322174,74.180893,1139.081421,296.14801,277.652283,0.088529,0.16133,1330.045898,5.75E-4,0.149479,0.1,0.0,1.0,2670.621826, set /instrumentation/vertical-speed-indicator/serviceable true, turn_+45
93.503639,269.68396,270.87738,7.507509,0.738375,7.507509,0.738375,270.000153,270.0,379.031494,74.261345,1144.292114,296.431671,277.65564,0.123391,0.194523,1287.020752,-8.26E-4,0.149914,0.1,0.0,1.0,2670.72168, set /instrumentation/vertical-speed-indicator/serviceable true, turn_+45
93.468323,273.486603,274.680054,7.5062,1.136245,7.5062,1.136245,270.000153,270.0,382.850433,74.312195,1146.820557,296.517212,277.668427,0.14169,0.198124,1263.588867,-0.003516,0.15015,0.1,0.0,1.0,2670.766113, set /instrumentation/vertical-speed-indicator/serviceable true, turn_+45
93.426132,279.204712,280.398163,7.497211,1.648757,7.497211,1.648757,280.000153,280.0,388.590698,74.384483,1148.859985,296.519714,277.70285,0.156697,0.181684,1235.228027,-0.005411,0.150124,0.1,0.0,1.0,2670.820068, set /instrumentation/vertical-speed-indicator/serviceable true, turn_+45
93.405952,283.025299,284.21875,7.490077,1.903894,7.490077,1.903894,280.000153,280.0,392.420837,74.430222,1149.071777,296.477051,277.734802,0.157988,0.163484,1220.182861,-0.007851,0.149944,0.1,0.0,1.0,2670.857422, set /instrumentation/vertical-speed-indicator/serviceable true, turn_+45
93.385399,288.766174,289.959625,7.481269,2.131286,7.481269,2.131286,290.000153,290.0,398.164459,74.495544,1148.216309,296.42392,277.793915,0.150238,0.138195,1202.300903,-0.009066,0.149802,0.1,0.0,1.0,2670.924805, set /instrumentation/vertical-speed-indicator/serviceable true, turn_+45
93.376091,292.598083,293.791534,7.475098,2.202204,7.475098,2.202204,290.000153,290.0,401.990143,74.537117,1147.186035,296.432465,277.8396,0.14187,0.128737,1192.912964,-0.010149,0.149625,0.1,0.0,1.0,2670.979492, set /instrumentation/vertical-speed-indicator/serviceable true, turn_+45
93.364525,298.34964,299.543091,7.467307,2.240587,7.467307,2.240587,300.000153,300.0,407.721619,74.596756,1145.467529,296.543579,277.916534,0.130207,0.130204,1181.760498,-0.010487,0.149502,0.1,0.0,1.0,2671.074219, set /instrumentation/vertical-speed-indicator/serviceable true, turn_+45
93.355919,302.184845,303.378296,7.462986,2.259247,7.462986,2.259247,300.000153,300.0,411.538086,74.634796,1144.491821,296.68222,277.97345,0.125506,0.141025,1175.863281,-0.010669,0.149346,0.1,0.0,1.0,2671.142334, set /instrumentation/vertical-speed-indicator/serviceable true, turn_+45
93.338364,307.937073,309.130493,7.45995,2.325324,7.45995,2.325324,310.000153,310.0,417.257935,74.689316,1143.599365,296.958771,278.068359,0.124819,0.166625,1168.772461,-0.010758,0.14926,0.1,0.0,1.0,2671.244873, set /instrumentation/vertical-speed-indicator/serviceable true, turn_+45
93.322906,311.770905,312.964355,7.458992,2.409182,7.458992,2.409182,310.000153,310.0,421.06958,74.723946,1143.441895,297.164337,278.138794,0.12821,0.185665,1164.977173,-0.011073,0.149199,0.1,0.0,1.0,2671.309326, set /instrumentation/vertical-speed-indicator/serviceable true, turn_+45
93.295296,317.520142,318.713593,7.457802,2.590467,7.457802,2.590467,320.000153,320.0,426.78714,74.773285,1143.631226,297.464172,278.256622,0.136734,0.210477,1160.387939,-0.011472,0.14918,0.1,0.0,1.0,2671.396484, set /instrumentation/vertical-speed-indicator/serviceable true, turn_+45
93.275635,321.352142,322.545593,7.456193,2.736336,7.456193,2.736336,320.000153,320.0,430.599609,74.804428,1143.842896,297.642242,278.343842,0.142888,0.222057,1157.9375,-0.012336,0.149156,0.1,0.0,1.0,2671.447998, set /instrumentation/vertical-speed-indicator/serviceable true, turn_+45
93.247261,327.099304,328.292725,7.452242,2.956389,7.452242,2.956389,330.000153,330.0,436.319244,74.848579,1143.938843,297.867218,278.487976,0.150219,0.230791,1154.999634,-0.01303,0.149124,0.1,0.0,1.0,2671.519043, set /instrumentation/vertical-speed-indicator/serviceable true, turn_+45
93.230377,330.930206,332.123657,7.448494,3.08917,7.448494,3.08917,330.000153,330.0,440.13208,74.876366,1143.716553,297.993561,278.592743,0.15287,0.231945,1153.442261,-0.014078,0.149045,0.1,0.0,1.0,2671.564941, set /instrumentation/vertical-speed-indicator/serviceable true, turn_+45
93.208931,336.675476,337.868927,7.442302,3.24364,7.442302,3.24364,340.000153,340.0,445.848816,74.915733,1142.90918,298.166412,278.762085,0.153268,0.230034,1151.560913,-0.01471,0.14897,0.1,0.0,1.0,2671.63623, set /instrumentation/vertical-speed-indicator/serviceable true, turn_+45
93.197006,340.504486,341.697937,7.437346,3.316681,7.437346,3.316681,340.000153,340.0,449.657166,74.940536,1142.096436,298.283569,278.882538,0.151653,0.22865,1150.530151,-0.015446,0.148846,0.1,0.0,1.0,2671.687012, set /instrumentation/vertical-speed-indicator/serviceable true, turn_+45
93.181625,346.245331,347.438751,7.430089,3.386509,7.430089,3.386509,350.000153,350.0,455.363983,74.975739,1140.639404,298.480377,279.073639,0.147961,0.229346,1149.19873,-0.015794,0.148747,0.1,0.0,1.0,2671.769287, set /instrumentation/vertical-speed-indicator/serviceable true, turn_+45
93.172218,350.07016,351.263611,7.424835,3.417723,7.424835,3.417723,350.000153,350.0,459.164368,74.997948,1139.625244,298.631287,279.20755,0.145606,0.23255,1148.397705,-0.016126,0.148602,0.1,0.0,1.0,2671.828125, set /instrumentation/vertical-speed-indicator/serviceable true, turn_+45
93.158012,355.803009,356.99646,7.418123,3.458533,7.418123,3.458533,360.000153,360.0,464.858765,75.02948,1138.215454,298.887207,279.417816,0.143443,0.241243,1147.256958,-0.016275,0.148497,0.1,0.0,1.0,2671.919678, set /instrumentation/vertical-speed-indicator/serviceable true, turn_+45
93.147949,359.621674,360.815125,7.413764,3.490929,7.413764,3.490929,360.000153,360.0,468.651428,75.049339,1137.420776,299.072815,279.564117,0.143226,0.248775,1146.513306,-0.016469,0.148362,0.1,0.0,1.0,2671.982178, set /instrumentation/vertical-speed-indicator/serviceable true, turn_+45
93.131691,365.344604,366.538055,7.408574,3.554023,7.408574,3.554023,360.000153,360.0,474.335938,75.077446,1136.46167,299.361755,279.792603,0.144585,0.260611,1145.407715,-0.016623,0.148275,0.1,0.0,1.0,2672.075439, set /instrumentation/vertical-speed-indicator/serviceable true, turn_+45
