airspeed_indicator_indicated_speed_kt,altimeter_indicated_altitude_ft,altimeter_pressure_alt_ft,attitude_indicator_indicated_pitch_deg,attitude_indicator_indicated_roll_deg,attitude_indicator_internal_pitch_deg,attitude_indicator_internal_roll_deg,encoder_indicated_altitude_ft,encoder_pressure_alt_ft,gps_indicated_altitude_ft,gps_indicated_ground_speed_kt,gps_indicated_vertical_speed,indicated_heading_deg,magnetic_compass_indicated_heading_deg,slip_skid_ball_indicated_slip_skid,turn_indicator_indicated_turn_rate,vertical_speed_indicator_indicated_speed_fpm,flight_aileron,flight_elevator,flight_rudder,flight_flaps,engine_throttle,engine_rpm,Command_fault,Command
6.383361,-87.671448,-86.477997,2.974336,1.380639,2.588453,0.094361,-89.999855,-90.0,2.286273,0.0,0.006733,297.874908,258.583588,0.012141,-0.114742,-23.127802,-0.0,0.0,0.0,0.0,0.0,599.91449,, takeoff
6.31815,-87.763893,-86.57045,2.9387,1.261407,2.588522,0.094148,-89.999855,-90.0,2.286307,0.0,0.002981,297.873688,260.986389,0.012138,-0.099149,-25.769581,-0.019723,0.051769,0.0,0.0,1.0,606.962891,, takeoff
6.302219,-87.813385,-86.619942,2.780869,0.758031,2.581563,0.093676,-89.999855,-90.0,2.286295,3.2E-5,-0.01092,297.872803,262.818115,0.012074,-0.089722,-19.450975,-0.01802,0.05177,6.1E-5,0.0,1.0,668.782959,, takeoff
6.315084,-87.872734,-86.679291,2.576924,0.20486,2.542646,0.090602,-89.999855,-90.0,2.286161,2.3E-4,-0.0412,297.871216,265.883362,0.011927,-0.077009,-15.970702,-0.010829,0.051631,1.05E-4,0.0,1.0,852.78833,, takeoff
6.367568,-87.902573,-86.709129,2.508251,0.08619,2.508251,0.08619,-89.999855,-90.0,2.286055,7.52E-4,-0.01782,297.870056,267.998352,0.011821,-0.069834,-13.919306,-0.002927,0.050853,1.85E-4,0.0,1.0,1004.611084,, takeoff
6.545212,-87.937561,-86.744118,2.489199,0.075657,2.489199,0.075657,-89.999855,-90.0,2.286124,0.003868,0.04321,297.868011,271.308472,0.0118,-0.060457,-19.479719,-0.001231,0.050165,2.43E-4,0.0,1.0,1246.436035,, takeoff
6.738457,-87.955696,-86.762253,2.493379,0.066541,2.493379,0.066541,-89.999855,-90.0,2.286336,0.008869,0.082266,297.86618,273.578857,0.011215,-0.055079,-15.874635,-0.001081,0.049784,3.45E-4,0.0,1.0,1402.596436,, takeoff
7.146902,-87.976906,-86.783463,2.51146,0.050916,2.51146,0.050916,-89.999855,-90.0,2.286891,0.023354,0.138406,297.861694,277.032562,0.010972,-0.04828,-15.464469,-9.51E-4,0.049868,4.36E-4,0.0,1.0,1613.02832,, takeoff
7.495497,-87.987839,-86.794395,2.526598,0.040012,2.526598,0.040012,-89.999855,-90.0,2.287414,0.039192,0.175854,297.856842,279.340393,0.008936,-0.044597,-16.273993,-7.27E-4,0.050229,6.61E-4,0.0,1.0,1732.807617,, takeoff
8.122477,-88.000519,-86.807076,2.549285,0.024139,2.549285,0.024139,-89.999855,-90.0,2.288432,0.074613,0.233669,297.84549,282.766235,0.008855,-0.040363,-13.997529,-5.72E-4,0.050532,9.03E-4,0.0,1.0,1879.950928,, takeoff
8.600319,-88.006973,-86.81353,2.563374,0.014494,2.563374,0.014494,-89.999855,-90.0,2.289276,0.107189,0.273093,297.834259,285.001892,0.007929,-0.03843,-18.996941,-3.45E-4,0.050986,0.001471,0.0,1.0,1957.674683,, takeoff
9.389668,-88.014305,-86.820862,2.581256,0.002011,2.581256,0.002011,-89.999855,-90.0,2.290804,0.171109,0.337171,297.812317,288.244202,0.012742,-0.036621,-17.579302,-2.07E-4,0.051267,0.002032,0.0,1.0,2047.930664,, takeoff
9.954702,-88.017921,-86.824478,2.591363,-0.004944,2.591363,-0.004944,-89.999855,-90.0,2.292011,0.224454,0.383496,297.79425,290.310638,0.01556,-0.036064,-9.884485,-2.9E-5,0.051625,0.00313,0.0,1.0,2093.395996,, takeoff
10.846032,-88.021805,-86.828362,2.603486,-0.013394,2.603486,-0.013394,-89.999855,-90.0,2.29412,0.321383,0.457556,297.763885,293.235199,0.018935,-0.035769,-16.506678,7.1E-5,0.051827,0.004033,0.0,1.0,2144.219238,, takeoff
11.462427,-88.023552,-86.830109,2.610224,-0.017884,2.610224,-0.017884,-89.999855,-90.0,2.295737,0.397562,0.508973,297.741821,295.0513,0.020792,-0.035845,-12.85392,1.91E-4,0.05207,0.005551,0.0,1.0,2168.912354,, takeoff
12.410634,-88.025116,-86.831673,2.618387,-0.023205,2.618387,-0.023205,-89.999855,-90.0,2.298491,0.529404,0.589564,297.70929,297.550079,0.022942,-0.035802,-5.859841,2.55E-4,0.052204,0.006654,0.0,1.0,2195.562744,, takeoff
13.054021,-88.025566,-86.832123,2.623137,-0.026034,2.623137,-0.026034,-89.999855,-90.0,2.300555,0.629032,0.644665,297.688538,299.053436,0.02417,-0.035599,-9.707251,3.31E-4,0.052368,0.008281,0.0,1.0,2207.980713,, takeoff
14.029987,-88.025467,-86.832024,2.629347,-0.029474,2.629347,-0.029474,-89.999855,-90.0,2.303998,0.795942,0.729042,297.662262,301.047882,0.025703,-0.034524,-9.024114,3.72E-4,0.052463,0.009318,0.0,1.0,2220.977295,, takeoff
14.357294,-88.025253,-86.83181,2.631318,-0.03035,2.631318,-0.03035,-89.999855,-90.0,2.30524,0.856189,0.757346,297.654968,301.640564,0.026135,-0.033964,-7.251634,3.72E-4,0.052463,0.009318,0.0,1.0,2224.547852,, takeoff
14.521246,-88.025116,-86.831673,2.632293,-0.03078,2.632293,-0.03078,-89.999855,-90.0,2.305879,0.887169,0.771147,297.65155,301.923126,0.026561,-0.033649,-5.820652,4.21E-4,0.052587,0.010632,0.0,1.0,2226.239502,, takeoff
16.639856,-88.022148,-86.828705,2.644489,-0.035295,2.644489,-0.035295,-89.999855,-90.0,2.315164,1.334449,0.955375,297.631622,304.714783,0.029703,-0.026702,19.077816,4.4E-4,0.052646,0.011168,0.0,1.0,2243.54126,, takeoff
17.332441,-88.020164,-86.826721,2.648564,-0.036465,2.648564,-0.036465,-89.999855,-90.0,2.318598,1.499049,1.017544,297.631561,305.285919,0.030824,-0.023908,16.93721,5.04E-4,0.05289,0.012164,0.0,1.0,2247.764893,, takeoff
17.998463,-88.018005,-86.824562,2.652078,-0.037619,2.652078,-0.037619,-89.999855,-90.0,2.322097,1.665742,1.07643,297.635559,305.681335,0.031966,-0.020838,15.226884,5.21E-4,0.052971,0.012167,0.0,1.0,2251.373535,, takeoff
18.999018,-88.014313,-86.820862,2.657518,-0.039344,2.657518,-0.039344,-89.999855,-90.0,2.327715,1.931387,1.165563,297.648193,306.000061,0.033821,-0.015747,6.238337,5.37E-4,0.053042,0.011967,0.0,1.0,2256.132324,, takeoff
19.666725,-88.011559,-86.818115,2.661405,-0.040492,2.661405,-0.040492,-89.999855,-90.0,2.331709,2.118664,1.224683,297.660065,306.035583,0.035099,-0.012225,8.162669,5.62E-4,0.05315,0.011336,0.0,1.0,2258.95752,, takeoff
20.668808,-88.007011,-86.813568,2.667272,-0.042095,2.667272,-0.042095,-89.999855,-90.0,2.338069,2.414462,1.313984,297.680237,305.836761,0.036978,-0.007218,18.259653,5.78E-4,0.053228,0.010742,0.0,1.0,2262.796631,, takeoff
21.309168,-88.00386,-86.810417,2.671161,-0.043033,2.671161,-0.043033,-89.999855,-90.0,2.342365,2.612586,1.370425,297.693695,305.559967,0.038063,-0.004309,7.97154,6.01E-4,0.053345,0.009734,0.0,1.0,2265.051025,, takeoff
22.339071,-87.998383,-86.804932,2.677372,-0.044272,2.677372,-0.044272,-89.999855,-90.0,2.349656,2.945865,1.461099,297.71347,304.888336,0.039366,-4.89E-4,10.296655,6.15E-4,0.053423,0.009061,0.0,1.0,2268.431396,, takeoff
22.979071,-87.994728,-86.801285,2.681378,-0.044948,2.681378,-0.044948,-89.999855,-90.0,2.354424,3.161877,1.517975,297.724182,304.341248,0.039914,0.001354,15.983459,6.32E-4,0.053547,0.008072,0.0,1.0,2270.412109,, takeoff
24.007895,-87.988457,-86.795013,2.68779,-0.045797,2.68779,-0.045797,-89.999855,-90.0,2.362473,3.523201,1.608716,297.737305,303.27533,0.040278,0.003324,8.282134,6.42E-4,0.053628,0.007536,0.0,1.0,2273.452637,, takeoff
24.646936,-87.984322,-86.790878,2.691922,-0.046283,2.691922,-0.046283,-89.999855,-90.0,2.367713,3.756194,1.665626,297.743134,302.509857,0.040232,0.004041,16.534409,6.54E-4,0.053756,0.00688,0.0,1.0,2275.271729,, takeoff
25.674271,-87.977287,-86.783844,2.698608,-0.047035,2.698608,-0.047035,-89.999855,-90.0,2.376523,4.144118,1.758678,297.749054,301.137817,0.03981,0.004532,13.321468,6.61E-4,0.053838,0.006589,0.0,1.0,2278.112549,, takeoff
26.31197,-87.972679,-86.779236,2.702958,-0.047579,2.702958,-0.047579,-89.999855,-90.0,2.382237,4.393207,1.815219,297.751526,300.211029,0.039411,0.00462,10.301895,6.72E-4,0.053972,0.006293,0.0,1.0,2279.837402,, takeoff
27.335962,-87.964874,-86.771431,2.712468,-0.046789,2.712468,-0.046789,-89.999855,-90.0,2.392058,4.806324,2.030833,297.755157,298.626892,0.039172,0.004756,10.535447,6.8E-4,0.054059,0.006169,0.0,1.0,2282.562012,, takeoff
28.275084,-87.957161,-86.763718,2.722931,-0.043417,2.722931,-0.043417,-89.999855,-90.0,2.402106,5.199045,2.206989,297.759827,297.096802,0.038541,0.005126,10.660589,6.68E-4,0.054249,0.005988,0.0,1.0,2285.024902,, takeoff
28.96467,-87.951103,-86.75766,2.727894,-0.044305,2.727894,-0.044305,-89.999855,-90.0,2.409891,5.495575,2.270565,297.765167,295.94281,0.038285,0.00561,15.139468,6.2E-4,0.054459,0.005754,0.0,1.0,2286.817383,, takeoff
29.62591,-87.945,-86.751556,2.732327,-0.045529,2.732327,-0.045529,-89.999855,-90.0,2.417578,5.786274,2.334408,297.772369,294.823181,0.03844,0.006353,19.082186,6.33E-4,0.054558,0.005487,0.0,1.0,2288.526855,, takeoff
30.588745,-87.935631,-86.742188,2.739149,-0.047596,2.739149,-0.047596,-89.999855,-90.0,2.429172,6.22052,2.429202,297.786682,293.188812,0.039331,0.007901,15.451164,6.5E-4,0.054647,0.005127,0.0,1.0,2291.004883,, takeoff
31.275652,-87.928612,-86.735168,2.744377,-0.049192,2.744377,-0.049192,-89.999855,-90.0,2.437737,6.537987,2.496629,297.799774,292.033661,0.040263,0.009327,11.694416,6.8E-4,0.054783,0.004411,0.0,1.0,2292.766846,, takeoff
32.290005,-87.917725,-86.724281,2.752092,-0.051488,2.752092,-0.051488,-89.999855,-90.0,2.450844,7.018641,2.596749,297.822174,290.365082,0.041985,0.011629,14.028905,7.03E-4,0.054888,0.003757,0.0,1.0,2295.365234,, takeoff
33.22028,-87.907227,-86.713783,2.759309,-0.053491,2.759309,-0.053491,-89.999855,-90.0,2.463342,7.47134,2.688261,297.844574,288.896332,0.043824,0.013725,14.435897,7.36E-4,0.055042,0.002637,0.0,1.0,2297.74585,, takeoff
33.930679,-87.898888,-86.705444,2.764859,-0.054905,2.764859,-0.054905,-89.999855,-90.0,2.473191,7.824417,2.76088,297.861755,287.827576,0.044936,0.015137,16.881237,7.64E-4,0.055186,0.001517,0.0,1.0,2299.563477,, takeoff
34.584553,-87.890945,-86.697502,2.769889,-0.055995,2.769889,-0.055995,-89.999855,-90.0,2.482507,8.15549,2.823451,297.876587,286.890472,0.045804,0.016141,17.345179,7.84E-4,0.055297,6.58E-4,0.0,1.0,2301.239014,, takeoff
35.563835,-87.878609,-86.685165,2.782444,-0.057425,2.782444,-0.057425,-89.999855,-90.0,2.497196,8.661113,3.224265,297.895599,285.585999,0.046555,0.016964,14.356088,8.0E-4,0.055398,-8.4E-5,0.0,1.0,2303.749756,, takeoff
36.539589,-87.865509,-86.672066,2.792369,-0.058547,2.792369,-0.058547,-89.999855,-90.0,2.513781,9.177187,3.357981,297.911072,284.416748,0.04658,0.017136,15.014522,8.2E-4,0.055649,-0.001035,0.0,1.0,2306.258301,, takeoff
37.188625,-87.856293,-86.662842,2.797034,-0.05925,2.797034,-0.05925,-89.999855,-90.0,2.525098,9.526849,3.424236,297.919861,283.718658,0.046266,0.017007,20.064259,8.36E-4,0.055847,-0.001808,0.0,1.0,2307.928955,, takeoff
37.809589,-87.847137,-86.653694,2.801448,-0.059898,2.801448,-0.059898,-89.999855,-90.0,2.536155,9.866034,3.489955,297.927338,283.114014,0.04578,0.016743,14.460896,8.46E-4,0.055941,-0.002248,0.0,1.0,2309.529785,, takeoff
38.779305,-87.832222,-86.638779,2.808836,-0.061106,2.808836,-0.061106,-89.999855,-90.0,2.55389,10.404737,3.595669,297.938141,282.298615,0.044962,0.016249,9.469,8.56E-4,0.056029,-0.002622,0.0,1.0,2312.03418,, takeoff
39.424217,-87.821907,-86.628456,2.814073,-0.062073,2.814073,-0.062073,-89.999855,-90.0,2.56601,10.769006,3.666982,297.945923,281.845947,0.044509,0.016059,9.200827,8.73E-4,0.056177,-0.003162,0.0,1.0,2313.702881,, takeoff
40.376789,-87.805901,-86.612457,2.821847,-0.063691,2.821847,-0.063691,-89.999855,-90.0,2.58463,11.322846,3.76881,297.959564,281.304993,0.044272,0.016123,10.100217,8.87E-4,0.056281,-0.003551,0.0,1.0,2316.202393,, takeoff
41.323887,-87.788826,-86.595383,2.828716,-0.062428,2.828716,-0.062428,-89.999855,-90.0,2.604097,11.901054,3.823643,297.974854,280.921265,0.045238,0.0164,15.338084,9.1E-4,0.056437,-0.004233,0.0,1.0,2318.735596,, takeoff
41.910923,-87.777893,-86.58445,2.839431,-0.060122,2.839431,-0.060122,-89.999855,-90.0,2.617235,12.264919,4.336468,297.982269,280.769379,0.045856,0.016242,17.321054,8.92E-4,0.056574,-0.004997,0.0,1.0,2320.294189,, takeoff
42.547504,-87.765518,-86.572075,2.845286,-0.054786,2.845286,-0.054786,-89.999855,-90.0,2.632535,12.664163,4.413241,297.986328,280.677673,0.045494,0.015461,13.73167,8.59E-4,0.056789,-0.005368,0.0,1.0,2321.979004,, takeoff
43.437241,-87.747414,-86.55397,2.852259,-0.052493,2.852259,-0.052493,-89.999855,-90.0,2.654295,13.229455,4.531181,297.982574,280.673035,0.043732,0.012917,13.073979,7.83E-4,0.056906,-0.005571,0.0,1.0,2324.713135,, takeoff
44.350285,-87.727898,-86.534454,2.859246,-0.048323,2.859246,-0.048323,-89.999855,-90.0,2.677267,13.818366,4.655418,297.966827,280.810669,0.040072,0.008859,16.443968,7.5E-4,0.057045,-0.005383,0.0,1.0,2328.96167,, takeoff
44.932106,-87.714996,-86.521553,2.86375,-0.045157,2.86375,-0.045157,-89.999855,-90.0,2.692253,14.198453,4.725157,297.95108,280.969116,0.036636,0.005693,13.809495,6.9E-4,0.057185,-0.004596,0.0,1.0,2332.186279,, takeoff
45.89415,-87.693008,-86.499557,2.874458,-0.039779,2.874458,-0.039779,-89.999855,-90.0,2.717759,14.832781,5.271008,297.919281,281.340912,0.030779,2.42E-4,16.048151,6.45E-4,0.057275,-0.003809,0.0,1.0,2338.035889,, takeoff
46.474701,-87.679153,-86.48571,2.8825,-0.036458,2.8825,-0.036458,-89.999855,-90.0,2.734822,15.220464,5.402514,297.898193,281.626556,0.026574,-0.002935,17.503305,5.68E-4,0.057489,-0.002219,0.0,1.0,2341.778809,, takeoff
47.409401,-87.655815,-86.462372,2.890299,-0.030911,2.890299,-0.030911,-89.999855,-90.0,2.762999,15.849883,5.556529,297.867401,282.170074,0.020887,-0.006892,16.771294,5.21E-4,0.05765,-0.001164,0.0,1.0,2347.991699,, takeoff
47.990543,-87.640709,-86.447266,2.894734,-0.028727,2.894734,-0.028727,-89.999855,-90.0,2.78089,16.24464,5.636451,297.851776,282.55368,0.01796,-0.008522,14.56004,4.42E-4,0.057806,3.75E-4,0.0,1.0,2351.932373,, takeoff
48.90052,-87.616226,-86.422783,2.901676,-0.026235,2.901676,-0.026235,-89.999855,-90.0,2.809415,16.867758,5.765076,297.835907,283.212769,0.015558,-0.009428,15.407517,4.1E-4,0.057895,0.001157,0.0,1.0,2358.176758,, takeoff
49.482018,-87.600098,-86.406647,2.906367,-0.024927,2.906367,-0.024927,-89.999855,-90.0,2.82798,17.269135,5.849553,297.831177,283.664917,0.015313,-0.009106,12.58882,3.75E-4,0.058034,0.00195,0.0,1.0,2362.199951,, takeoff
50.417976,-87.573402,-86.379959,2.913714,-0.023184,2.913714,-0.023184,-89.999855,-90.0,2.858404,17.920048,5.983303,297.831085,284.430725,0.016773,-0.007501,20.938787,3.56E-4,0.058127,0.002187,0.0,1.0,2368.710938,, takeoff
51.024757,-87.555573,-86.362129,2.924579,-0.01537,2.924579,-0.01537,-89.999855,-90.0,2.879349,18.345625,6.55843,297.834106,284.945862,0.019152,-0.005933,16.530949,3.31E-4,0.058274,0.002191,0.0,1.0,2372.953125,, takeoff
51.959305,-87.526741,-86.333298,2.936218,-0.009161,2.936218,-0.009161,-89.999855,-90.0,2.915097,19.006752,7.018699,297.838165,285.755859,0.02157,-0.004163,12.066669,2.2E-4,0.058492,0.00204,0.0,1.0,2379.514404,, takeoff
52.540325,-87.507957,-86.314514,2.940083,-0.0071,2.940083,-0.0071,-89.999855,-90.0,2.937667,19.420731,7.104115,297.838409,286.262787,0.023029,-0.003597,11.783163,1.31E-4,0.058724,0.001837,0.0,1.0,2383.604492,, takeoff
53.475368,-87.476547,-86.283096,2.945976,-0.003236,2.945976,-0.003236,-89.999855,-90.0,2.974566,20.091406,7.249052,297.831696,287.072571,0.024074,-0.003926,11.880467,1.01E-4,0.058802,0.001825,0.0,1.0,2390.200684,, takeoff
54.081871,-87.45546,-86.262016,2.950293,-3.2E-4,2.950293,-3.2E-4,-89.999855,-90.0,2.99891,20.529472,7.34743,297.821381,287.588074,0.023721,-0.005045,12.420463,4.6E-5,0.05892,0.002161,0.0,1.0,2394.489502,, takeoff
54.991508,-87.422905,-86.229462,2.956756,0.00448,2.956756,0.00448,-89.999855,-90.0,3.036041,21.190928,7.49575,297.797394,288.337158,0.02143,-0.007838,13.158202,5.0E-6,0.059006,0.002676,0.0,1.0,2400.937256,, takeoff
55.597786,-87.400635,-86.207191,2.961247,0.0079,2.961247,0.0079,-89.999855,-90.0,3.061209,21.634731,7.595401,297.776428,288.815186,0.018847,-0.010248,13.610957,-6.4E-5,0.059135,0.003876,0.0,1.0,2405.244873,, takeoff
56.506966,-87.366432,-86.172989,2.967775,0.012865,2.967775,0.012865,-89.999855,-90.0,3.099582,22.304567,7.744325,297.741516,289.491974,0.013953,-0.013933,14.245373,-1.13E-4,0.059225,0.004924,0.0,1.0,2411.719971,, takeoff
57.1129,-87.343124,-86.149681,2.972301,0.016111,2.972301,0.016111,-89.999855,-90.0,3.12558,22.753807,7.844813,297.717712,289.912079,0.010425,-0.016164,14.644824,-1.84E-4,0.059356,0.00667,0.0,1.0,2416.04541,, takeoff
58.021568,-87.307434,-86.113991,2.978752,0.02037,2.978752,0.02037,-89.999855,-90.0,3.165194,23.431581,7.979467,297.686127,290.489227,0.00561,-0.018442,18.891836,-2.3E-4,0.059446,0.00786,0.0,1.0,2422.546387,, takeoff
58.627335,-87.283203,-86.08976,2.98221,0.024185,2.98221,0.024185,-89.999855,-90.0,3.191728,23.885975,7.984358,297.668976,290.835571,0.003067,-0.01914,14.596797,-2.91E-4,0.059575,0.009439,0.0,1.0,2426.88916,, takeoff
59.535839,-87.246277,-86.052834,2.988644,0.027665,2.988644,0.027665,-89.999855,-90.0,3.232056,24.571274,8.135659,297.651062,291.293274,7.88E-4,-0.01887,17.244637,-3.46E-4,0.059644,0.010297,0.0,1.0,2433.416992,, takeoff
60.141403,-87.221283,-86.027832,2.99314,0.029899,2.99314,0.029899,-89.999855,-90.0,3.259362,25.030554,8.236281,297.643707,291.555389,3.22E-4,-0.018014,17.456522,-3.95E-4,0.059773,0.011192,0.0,1.0,2437.780518,, takeoff
61.049229,-87.183121,-85.989677,3.003761,0.031227,3.003761,0.031227,-89.999855,-90.0,3.302087,25.722994,8.844973,297.637421,291.881989,0.00102,-0.016202,13.26099,-4.27E-4,0.059863,0.01156,0.0,1.0,2444.419678,, takeoff
61.654152,-87.157021,-85.963577,3.008436,0.033514,3.008436,0.033514,-89.999855,-90.0,3.331747,26.186907,8.939599,297.634247,292.054749,0.002133,-0.014974,19.254921,-4.46E-4,0.060075,0.011874,0.0,1.0,2448.901367,, takeoff
62.56052,-87.116631,-85.923187,3.022148,0.036971,3.022148,0.036971,-89.999855,-90.0,3.379886,26.886103,9.973522,297.627197,292.246307,0.004121,-0.013747,14.053226,-4.79E-4,0.060169,0.012033,0.0,1.0,2455.678955,, takeoff
63.164478,-87.088547,-85.895103,3.02649,0.039524,3.02649,0.039524,-89.999855,-90.0,3.413314,27.354393,10.07267,297.618774,292.329346,0.005216,-0.013621,14.40188,-5.28E-4,0.060443,0.012386,0.0,1.0,2460.223389,, takeoff
64.070137,-87.044884,-85.85144,3.031368,0.04335,3.031368,0.04335,-89.999855,-90.0,3.46409,28.059973,10.229633,297.598969,292.388428,0.006074,-0.014587,22.73963,-5.65E-4,0.06053,0.012807,0.0,1.0,2467.068359,, fly_strait
64.673248,-87.014885,-85.821434,3.035282,0.046959,3.035282,0.046959,-89.999855,-90.0,3.498395,28.532394,10.342715,297.57785,292.385498,0.005553,-0.016554,22.932907,-6.19E-4,0.060627,0.0,0.0,1.0,2471.645996,, fly_strait
65.57737,-86.968742,-85.775299,3.040803,0.052534,3.040803,0.052534,-89.999855,-90.0,3.550576,29.243979,10.534045,297.493164,292.320313,0.001115,-0.027683,14.183404,-6.71E-4,0.060706,0.001056,0.0,1.0,2478.529541,, fly_strait
66.178986,-86.937103,-85.74366,3.049198,0.059134,3.049198,0.059134,-89.999855,-90.0,3.587318,29.720272,11.191941,297.404572,292.237885,-0.004923,-0.039079,14.658633,-7.5E-4,0.060816,0.00529,0.0,1.0,2483.126709,, fly_strait
67.078781,-86.888107,-85.694664,3.055341,0.058712,3.055341,0.058712,-89.999855,-90.0,3.643725,30.437437,11.360226,297.253082,292.058472,-0.01747,-0.056967,15.428512,-8.45E-4,0.060984,0.00972,0.0,1.0,2490.029297,, fly_strait
67.677078,-86.854523,-85.661079,3.059496,0.057599,3.059496,0.057599,-89.999855,-90.0,3.681811,30.91728,11.479506,297.156189,291.903534,-0.026797,-0.066672,15.879905,-8.39E-4,0.061107,0.017294,0.0,1.0,2494.633301,, fly_strait
68.572945,-86.802902,-85.609459,3.064225,0.049126,3.064225,0.049126,-89.999855,-90.0,3.74025,31.639505,12.221912,297.050812,291.621979,-0.039392,-0.073159,16.523241,-8.23E-4,0.06119,0.022139,0.0,1.0,2501.540527,, fly_strait
69.169281,-86.767258,-85.573814,3.060367,0.008699,3.060367,0.008699,-89.999855,-90.0,3.785062,32.122559,14.13658,297.016663,291.404388,-0.045835,-0.072103,17.409029,-7.02E-4,0.061285,0.027408,0.0,1.0,2506.148438,, fly_strait
70.067146,-86.710327,-85.516884,2.989943,-0.149254,2.989943,-0.149254,-89.999855,-90.0,3.858761,32.849403,15.116039,297.029785,291.039917,-0.048938,-0.062874,23.308041,-1.24E-4,0.061207,0.029115,0.0,1.0,2513.075195, set /instrumentation/magnetic-compass/serviceable false, fly_strait
70.668587,-86.669983,-85.47654,2.924648,-0.28971,2.924648,-0.28971,-89.999855,-90.0,3.909367,33.335472,15.143238,297.077057,291.039917,-0.045198,-0.052265,18.859699,0.002132,0.059799,0.028459,0.0,1.0,2517.71167, set /instrumentation/magnetic-compass/serviceable false, fly_strait
71.567963,-86.606613,-85.41317,2.851867,-0.476817,2.851867,-0.476817,-89.999855,-90.0,3.984387,34.066811,14.888367,297.176422,291.039917,-0.032191,-0.03354,24.258348,0.004139,0.058493,0.026096,0.0,1.0,2524.689697, set /instrumentation/magnetic-compass/serviceable false, fly_strait
72.164009,-86.562981,-85.369537,2.818069,-0.580508,2.818069,-0.580508,-89.999855,-90.0,4.034068,34.555775,14.88418,297.238373,291.039917,-0.020524,-0.023011,22.634886,0.006812,0.057037,0.021127,0.0,1.0,2529.345215, set /instrumentation/magnetic-compass/serviceable false, fly_strait
73.05394,-86.495972,-85.302528,2.778546,-0.71851,2.778546,-0.71851,-89.999855,-90.0,4.108963,35.291168,15.133592,297.279449,291.039917,-0.002562,-0.017224,16.557381,0.008293,0.056361,0.01803,0.0,1.0,2536.321533, set /instrumentation/magnetic-compass/serviceable false, fly_strait
73.646286,-86.450333,-85.256882,2.744551,-0.821432,2.744551,-0.821432,-89.999855,-90.0,4.160013,35.782654,15.443966,297.256378,291.039917,0.007572,-0.022156,16.92135,0.010264,0.055571,0.015976,0.0,1.0,2540.968262, set /instrumentation/magnetic-compass/serviceable false, fly_strait
74.535522,-86.380348,-85.186905,2.681135,-1.002662,2.681135,-1.002662,-89.999855,-90.0,4.23829,36.521626,15.851781,297.139771,291.039917,0.017969,-0.042092,17.484776,0.011735,0.054891,0.01713,0.0,1.0,2547.940186, set /instrumentation/magnetic-compass/serviceable false, fly_strait
75.129715,-86.332642,-85.139198,2.630368,-1.141303,2.630368,-1.141303,-89.999855,-90.0,4.292278,37.015404,16.59201,297.016449,291.039917,0.021198,-0.061206,17.904627,0.014324,0.053623,0.02296,0.0,1.0,2552.595947, set /instrumentation/magnetic-compass/serviceable false, fly_strait
76.019493,-86.258926,-85.065475,2.597796,-1.373534,2.597796,-1.373534,-89.999855,-90.0,4.378836,37.75774,18.397917,296.802063,291.039917,0.019644,-0.091322,18.814312,0.016304,0.052607,0.029126,0.0,1.0,2559.595215, set /instrumentation/magnetic-compass/serviceable false, fly_strait
76.607841,-86.207413,-85.013962,2.641154,-1.58,2.641154,-1.58,-89.999855,-90.0,4.447801,38.255272,23.793732,296.660645,291.039917,0.016429,-0.109762,21.538776,0.019622,0.051956,0.039845,0.0,1.0,2564.264404, set /instrumentation/magnetic-compass/serviceable false, fly_strait
77.473396,-86.119133,-84.92569,2.772326,-1.901594,2.772326,-1.901594,-79.999855,-80.0,4.611176,39.003681,42.997765,296.496124,291.039917,0.011987,-0.126482,20.43405,0.022571,0.052823,0.046916,0.0,1.0,2571.250977, set /instrumentation/magnetic-compass/serviceable false, fly_strait
78.032784,-86.043739,-84.850296,2.883319,-2.083073,2.883319,-2.083073,-79.999855,-80.0,4.785357,39.503227,61.373306,296.428223,291.039917,0.010713,-0.128871,25.802282,0.027166,0.055447,0.055142,0.0,1.0,2575.879883, set /instrumentation/magnetic-compass/serviceable false, fly_strait
78.839142,-85.885796,-84.692352,3.050919,-2.240525,3.050919,-2.240525,-79.999855,-80.0,5.172597,40.25285,93.097931,296.39032,291.039917,0.012405,-0.119388,38.275551,0.029758,0.057666,0.058537,0.0,1.0,2582.742676, set /instrumentation/magnetic-compass/serviceable false, fly_strait
79.35244,-85.739021,-84.545578,3.176427,-2.258316,3.176427,-2.258316,-79.999855,-80.0,5.521494,40.752403,115.546295,296.390991,291.039917,0.01648,-0.107929,49.20776,0.032008,0.061018,0.060432,0.0,1.0,2587.241699, set /instrumentation/magnetic-compass/serviceable false, fly_strait
80.083649,-85.439308,-84.245865,3.357029,-2.153774,3.357029,-2.153774,-79.999855,-80.0,6.187662,41.500675,149.844254,296.393463,291.039917,0.025884,-0.089848,68.873795,0.032262,0.063529,0.060399,0.0,1.0,2593.462646, set /instrumentation/magnetic-compass/serviceable false, fly_strait
80.545204,-85.17823,-83.984787,3.480817,-2.017106,3.480817,-2.017106,-79.999855,-80.0,6.726005,41.998325,172.2621,296.374878,291.039917,0.033061,-0.08108,83.679947,0.030768,0.067141,0.060275,0.0,1.0,2596.82251, set /instrumentation/magnetic-compass/serviceable false, fly_strait
81.203682,-84.684456,-83.491013,3.634228,-1.769588,3.634228,-1.769588,-79.999855,-80.0,7.670017,42.742165,203.887115,296.298401,291.039917,0.042901,-0.076204,107.658859,0.028816,0.069616,0.061205,0.0,1.0,2601.010742, set /instrumentation/magnetic-compass/serviceable false, fly_strait
81.623573,-84.283516,-83.090073,3.729078,-1.601731,3.729078,-1.601731,-79.999855,-80.0,8.384683,43.23587,224.122253,296.216003,291.039917,0.047436,-0.078173,124.347046,0.02528,0.072685,0.065028,0.0,1.0,2603.399658, set /instrumentation/magnetic-compass/serviceable false, fly_strait
82.227806,-83.570923,-82.37748,3.85396,-1.398638,3.85396,-1.398638,-79.999855,-80.0,9.581025,43.972504,253.210648,296.073608,291.039917,0.050641,-0.084529,149.993256,0.022882,0.074582,0.069148,0.0,1.0,2606.568848, set /instrumentation/magnetic-compass/serviceable false, fly_strait
82.614197,-83.020798,-81.827354,3.944053,-1.294871,3.944053,-1.294871,-79.999855,-80.0,10.457459,44.460648,271.937408,295.984894,291.039917,0.050893,-0.087807,167.273666,0.019981,0.077079,0.076268,0.0,1.0,2608.479492, set /instrumentation/magnetic-compass/serviceable false, fly_strait
83.169609,-82.082718,-80.889275,4.072351,-1.18559,4.072351,-1.18559,-79.999855,-80.0,11.888484,45.187916,299.459106,295.899567,291.039917,0.050262,-0.085399,193.257294,0.018498,0.078881,0.080704,0.0,1.0,2611.125977, set /instrumentation/magnetic-compass/serviceable false, fly_strait
83.522362,-81.382278,-80.188835,4.162873,-1.11818,4.162873,-1.11818,-79.999855,-80.0,12.917403,45.669151,317.180115,295.883331,291.039917,0.050909,-0.077659,210.535233,0.016937,0.081447,0.08497,0.0,1.0,2612.775146, set /instrumentation/magnetic-compass/serviceable false, fly_strait
84.026108,-80.220016,-79.026573,4.285429,-0.996657,4.285429,-0.996657,-79.999855,-80.0,14.573399,46.385029,345.084808,295.917175,291.039917,0.05488,-0.057923,236.291199,0.015974,0.083257,0.085782,0.0,1.0,2615.110107, set /instrumentation/magnetic-compass/serviceable false, fly_strait
84.344246,-79.370499,-78.177055,4.378942,-0.885547,4.378942,-0.885547,-79.999855,-80.0,15.75906,46.857967,365.828552,295.963318,291.039917,0.059964,-0.042129,253.506042,0.014238,0.085709,0.08409,0.0,1.0,2616.587646, set /instrumentation/magnetic-compass/serviceable false, fly_strait
84.792343,-77.980904,-76.78746,4.531404,-0.679477,4.531404,-0.679477,-79.999855,-80.0,17.674345,47.560322,399.273193,296.028656,291.039917,0.070127,-0.021306,279.871124,0.012651,0.087579,0.081783,0.0,1.0,2618.699707, set /instrumentation/magnetic-compass/serviceable false, fly_strait
85.072166,-76.97506,-75.781616,4.642107,-0.523829,4.642107,-0.523829,-79.999855,-80.0,19.040443,48.023537,419.268616,296.051453,291.039917,0.077318,-0.012095,297.93042,0.009707,0.090628,0.078516,0.0,1.0,2620.042969, set /instrumentation/magnetic-compass/serviceable false, fly_strait
85.473763,-75.34671,-74.153267,4.752459,-0.307202,4.752459,-0.307202,-69.999855,-70.0,21.203053,48.710419,443.835236,296.038269,291.039917,0.086518,-0.007788,325.215759,0.007483,0.092842,0.077376,0.0,1.0,2621.970947, set /instrumentation/magnetic-compass/serviceable false, fly_strait
85.734802,-74.184151,-72.9907,4.799953,-0.188241,4.799953,-0.188241,-69.999855,-70.0,22.70718,49.16291,457.985657,296.00296,291.039917,0.090154,-0.009935,343.05426,0.004389,0.095049,0.078035,0.0,1.0,2623.206055, set /instrumentation/magnetic-compass/serviceable false, fly_strait
86.118614,-72.331741,-71.138298,4.858116,-0.080732,4.858116,-0.080732,-69.999855,-70.0,25.047729,49.833374,477.324341,295.936981,291.039917,0.091731,-0.016156,368.76474,0.002689,0.095999,0.0798,0.0,1.0,2624.996582, set /instrumentation/magnetic-compass/serviceable false, fly_strait
86.368248,-71.02861,-69.835167,4.911192,-0.048465,4.911192,-0.048465,-69.999855,-70.0,26.660379,50.274792,489.850616,295.901947,291.039917,0.090896,-0.019126,385.089172,0.001153,0.097162,0.083099,0.0,1.0,2626.153564, set /instrumentation/magnetic-compass/serviceable false, fly_strait
86.730713,-68.978073,-67.78463,5.000155,-0.042018,5.000155,-0.042018,-69.999855,-70.0,29.160088,50.928448,509.691895,295.889984,291.039917,0.088853,-0.017449,408.385651,6.92E-4,0.098224,0.084851,0.0,1.0,2627.837891, set /instrumentation/magnetic-compass/serviceable false, fly_strait
86.963196,-67.548737,-66.355286,5.065665,-0.042603,5.065665,-0.042603,-69.999855,-70.0,30.88336,51.358479,523.864929,295.913666,291.039917,0.088511,-0.011583,423.351776,6.0E-4,0.100003,0.085449,0.0,1.0,2628.927246, set /instrumentation/magnetic-compass/serviceable false, fly_strait
87.29715,-65.313545,-64.120102,5.155647,-0.019192,5.155647,-0.019192,-59.999859,-60.0,33.559006,51.994713,545.736145,295.98468,291.039917,0.090712,0.002132,445.212921,6.09E-4,0.101313,0.084265,0.0,1.0,2630.511719, set /instrumentation/magnetic-compass/serviceable false, fly_strait
87.510132,-63.763046,-62.569603,5.219851,0.021838,5.219851,0.021838,-59.999859,-60.0,35.403255,52.41291,560.292786,296.041107,291.039917,0.094041,0.012028,459.548889,2.74E-4,0.103113,0.080714,0.0,1.0,2631.5354, set /instrumentation/magnetic-compass/serviceable false, fly_strait
87.817406,-61.347263,-60.15382,5.306859,0.11494,5.306859,0.11494,-59.999859,-60.0,38.261257,53.031113,582.250549,296.105896,291.039917,0.100445,0.022438,480.8367,-3.12E-4,0.104397,0.077893,0.0,1.0,2633.02417, set /instrumentation/magnetic-compass/serviceable false, fly_strait
88.015228,-59.676907,-58.483463,5.367643,0.18422,5.367643,0.18422,-59.999859,-60.0,40.227306,53.437126,596.8349,296.124725,291.039917,0.104159,0.024782,494.933533,-0.001642,0.106137,0.074654,0.0,1.0,2633.988037, set /instrumentation/magnetic-compass/serviceable false, fly_strait
88.303833,-57.081993,-55.88855,5.449275,0.263333,5.449275,0.263333,-59.999859,-60.0,43.266926,54.036907,618.207153,296.111176,291.039917,0.10729,0.020788,515.973145,-0.002632,0.107353,0.073712,0.0,1.0,2635.395752, set /instrumentation/magnetic-compass/serviceable false, fly_strait
88.491447,-55.292892,-54.099449,5.505858,0.288337,5.505858,0.288337,-49.999859,-50.0,45.3517,54.430607,632.14856,296.083588,291.039917,0.106983,0.015012,529.917175,-0.003762,0.108985,0.07439,0.0,1.0,2636.311768, set /instrumentation/magnetic-compass/serviceable false, fly_strait
88.765739,-52.521496,-51.328053,5.583975,0.273575,5.583975,0.273575,-49.999859,-50.0,48.566006,55.011944,652.872803,296.042816,291.039917,0.103623,0.00655,550.677368,-0.004119,0.110117,0.075769,0.0,1.0,2637.655518, set /instrumentation/magnetic-compass/serviceable false, fly_strait
88.942848,-50.615971,-49.422527,5.641666,0.239497,5.641666,0.239497,-49.999859,-50.0,50.765884,55.393379,666.563843,296.031219,291.039917,0.10054,0.003621,564.403564,-0.003908,0.11168,0.077808,0.0,1.0,2638.532471, set /instrumentation/magnetic-compass/serviceable false, fly_strait
89.198326,-47.671711,-46.478268,5.72445,0.181106,5.72445,0.181106,-49.999859,-50.0,54.151836,55.956341,687.183655,296.053131,291.039917,0.096654,0.00584,584.820862,-0.003421,0.112833,0.078387,0.0,1.0,2639.818359, set /instrumentation/magnetic-compass/serviceable false, fly_strait
89.360764,-45.651943,-44.4585,5.784887,0.154101,5.784887,0.154101,-49.999859,-50.0,56.466228,56.325497,700.97052,296.092194,291.039917,0.095733,0.011207,598.329651,-0.002587,0.114489,0.077292,0.0,1.0,2640.654785, set /instrumentation/magnetic-compass/serviceable false, fly_strait
89.592545,-42.537376,-41.343929,5.868018,0.154109,5.868018,0.154109,-39.999859,-40.0,60.024536,56.86993,721.672791,296.166016,291.039917,0.097171,0.021398,618.468872,-0.002201,0.115698,0.075339,0.0,1.0,2641.875977, set /instrumentation/magnetic-compass/serviceable false, fly_strait
89.739548,-40.404594,-39.211151,5.926303,0.178947,5.926303,0.178947,-39.999859,-40.0,62.45369,57.22665,735.316284,296.210876,291.039917,0.099438,0.027108,631.826416,-0.002202,0.11736,0.071648,0.0,1.0,2642.666992, set /instrumentation/magnetic-compass/serviceable false, fly_strait
89.951271,-37.12133,-35.927887,6.002969,0.235772,6.002969,0.235772,-39.999859,-40.0,66.182327,57.752323,755.384827,296.246552,291.039917,0.103124,0.029961,651.762146,-0.002556,0.118526,0.069405,0.0,1.0,2643.820313, set /instrumentation/magnetic-compass/serviceable false, fly_strait
90.087776,-34.876888,-33.683441,6.055274,0.270288,6.055274,0.270288,-29.999857,-30.0,68.722649,58.096504,768.289734,296.245667,291.039917,0.104374,0.027667,664.971558,-0.003368,0.120059,0.067621,0.0,1.0,2644.568359, set /instrumentation/magnetic-compass/serviceable false, fly_strait
90.287392,-31.428102,-30.234657,6.123742,0.28933,6.123742,0.28933,-29.999857,-30.0,72.612549,58.603432,786.914246,296.216522,291.039917,0.10356,0.019662,684.611328,-0.003861,0.121105,0.067665,0.0,1.0,2645.663818, set /instrumentation/magnetic-compass/serviceable false, fly_strait
90.417183,-29.075165,-27.88172,6.171422,0.275855,6.171422,0.275855,-29.999857,-30.0,75.256172,58.935211,798.78125,296.191589,291.039917,0.101175,0.013646,697.549011,-0.004133,0.122475,0.069122,0.0,1.0,2646.37793, set /instrumentation/magnetic-compass/serviceable false, fly_strait
90.606415,-25.467226,-24.273781,6.236295,0.223268,6.236295,0.223268,-29.999857,-30.0,79.294777,59.423706,816.003235,296.172394,291.039917,0.096201,0.008033,716.652954,-0.003941,0.123428,0.070369,0.0,1.0,2647.427002, set /instrumentation/magnetic-compass/serviceable false, fly_strait
90.728043,-23.010866,-21.817423,6.282989,0.180304,6.282989,0.180304,-19.999857,-20.0,82.034081,59.743301,827.157593,296.180817,291.039917,0.093243,0.007966,729.156555,-0.00319,0.124726,0.071329,0.0,1.0,2648.111572, set /instrumentation/magnetic-compass/serviceable false, fly_strait
90.90255,-19.2519,-18.058456,6.34759,0.133877,6.34759,0.133877,-19.999857,-20.0,86.212502,60.213631,843.630066,296.225708,291.039917,0.090815,0.013293,747.534241,-0.002576,0.12566,0.070908,0.0,1.0,2649.114502, set /instrumentation/magnetic-compass/serviceable false, fly_strait
91.013115,-16.697451,-15.504007,6.393678,0.123854,6.393678,0.123854,-19.999857,-20.0,89.043259,60.521152,854.426697,296.268768,291.039917,0.091034,0.018853,759.531677,-0.001913,0.126952,0.068663,0.0,1.0,2649.766113, set /instrumentation/magnetic-compass/serviceable false, fly_strait
91.171158,-12.79487,-11.601426,6.454951,0.145857,6.454951,0.145857,-9.999858,-10.0,93.356644,60.973385,870.337219,296.327087,291.039917,0.093448,0.025833,777.156128,-0.001769,0.127874,0.06651,0.0,1.0,2650.716797, set /instrumentation/magnetic-compass/serviceable false, fly_strait
91.272217,-10.146865,-8.953421,6.49674,0.174998,6.49674,0.174998,-9.999858,-10.0,96.275558,61.26886,880.604492,296.350647,291.039917,0.095354,0.027749,788.665222,-0.002084,0.129099,0.063594,0.0,1.0,2651.324463, set /instrumentation/magnetic-compass/serviceable false, fly_strait
91.419502,-6.107232,-4.913788,6.550087,0.21514,6.550087,0.21514,-9.999858,-10.0,100.717117,61.703102,895.398254,296.352264,291.039917,0.097076,0.02487,805.568604,-0.0025,0.129935,0.062416,0.0,1.0,2652.191162, set /instrumentation/magnetic-compass/serviceable false, fly_strait
91.51564,-3.370223,-2.176778,6.586187,0.226795,6.586187,0.226795,1.42E-4,0.0,103.717995,61.986683,904.737671,296.335358,291.039917,0.096543,0.020075,816.588928,-0.003073,0.131002,0.062335,0.0,1.0,2652.745605, set /instrumentation/magnetic-compass/serviceable false, fly_strait
91.657295,0.89686,2.090304,6.63362,0.208246,6.63362,0.208246,1.42E-4,0.0,108.276459,62.40332,918.087097,296.302979,291.039917,0.093365,0.012014,832.717651,-0.00324,0.131724,0.063181,0.0,1.0,2653.550049, set /instrumentation/magnetic-compass/serviceable false, fly_strait
91.749626,3.855943,5.049387,6.667221,0.176419,6.667221,0.176419,1.42E-4,0.0,111.351479,62.675339,926.58252,296.289429,291.039917,0.090336,0.008231,843.184814,-0.002975,0.132672,0.0648,0.0,1.0,2654.071289, set /instrumentation/magnetic-compass/serviceable false, fly_strait
91.883774,8.356513,9.549957,6.713696,0.119822,6.713696,0.119822,10.000142,10.0,116.016525,63.074871,938.980103,296.297638,291.039917,0.086072,0.00761,858.436279,-0.00252,0.133344,0.065477,0.0,1.0,2654.832764, set /instrumentation/magnetic-compass/serviceable false, fly_strait
91.969452,11.396811,12.590255,6.747498,0.089232,6.747498,0.089232,10.000142,10.0,119.160454,63.335613,947.075134,296.322845,291.039917,0.084501,0.010493,868.302734,-0.001712,0.134274,0.065067,0.0,1.0,2655.326904, set /instrumentation/magnetic-compass/serviceable false, fly_strait
92.091728,16.015038,17.208483,6.793808,0.074884,6.793808,0.074884,20.000143,20.0,123.926888,63.718361,959.075806,296.376221,291.039917,0.084552,0.017301,882.665649,-0.001275,0.13495,0.063806,0.0,1.0,2656.047119, set /instrumentation/magnetic-compass/serviceable false, fly_strait
92.169228,19.13133,20.324776,6.826213,0.085822,6.826213,0.085822,20.000143,20.0,127.137375,63.967979,966.919434,296.410797,291.039917,0.085879,0.021482,891.966064,-0.00107,0.135876,0.061137,0.0,1.0,2656.512939, set /instrumentation/magnetic-compass/serviceable false, fly_strait
92.280937,23.860342,25.053787,6.867866,0.121801,6.867866,0.121801,20.000143,20.0,132.001709,64.334137,978.355957,296.440002,291.039917,0.088468,0.023742,905.533203,-0.001226,0.136524,0.059409,0.0,1.0,2657.190674, set /instrumentation/magnetic-compass/serviceable false, fly_strait
92.353378,27.048458,28.241901,6.895716,0.145592,6.895716,0.145592,30.000143,30.0,135.275513,64.572784,985.624756,296.440308,291.039917,0.08941,0.022033,914.334229,-0.00174,0.137357,0.057948,0.0,1.0,2657.629883, set /instrumentation/magnetic-compass/serviceable false, fly_strait
92.460312,31.88201,33.075455,6.931026,0.158507,6.931026,0.158507,30.000143,30.0,140.230667,64.922699,995.980957,296.417694,291.039917,0.088772,0.015724,927.174683,-0.00208,0.137914,0.057933,0.0,1.0,2658.272705, set /instrumentation/magnetic-compass/serviceable true, fly_strait
92.530685,35.137497,36.33094,6.955295,0.147375,6.955295,0.147375,30.000143,30.0,143.561905,65.150688,1002.492554,296.397125,290.743866,0.086844,0.010823,935.48999,-0.002264,0.138621,0.059064,0.0,1.0,2658.692627, set /instrumentation/magnetic-compass/serviceable true, fly_strait
92.634369,40.068329,41.261772,6.988237,0.105312,6.988237,0.105312,40.000141,40.0,148.598724,65.484917,1011.85968,296.379395,290.162567,0.082748,0.006004,947.582581,-0.002105,0.139106,0.060092,0.0,1.0,2659.310547, set /instrumentation/magnetic-compass/serviceable true, fly_strait
92.701492,43.386097,44.57954,7.012362,0.070797,7.012362,0.070797,40.000141,40.0,151.982056,65.702629,1017.912292,296.38382,289.69162,0.080271,0.005643,955.386353,-0.001504,0.139765,0.060979,0.0,1.0,2659.715088, set /instrumentation/magnetic-compass/serviceable true, fly_strait
92.797913,48.4067,49.600143,7.046358,0.033065,7.046358,0.033065,50.000141,50.0,157.094833,66.021645,1026.885986,296.415863,288.875153,0.078171,0.009432,966.710022,-0.001011,0.140247,0.060757,0.0,1.0,2660.309082, set /instrumentation/magnetic-compass/serviceable true, fly_strait
92.858772,51.782154,52.975597,7.071079,0.024339,7.071079,0.024339,50.000141,50.0,160.528015,66.229332,1032.814453,296.44754,288.266846,0.078288,0.013564,974.015808,-4.72E-4,0.140927,0.059155,0.0,1.0,2660.695557, set /instrumentation/magnetic-compass/serviceable true, fly_strait
92.945297,56.886593,58.08004,7.104016,0.040452,7.104016,0.040452,60.000141,60.0,165.714874,66.533424,1041.605103,296.48996,287.274994,0.08018,0.018706,984.638367,-3.48E-4,0.141422,0.057571,0.0,1.0,2661.259521, set /instrumentation/magnetic-compass/serviceable true, fly_strait
93.000458,60.316399,61.509842,7.126357,0.062342,7.126357,0.062342,60.000141,60.0,169.196747,66.731239,1047.29187,296.505951,286.570557,0.081684,0.019968,991.513794,-5.78E-4,0.14208,0.05545,0.0,1.0,2661.625, set /instrumentation/magnetic-compass/serviceable true, fly_strait
93.080956,65.500221,66.693665,7.154205,0.091695,7.154205,0.091695,70.000145,70.0,174.454498,67.020676,1055.453613,296.503571,285.465698,0.082994,0.01739,1001.538879,-8.91E-4,0.142527,0.054651,0.0,1.0,2662.15918, set /instrumentation/magnetic-compass/serviceable true, fly_strait
93.133781,68.981445,70.174889,7.172809,0.099003,7.172809,0.099003,70.000145,70.0,177.981567,67.208855,1060.56665,296.488281,284.70639,0.082499,0.013502,1008.035339,-0.00131,0.143084,0.05477,0.0,1.0,2662.507324, set /instrumentation/magnetic-compass/serviceable true, fly_strait
93.212074,74.23983,75.433273,7.19708,0.081857,7.19708,0.081857,70.000145,70.0,183.303345,67.4841,1067.827271,296.461334,283.54895,0.079874,0.007258,1017.495239,-0.001414,0.143456,0.055534,0.0,1.0,2663.019531, set /instrumentation/magnetic-compass/serviceable true, fly_strait
93.263329,77.768875,78.962318,7.214522,0.055926,7.214522,0.055926,80.000145,80.0,186.870758,67.663002,1072.436768,296.450684,282.773865,0.07747,0.004512,1023.606934,-0.001169,0.143942,0.056882,0.0,1.0,2663.355225, set /instrumentation/magnetic-compass/serviceable true, fly_strait
93.337723,83.096092,84.289536,7.239196,0.012361,7.239196,0.012361,80.000145,80.0,192.250443,67.924599,1079.191895,296.457916,281.620758,0.074236,0.004487,1032.476318,-7.99E-4,0.14429,0.057414,0.0,1.0,2663.850098, set /instrumentation/magnetic-compass/serviceable true, fly_strait
93.384972,86.669197,87.86264,7.25756,-0.009611,7.25756,-0.009611,90.000145,90.0,195.855438,68.094536,1083.644043,296.477905,280.866608,0.073189,0.006993,1038.193237,-1.77E-4,0.144784,0.057053,0.0,1.0,2664.173584, set /instrumentation/magnetic-compass/serviceable true, fly_strait
93.451836,92.060143,93.253586,7.282938,-0.016651,7.282938,-0.016651,90.000145,90.0,201.290878,68.342834,1090.300415,296.518097,279.770599,0.073576,0.012365,1046.490112,1.37E-4,0.145151,0.056053,0.0,1.0,2664.647461, set /instrumentation/magnetic-compass/serviceable true, fly_strait
93.493904,95.674423,96.867867,7.300672,-0.005565,7.300672,-0.005565,100.000145,100.0,204.93277,68.503998,1094.674438,296.54245,279.070648,0.074798,0.015391,1051.849243,2.38E-4,0.145659,0.054044,0.0,1.0,2664.955078, set /instrumentation/magnetic-compass/serviceable true, fly_strait
93.519058,101.125465,102.318909,7.322995,0.022807,7.322995,0.022807,100.000145,100.0,210.422241,68.739281,1100.761108,296.559937,278.077759,0.076614,0.016573,1059.650879,8.0E-5,0.146013,0.052826,0.0,1.0,2665.381592, set /instrumentation/magnetic-compass/serviceable true, fly_strait
93.532394,104.778587,105.972031,7.337105,0.037242,7.337105,0.037242,100.000145,100.0,214.097702,68.891891,1104.332642,296.558105,277.459473,0.076842,0.01505,1064.694458,-3.26E-4,0.14646,0.051952,0.0,1.0,2665.635254, set /instrumentation/magnetic-compass/serviceable true, fly_strait
93.552994,110.285316,111.47876,7.352587,0.036366,7.352587,0.036366,110.000145,110.0,219.631805,69.114624,1109.01123,296.543365,276.605621,0.075475,0.010744,1071.999756,-5.32E-4,0.146742,0.052043,0.0,1.0,2665.983887, set /instrumentation/magnetic-compass/serviceable true, fly_strait
93.567245,113.973381,115.166824,7.362183,0.020081,7.362183,0.020081,110.000145,110.0,223.333191,69.259087,1111.676025,296.533783,276.089355,0.073596,0.007989,1076.675781,-5.2E-4,0.147052,0.05278,0.0,1.0,2666.20166, set /instrumentation/magnetic-compass/serviceable true, fly_strait
93.588898,119.528709,120.722153,7.374638,-0.019102,7.374638,-0.019102,120.000145,120.0,228.90094,69.469902,1115.230591,296.533722,275.399963,0.070347,0.006352,1083.359619,-2.87E-4,0.147244,0.053259,0.0,1.0,2666.512207, set /instrumentation/magnetic-compass/serviceable true, fly_strait
93.603004,123.246498,124.439941,7.383731,-0.046484,7.383731,-0.046484,120.000145,120.0,232.622162,69.606613,1117.410156,296.546387,274.999573,0.068698,0.007381,1087.578491,2.73E-4,0.147493,0.053262,0.0,1.0,2666.711182, set /instrumentation/magnetic-compass/serviceable true, fly_strait
93.622803,128.842606,130.036057,7.396303,-0.0723,7.396303,-0.0723,130.000137,130.0,238.217377,69.806046,1120.549072,296.579773,274.491028,0.067677,0.011273,1093.538818,6.64E-4,0.147675,0.052629,0.0,1.0,2666.999023, set /instrumentation/magnetic-compass/serviceable true, fly_strait
93.634956,132.585327,133.778763,7.405019,-0.077014,7.405019,-0.077014,130.000137,130.0,241.956039,69.935303,1122.565674,296.605133,274.214508,0.068018,0.014256,1097.270142,0.001033,0.147926,0.05096,0.0,1.0,2667.18457, set /instrumentation/magnetic-compass/serviceable true, fly_strait
93.65213,138.215973,139.409409,7.415516,-0.066866,7.415516,-0.066866,140.000137,140.0,247.576401,70.123734,1125.442627,296.63266,273.894226,0.069356,0.01681,1102.519897,0.0011,0.1481,0.049692,0.0,1.0,2667.453857, set /instrumentation/magnetic-compass/serviceable true, fly_strait
93.663422,141.980057,143.173492,7.421858,-0.056715,7.421858,-0.056715,140.000137,140.0,251.330948,70.245781,1127.200195,296.639404,273.743317,0.070023,0.01653,1105.800171,9.55E-4,0.14831,0.048315,0.0,1.0,2667.628418, set /instrumentation/magnetic-compass/serviceable true, fly_strait
93.681038,147.640442,148.833893,7.428651,-0.050986,7.428651,-0.050986,150.000137,150.0,256.973206,70.423622,1129.560669,296.631592,273.608734,0.069889,0.013154,1110.408569,8.1E-4,0.148437,0.047978,0.0,1.0,2667.885254, set /instrumentation/magnetic-compass/serviceable true, fly_strait
93.693558,151.422836,152.616287,7.432756,-0.058868,7.432756,-0.058868,150.000137,150.0,260.740814,70.538788,1130.934814,296.619598,273.578308,0.068741,0.009907,1113.280273,7.28E-4,0.148573,0.048369,0.0,1.0,2668.054199, set /instrumentation/magnetic-compass/serviceable true, fly_strait
93.713226,157.108398,158.301849,7.438116,-0.088959,7.438116,-0.088959,160.000137,160.0,266.40036,70.706589,1132.79541,296.605286,273.61731,0.065923,0.005896,1117.295654,8.41E-4,0.148655,0.048969,0.0,1.0,2668.305908, set /instrumentation/magnetic-compass/serviceable true, fly_strait
93.726524,160.906067,162.099518,7.442338,-0.116001,7.442338,-0.116001,160.000137,160.0,270.178375,70.815239,1133.96228,296.60437,273.696716,0.063947,0.004795,1119.783813,0.001271,0.148762,0.049684,0.0,1.0,2668.4729, set /instrumentation/magnetic-compass/serviceable true, fly_strait
93.745819,166.612518,167.805969,7.449124,-0.151488,7.449124,-0.151488,170.000137,170.0,275.852722,70.973503,1135.721069,296.620117,273.890198,0.06178,0.006147,1123.248413,0.001657,0.148847,0.04973,0.0,1.0,2668.721924, set /instrumentation/magnetic-compass/serviceable true, fly_strait
93.757797,170.422989,171.61644,7.454517,-0.166122,7.454517,-0.166122,170.000137,170.0,279.640533,71.075928,1136.936646,296.639191,274.065125,0.061322,0.008452,1125.393311,0.002164,0.148982,0.048943,0.0,1.0,2668.88623, set /instrumentation/magnetic-compass/serviceable true, fly_strait
93.774269,176.1474,177.340836,7.461921,-0.167635,7.461921,-0.167635,180.000137,180.0,285.330048,71.225021,1138.811157,296.668396,274.389648,0.061961,0.011937,1128.393555,0.002373,0.14909,0.047989,0.0,1.0,2669.12915, set /instrumentation/magnetic-compass/serviceable true, fly_strait
93.784554,179.969238,181.162674,7.466739,-0.15929,7.466739,-0.15929,180.000137,180.0,289.128235,71.321426,1140.04895,296.681824,274.643158,0.062785,0.013185,1130.267334,0.002395,0.149238,0.046529,0.0,1.0,2669.28833, set /instrumentation/magnetic-compass/serviceable true, fly_strait
93.799728,185.710037,186.903488,7.471941,-0.144031,7.471941,-0.144031,190.000137,190.0,294.833099,71.461647,1141.799805,296.685089,275.071381,0.063705,0.012206,1132.916016,0.002276,0.149335,0.045857,0.0,1.0,2669.523682, set /instrumentation/magnetic-compass/serviceable true, fly_strait
93.810143,189.542389,190.73584,7.474866,-0.139539,7.474866,-0.139539,190.000137,190.0,298.64093,71.552269,1142.845581,296.677094,275.384094,0.063519,0.009928,1134.585571,0.002058,0.149439,0.045694,0.0,1.0,2669.678955, set /instrumentation/magnetic-compass/serviceable true, fly_strait
93.826561,195.298218,196.491653,7.478189,-0.14983,7.478189,-0.14983,190.000137,190.0,304.358856,71.684029,1144.248047,296.658997,275.885498,0.061953,0.005667,1136.955811,0.001993,0.149497,0.046094,0.0,1.0,2669.910889, set /instrumentation/magnetic-compass/serviceable true, fly_strait
93.837921,199.139969,200.33342,7.480661,-0.16699,7.480661,-0.16699,200.000137,200.0,308.1745,71.769157,1145.099976,296.649506,276.23642,0.060328,0.003403,1138.449707,0.00214,0.149564,0.046999,0.0,1.0,2670.06543, set /instrumentation/magnetic-compass/serviceable true, fly_strait
93.854904,204.908936,206.102386,7.484893,-0.19876,7.484893,-0.19876,200.000137,200.0,313.903259,71.892921,1146.358398,296.648926,276.779449,0.057883,0.002484,1140.564697,0.002386,0.149613,0.047473,0.0,1.0,2670.296875, set /instrumentation/magnetic-compass/serviceable true, fly_strait
93.865707,208.758865,209.952316,7.488624,-0.21728,7.488624,-0.21728,210.000137,210.0,317.725952,71.972847,1147.235229,296.658722,277.147888,0.056875,0.003605,1141.895386,0.002839,0.149698,0.047502,0.0,1.0,2670.450928, set /instrumentation/magnetic-compass/serviceable true, fly_strait
93.880432,214.538391,215.731827,7.494467,-0.22927,7.494467,-0.22927,210.000137,210.0,323.465729,72.088943,1148.640381,296.682617,277.702728,0.056646,0.006816,1143.742065,0.003104,0.149772,0.047012,0.0,1.0,2670.679688, set /instrumentation/magnetic-compass/serviceable true, fly_strait
93.889366,218.395981,219.589417,7.498688,-0.226501,7.498688,-0.226501,220.000137,220.0,327.296204,72.163849,1149.623047,296.698883,278.069885,0.057252,0.00893,1144.959229,0.003275,0.149889,0.045818,0.0,1.0,2670.830322, set /instrumentation/magnetic-compass/serviceable true, fly_strait
93.901833,224.187805,225.381241,7.503655,-0.210895,7.503655,-0.210895,220.000137,220.0,333.048157,72.272522,1151.086182,296.712463,278.609711,0.058596,0.010205,1146.704834,0.003236,0.149974,0.045004,0.0,1.0,2671.053223, set /instrumentation/magnetic-compass/serviceable true, fly_strait
93.909988,228.052628,229.246063,7.506482,-0.199742,7.506482,-0.199742,230.000137,230.0,336.886688,72.342567,1151.996094,296.711761,278.958557,0.059145,0.009424,1147.824951,0.003013,0.150073,0.044325,0.0,1.0,2671.199951, set /instrumentation/magnetic-compass/serviceable true, fly_strait
93.922646,233.855164,235.048599,7.509289,-0.193689,7.509289,-0.193689,230.000137,230.0,342.649902,72.444115,1153.221069,296.698486,279.459198,0.058924,0.006272,1149.448853,0.002853,0.15013,0.04436,0.0,1.0,2671.418457, set /instrumentation/magnetic-compass/serviceable true, fly_strait
93.931534,237.726913,238.920364,7.511012,-0.199505,7.511012,-0.199505,240.000137,240.0,346.495239,72.509529,1153.938354,296.686432,279.774658,0.05798,0.003752,1150.494507,0.002767,0.150186,0.045024,0.0,1.0,2671.563477, set /instrumentation/magnetic-compass/serviceable true, fly_strait
93.945313,243.539337,244.732773,7.513678,-0.221244,7.513678,-0.221244,240.000137,240.0,352.267548,72.604332,1154.939453,296.674774,280.215393,0.055901,0.001226,1152.004517,0.00285,0.15022,0.045627,0.0,1.0,2671.78125, set /instrumentation/magnetic-compass/serviceable true, fly_strait
93.954376,247.417267,248.610718,7.516136,-0.239121,7.516136,-0.239121,250.000137,250.0,356.1185,72.665367,1155.604858,296.675232,280.485138,0.05464,9.93E-4,1152.970459,0.003161,0.150274,0.04621,0.0,1.0,2671.92627, set /instrumentation/magnetic-compass/serviceable true, fly_strait
93.966965,253.23732,254.430771,7.520474,-0.25869,7.520474,-0.25869,250.000137,250.0,361.899231,72.753754,1156.668335,296.689087,280.850311,0.053597,0.002898,1154.310791,0.003416,0.150323,0.046187,0.0,1.0,2672.143066, set /instrumentation/magnetic-compass/serviceable true, turn_+45
93.97422,257.121033,258.314484,7.524141,-0.270944,7.524141,-0.270944,260.000153,260.0,365.756104,72.8106,1157.442505,296.716675,281.065948,0.04608,0.007701,1155.219482,0.001232,0.150409,0.1,0.0,1.0,2672.286621, set /instrumentation/magnetic-compass/serviceable true, turn_+45
93.972702,262.949615,264.143066,7.539222,-0.29142,7.539222,-0.29142,260.000153,260.0,371.546692,72.892677,1158.875977,296.976715,281.346436,0.040752,0.04926,1156.487793,0.00129,0.150483,0.1,0.0,1.0,2672.492432, set /instrumentation/magnetic-compass/serviceable true, turn_+45
93.957237,266.839111,268.032562,7.559551,-0.204062,7.559551,-0.204062,270.000153,270.0,375.412415,72.945129,1160.637573,297.254883,281.505676,0.050479,0.091765,1157.362427,0.001388,0.150784,0.1,0.0,1.0,2672.613281, set /instrumentation/magnetic-compass/serviceable true, turn_+45
93.911354,272.679047,273.872498,7.588851,0.133801,7.588851,0.133801,270.000153,270.0,381.225464,73.020035,1164.65332,297.68985,281.705963,0.079264,0.15431,1158.717407,9.72E-4,0.151191,0.1,0.0,1.0,2672.752686, set /instrumentation/magnetic-compass/serviceable true, turn_+45
93.871132,276.577576,277.771027,7.601484,0.472678,7.601484,0.472678,280.000153,280.0,385.112823,73.067245,1167.667603,297.924896,281.815613,0.10241,0.184416,1159.714355,-6.37E-4,0.151777,0.1,0.0,1.0,2672.814209, set /instrumentation/magnetic-compass/serviceable true, turn_+45
93.809692,282.435455,283.628876,7.601133,1.046504,7.601133,1.046504,280.000153,280.0,390.961334,73.133789,1171.314209,298.135925,281.946594,0.133689,0.203283,1161.430542,-0.002251,0.15203,0.1,0.0,1.0,2672.868896, set /instrumentation/magnetic-compass/serviceable true, turn_+45
93.773888,286.348022,287.541443,7.594567,1.416162,7.594567,1.416162,290.000153,290.0,394.868195,73.175339,1172.607056,298.183167,282.012207,0.147985,0.199441,1162.720825,-0.004983,0.152023,0.1,0.0,1.0,2672.890625, set /instrumentation/magnetic-compass/serviceable true, turn_+45
93.731789,292.22699,293.420441,7.583622,1.855802,7.583622,1.855802,290.000153,290.0,400.732941,73.233704,1172.989868,298.16272,282.078217,0.156777,0.17798,1164.783813,-0.006744,0.151891,0.1,0.0,1.0,2672.919922, set /instrumentation/magnetic-compass/serviceable true, turn_+45
93.711021,296.151794,297.345215,7.576224,2.057235,7.576224,2.057235,300.000153,300.0,404.642029,73.270187,1172.390259,298.130585,282.100555,0.154938,0.160782,1166.162842,-0.008837,0.151672,0.1,0.0,1.0,2672.944336, set /instrumentation/magnetic-compass/serviceable true, turn_+45
93.687874,302.044189,303.23761,7.566852,2.221644,7.566852,2.221644,300.000153,300.0,410.499908,73.321648,1170.694458,298.123688,282.101959,0.14509,0.141883,1168.09082,-0.009796,0.151524,0.1,0.0,1.0,2672.995361, set /instrumentation/magnetic-compass/serviceable true, turn_+45
93.675514,305.974091,307.167542,7.560305,2.269624,7.560305,2.269624,310.000153,310.0,414.399902,73.353951,1169.326172,298.173767,282.082428,0.137111,0.138199,1169.21106,-0.010579,0.151337,0.1,0.0,1.0,2673.038818, set /instrumentation/magnetic-compass/serviceable true, turn_+45
93.657524,311.867432,313.060883,7.552434,2.30589,7.552434,2.30589,310.000153,310.0,420.241333,73.399628,1167.36145,298.345032,282.025513,0.127943,0.147566,1170.497925,-0.010808,0.151206,0.1,0.0,1.0,2673.114258, set /instrumentation/magnetic-compass/serviceable false, turn_+45
93.64328,315.796021,316.989441,7.548059,2.339575,7.548059,2.339575,320.000153,320.0,424.130676,73.428276,1166.330688,298.514008,282.025513,0.125454,0.161784,1171.187988,-0.01098,0.151049,0.1,0.0,1.0,2673.167969, set /instrumentation/magnetic-compass/serviceable false, turn_+45
93.617279,321.685486,322.878937,7.544118,2.43897,7.544118,2.43897,320.000153,320.0,429.959503,73.468536,1165.349609,298.814331,282.025513,0.127701,0.188699,1171.878906,-0.011141,0.150961,0.1,0.0,1.0,2673.24585, set /instrumentation/magnetic-compass/serviceable false, turn_+45
93.596703,325.609314,326.802765,7.541768,2.543921,7.541768,2.543921,330.000153,330.0,433.843445,73.493546,1165.041382,299.021851,282.025513,0.13227,0.20632,1172.144165,-0.011614,0.150882,0.1,0.0,1.0,2673.293213, set /instrumentation/magnetic-compass/serviceable false, turn_+45
93.566238,331.490234,332.683655,7.537843,2.743441,7.537843,2.743441,330.000153,330.0,439.667999,73.528275,1164.798096,299.311096,282.025513,0.141084,0.2269,1172.24939,-0.012114,0.150835,0.1,0.0,1.0,2673.355225, set /instrumentation/magnetic-compass/serviceable false, turn_+45
93.540604,335.409851,336.603271,7.534192,2.890148,7.534192,2.890148,330.000153,330.0,443.550354,73.549583,1164.596313,299.478943,282.025513,0.146554,0.235295,1172.2854,-0.013064,0.150757,0.1,0.0,1.0,2673.391846, set /instrumentation/magnetic-compass/serviceable false, turn_+45
93.509468,341.286224,342.479645,7.527898,3.095677,7.527898,3.095677,340.000153,340.0,449.371918,73.578857,1163.976563,299.693207,282.025513,0.152115,0.240254,1172.212646,-0.013763,0.150684,0.1,0.0,1.0,2673.443848, set /instrumentation/magnetic-compass/serviceable false, turn_+45
93.491127,345.201721,346.395172,7.522787,3.211969,7.522787,3.211969,340.000153,340.0,453.250732,73.596649,1163.281738,299.819061,282.025513,0.1535,0.240115,1172.092773,-0.014741,0.150558,0.1,0.0,1.0,2673.479004, set /instrumentation/magnetic-compass/serviceable false, turn_+45
93.470482,351.070007,352.263458,7.515143,3.339996,7.515143,3.339996,350.000153,350.0,459.063599,73.620934,1161.848877,300.00296,282.025513,0.152468,0.238288,1171.732544,-0.015295,0.150456,0.1,0.0,1.0,2673.536133, set /instrumentation/magnetic-compass/serviceable false, turn_+45
93.45356,354.980469,356.17392,7.509326,3.398263,7.509326,3.398263,350.000153,350.0,462.934509,73.635612,1160.709229,300.133881,282.025513,0.150411,0.238011,1171.485107,-0.015905,0.150303,0.1,0.0,1.0,2673.578369, set /instrumentation/magnetic-compass/serviceable false, turn_+45
93.434891,360.840973,362.034424,7.50115,3.455252,7.50115,3.455252,360.000153,360.0,468.733398,73.655525,1158.891846,300.356079,282.025513,0.146862,0.241077,1170.966553,-0.016182,0.150187,0.1,0.0,1.0,2673.648438, set /instrumentation/magnetic-compass/serviceable false, turn_+45
93.422928,364.744049,365.9375,7.495367,3.484358,7.495367,3.484358,360.000153,360.0,472.59433,73.667458,1157.713379,300.523804,282.025513,0.145009,0.24577,1170.519531,-0.016454,0.150023,0.1,0.0,1.0,2673.698486, set /instrumentation/magnetic-compass/serviceable false, turn_+45
93.40448,370.592224,371.785675,7.488006,3.52967,7.488006,3.52967,370.000153,370.0,478.378662,73.683434,1156.117432,300.800323,282.025513,0.143844,0.255858,1169.703857,-0.016592,0.149907,0.1,0.0,1.0,2673.776855, set /instrumentation/magnetic-compass/serviceable false, turn_+45
93.391418,374.485382,375.678833,7.483128,3.567696,7.483128,3.567696,370.000153,370.0,482.230804,73.692825,1155.207031,300.99527,282.025513,0.144236,0.263568,1169.015137,-0.016808,0.14976,0.1,0.0,1.0,2673.829834, set /instrumentation/magnetic-compass/serviceable false, turn_+45
93.371101,380.320618,381.514038,7.477036,3.638599,7.477036,3.638599,380.000153,380.0,488.003754,73.705078,1154.038818,301.29184,282.025513,0.146151,0.274641,1168.000732,-0.016989,0.149663,0.1,0.0,1.0,2673.90918, set /instrumentation/magnetic-compass/serviceable false, turn_+45
93.357277,384.206421,385.399872,7.472876,3.6937,7.472876,3.6937,380.000153,380.0,491.849365,73.712044,1153.353638,301.486603,282.025513,0.147847,0.280808,1167.270874,-0.017327,0.149541,0.1,0.0,1.0,2673.96167, set /instrumentation/magnetic-compass/serviceable false, turn_+45
93.339897,390.027618,391.221039,7.467289,3.778821,7.467289,3.778821,390.000153,390.0,497.613556,73.720741,1152.353394,301.769073,282.025513,0.150227,0.287484,1166.055664,-0.017589,0.149458,0.1,0.0,1.0,2674.039795, set /instrumentation/magnetic-compass/serviceable false, turn_+45
93.323654,393.904358,395.097809,7.463232,3.833179,7.463232,3.833179,390.000153,390.0,501.453552,73.72541,1151.66394,301.950775,282.025513,0.151327,0.290312,1165.240845,-0.017994,0.149346,0.1,0.0,1.0,2674.092285, set /instrumentation/magnetic-compass/serviceable false, turn_+45
